[
  {
    "id": "63932576-ed2d-4024-862b-003b3ce36e3f",
    "name": "Tap and Vine",
    "brewery_type": "brewpub",
    "address_1": "907 Lincoln Way",
    "address_2": null,
    "address_3": null,
    "city": "Auburn",
    "state_province": "California",
    "postal_code": "95603",
    "country": "United States",
    "longitude": -121.0694956,
    "latitude": 38.89956738,
    "phone": "5308898463",
    "website_url": "http://www.tapandvineauburn.com",
    "state": "California",
    "street": "907 Lincoln Way"
  },
  {
    "id": "6f4276b5-6c06-460f-998d-0f3251a0b27c",
    "name": "Tap It Brewing Co",
    "brewery_type": "closed",
    "address_1": "675 Clarion Ct Ste 1",
    "address_2": null,
    "address_3": null,
    "city": "San Luis Obispo",
    "state_province": "California",
    "postal_code": "93401-8178",
    "country": "United States",
    "longitude": -120.6459687,
    "latitude": 35.24427999,
    "phone": "8055457702",
    "website_url": "http://www.tapitbrewing.com",
    "state": "California",
    "street": "675 Clarion Ct Ste 1"
  },
  {
    "id": "6bd4288d-8bb6-4a55-986e-4b5a41d4bc5e",
    "name": "Tap on Main Brewing Company",
    "brewery_type": "micro",
    "address_1": "601A N Main St",
    "address_2": null,
    "address_3": null,
    "city": "Somerset",
    "state_province": "Kentucky",
    "postal_code": "42501",
    "country": "United States",
    "longitude": -84.608383,
    "latitude": 37.100832,
    "phone": "6064511525",
    "website_url": "http://www.taponmainst.com",
    "state": "Kentucky",
    "street": "601A N Main St"
  },
  {
    "id": "c544e05c-deeb-4010-bf0d-aa10ad178d71",
    "name": "Tap Out Craft Beers",
    "brewery_type": "brewpub",
    "address_1": "103 East Coast Road",
    "address_2": null,
    "address_3": null,
    "city": "Singapore",
    "state_province": "Singapore",
    "postal_code": "428797",
    "country": "Singapore",
    "longitude": 1.3059135415297,
    "latitude": 103.9043525,
    "phone": "+65 8404 9144",
    "website_url": "https://tapoutcraftbeers.com/",
    "state": "Singapore",
    "street": "103 East Coast Road"
  },
  {
    "id": "a2cff25c-2552-4941-b7da-cd671f81249b",
    "name": "Tapistry Brewing Company",
    "brewery_type": "micro",
    "address_1": "4236 Lake St",
    "address_2": null,
    "address_3": null,
    "city": "Bridgman",
    "state_province": "Michigan",
    "postal_code": "49106-9109",
    "country": "United States",
    "longitude": -86.5561575,
    "latitude": 41.9427559,
    "phone": "2692667349",
    "website_url": "http://www.tapistrybrewing.com",
    "state": "Michigan",
    "street": "4236 Lake St"
  },
  {
    "id": "0712721c-20c3-4ac4-88d5-8a5b4b56e527",
    "name": "Taplands Brewery",
    "brewery_type": "brewpub",
    "address_1": "1171 Homestead Rd Ste 110",
    "address_2": null,
    "address_3": null,
    "city": "Santa Clara",
    "state_province": "California",
    "postal_code": "95050-5479",
    "country": "United States",
    "longitude": -121.9460243,
    "latitude": 37.34814789,
    "phone": "4087092990",
    "website_url": "http://www.taplands.com",
    "state": "California",
    "street": "1171 Homestead Rd Ste 110"
  },
  {
    "id": "83368eeb-c75a-4d38-832a-91ab2d501b3d",
    "name": "Taproot Brewing Co / Newport Vineyards",
    "brewery_type": "micro",
    "address_1": "909 E Main Rd",
    "address_2": null,
    "address_3": null,
    "city": "Middletown",
    "state_province": "Rhode Island",
    "postal_code": "02842-5529",
    "country": "United States",
    "longitude": -71.2726634,
    "latitude": 41.5293214,
    "phone": "4018485161",
    "website_url": "https://www.taprootbeer.com",
    "state": "Rhode Island",
    "street": "909 E Main Rd"
  },
  {
    "id": "ea0ef1dd-af5c-4936-983b-22e5f190baac",
    "name": "Taps and Apps",
    "brewery_type": "brewpub",
    "address_1": "95-1830 Meheula Pkwy Ste C-6",
    "address_2": null,
    "address_3": null,
    "city": "Mililani",
    "state_province": "Hawaii",
    "postal_code": "96789-6311",
    "country": "United States",
    "longitude": -158.002414,
    "latitude": 21.467355,
    "phone": "8086268277",
    "website_url": "http://www.tapsandappsbrewpub.com",
    "state": "Hawaii",
    "street": "95-1830 Meheula Pkwy Ste C-6"
  },
  {
    "id": "e6308f1f-f1e9-4fcf-8441-d6e789d613a6",
    "name": "TAPS Brewery and Barrel Room",
    "brewery_type": "planning",
    "address_1": null,
    "address_2": null,
    "address_3": null,
    "city": "Tustin",
    "state_province": "California",
    "postal_code": "92780-7302",
    "country": "United States",
    "longitude": -117.826166,
    "latitude": 33.7458511,
    "phone": null,
    "website_url": null,
    "state": "California",
    "street": null
  },
  {
    "id": "8b865b0c-585f-4911-a8db-25a466c3915b",
    "name": "TAPS Fish House and Brewery - Brea",
    "brewery_type": "brewpub",
    "address_1": "101 E Imperial Hwy",
    "address_2": null,
    "address_3": null,
    "city": "Brea",
    "state_province": "California",
    "postal_code": "92821-4924",
    "country": "United States",
    "longitude": -117.9018387,
    "latitude": 33.9171643,
    "phone": "7142570101",
    "website_url": "http://www.tapsbrea.com",
    "state": "California",
    "street": "101 E Imperial Hwy"
  },
  {
    "id": "cdc715dd-7ca6-40f1-b028-c3f735e393ea",
    "name": "TAPS Fish House and Brewery - Corona",
    "brewery_type": "brewpub",
    "address_1": "2745 Lakeshore Dr",
    "address_2": null,
    "address_3": null,
    "city": "Corona",
    "state_province": "California",
    "postal_code": "92883-7367",
    "country": "United States",
    "longitude": -117.5088541,
    "latitude": 33.81408315,
    "phone": "9512775800",
    "website_url": null,
    "state": "California",
    "street": "2745 Lakeshore Dr"
  },
  {
    "id": "dbfbb11d-200e-4b5e-95f2-de7205a8aef2",
    "name": "Tarantula Hill Brewing Company",
    "brewery_type": "planning",
    "address_1": null,
    "address_2": null,
    "address_3": null,
    "city": "Thousand Oaks",
    "state_province": "California",
    "postal_code": "91360",
    "country": "United States",
    "longitude": -118.9105877,
    "latitude": 34.17142715,
    "phone": "6199951731",
    "website_url": null,
    "state": "California",
    "street": null
  },
  {
    "id": "85314e5d-defb-44cf-9630-55a5bced2268",
    "name": "Tarboro Brewing Company",
    "brewery_type": "micro",
    "address_1": "526 N Main St",
    "address_2": null,
    "address_3": null,
    "city": "Tarboro",
    "state_province": "North Carolina",
    "postal_code": "27886-4313",
    "country": "United States",
    "longitude": -77.53557317,
    "latitude": 35.89855641,
    "phone": "2525636522",
    "website_url": "http://www.tarborobrewingcompany.com",
    "state": "North Carolina",
    "street": "526 N Main St"
  },
  {
    "id": "d3b95387-babd-45d7-aba2-5e915294af09",
    "name": "Tarla Mediterranean Bar and Grill",
    "brewery_type": "brewpub",
    "address_1": "1480 1st St",
    "address_2": null,
    "address_3": null,
    "city": "Napa",
    "state_province": "California",
    "postal_code": "94559-2843",
    "country": "United States",
    "longitude": -122.289765,
    "latitude": 38.29719738,
    "phone": "7072555599",
    "website_url": "http://www.tarlagrill.com",
    "state": "California",
    "street": "1480 1st St"
  },
  {
    "id": "623ee5b9-a7a3-4401-86ae-4af68f3c1071",
    "name": "Tarpon River Brewing",
    "brewery_type": "micro",
    "address_1": "280 SW 6th Street",
    "address_2": null,
    "address_3": null,
    "city": "Fort Lauderdale",
    "state_province": "Florida",
    "postal_code": "33301",
    "country": "United States",
    "longitude": -80.14595562,
    "latitude": 26.11462092,
    "phone": "9545334590",
    "website_url": "http://www.nativebrewingco.com/index.html",
    "state": "Florida",
    "street": "280 SW 6th Street"
  },
  {
    "id": "1cc7fc9b-908c-4f47-83e7-9b1db04193d4",
    "name": "Tattered Flag Brewery",
    "brewery_type": "brewpub",
    "address_1": "1 S Union St",
    "address_2": null,
    "address_3": null,
    "city": "Middletown",
    "state_province": "Pennsylvania",
    "postal_code": "17057-1446",
    "country": "United States",
    "longitude": -76.731309,
    "latitude": 40.194934,
    "phone": "7176168799",
    "website_url": "http://www.tatteredflagbsw.com",
    "state": "Pennsylvania",
    "street": "1 S Union St"
  },
  {
    "id": "634bd2d5-223d-482a-a6ca-0e57f25a21ae",
    "name": "Tavern Brewery",
    "brewery_type": "brewpub",
    "address_1": "200 W Lake Dr",
    "address_2": null,
    "address_3": null,
    "city": "Detroit Lakes",
    "state_province": "Minnesota",
    "postal_code": "56501-3917",
    "country": "United States",
    "longitude": -95.8477011,
    "latitude": 46.8066561,
    "phone": "2188471891",
    "website_url": null,
    "state": "Minnesota",
    "street": "200 W Lake Dr"
  },
  {
    "id": "a3f8cc82-579b-4246-850a-292d9e21703a",
    "name": "Taxman Brewing Co",
    "brewery_type": "micro",
    "address_1": "13 S Baldwin St",
    "address_2": null,
    "address_3": null,
    "city": "Bargersville",
    "state_province": "Indiana",
    "postal_code": "46106-9089",
    "country": "United States",
    "longitude": -86.16716199,
    "latitude": 39.52148548,
    "phone": null,
    "website_url": "http://www.taxmanbrewing.com",
    "state": "Indiana",
    "street": "13 S Baldwin St"
  },
  {
    "id": "05b1e90b-9aa9-44da-a80e-d1ee2610ba51",
    "name": "Taylor Brooke Brewery",
    "brewery_type": "micro",
    "address_1": "818 Route 171",
    "address_2": null,
    "address_3": null,
    "city": "Woodstock",
    "state_province": "Connecticut",
    "postal_code": "06281-2930",
    "country": "United States",
    "longitude": null,
    "latitude": null,
    "phone": "8609741263",
    "website_url": "https://www.taylorbrookewinery.com",
    "state": "Connecticut",
    "street": "818 Route 171"
  },
  {
    "id": "ba4851b3-8034-4347-8f01-9a5183f9b555",
    "name": "Taylor House Brewing Co",
    "brewery_type": "micro",
    "address_1": "76 Lehigh St",
    "address_2": null,
    "address_3": null,
    "city": "Catasauqua",
    "state_province": "Pennsylvania",
    "postal_code": "18032",
    "country": "United States",
    "longitude": -75.46805342,
    "latitude": 40.64817832,
    "phone": null,
    "website_url": "http://www.taylorhousebrewing.com",
    "state": "Pennsylvania",
    "street": "76 Lehigh St"
  },
  {
    "id": "a65b0d05-2ee4-4b4e-9aa0-3dc6ba18cc2c",
    "name": "TBD",
    "brewery_type": "micro",
    "address_1": "17985 Armada Center Rd",
    "address_2": null,
    "address_3": null,
    "city": "Armada",
    "state_province": "Michigan",
    "postal_code": "48005-2323",
    "country": "United States",
    "longitude": -82.95124856,
    "latitude": 42.84942455,
    "phone": "5869897454",
    "website_url": "http://www.blakeshardcider.com",
    "state": "Michigan",
    "street": "17985 Armada Center Rd"
  },
  {
    "id": "a60a0bc4-dcdf-4a43-bda3-17b4db6f7291",
    "name": "Teachers Lounge Brewing",
    "brewery_type": "planning",
    "address_1": null,
    "address_2": null,
    "address_3": null,
    "city": "Denver",
    "state_province": "Colorado",
    "postal_code": "80210-3349",
    "country": "United States",
    "longitude": null,
    "latitude": null,
    "phone": "3038685142",
    "website_url": "http://www.eachersloungebrewing.com",
    "state": "Colorado",
    "street": null
  },
  {
    "id": "f63f4c7c-57a6-4e56-b16d-6928e8c08aa0",
    "name": "Teays River Brewing",
    "brewery_type": "brewpub",
    "address_1": "3000 S 9th St Ste A",
    "address_2": null,
    "address_3": null,
    "city": "Lafayette",
    "state_province": "Indiana",
    "postal_code": "47909-6702",
    "country": "United States",
    "longitude": null,
    "latitude": null,
    "phone": "7657466614",
    "website_url": "http://www.teaysriverbrewing.com",
    "state": "Indiana",
    "street": "3000 S 9th St Ste A"
  },
  {
    "id": "3bc7477e-6b51-4ec4-9879-106902e23f21",
    "name": "Tecumseh Brewing Company",
    "brewery_type": "brewpub",
    "address_1": "128 W Chicago Blvd",
    "address_2": null,
    "address_3": null,
    "city": "Tecumseh",
    "state_province": "Michigan",
    "postal_code": "49286-1553",
    "country": "United States",
    "longitude": -83.946191,
    "latitude": 42.004052,
    "phone": "5178151726",
    "website_url": "http://www.tecumsehbrewingco.com",
    "state": "Michigan",
    "street": "128 W Chicago Blvd"
  },
  {
    "id": "538a9de0-db76-4d2e-af6d-8a3db700b6bf",
    "name": "Teeccino Brewing Company",
    "brewery_type": "planning",
    "address_1": null,
    "address_2": null,
    "address_3": null,
    "city": "Carpinteria",
    "state_province": "California",
    "postal_code": "93013-2905",
    "country": "United States",
    "longitude": -119.5184564,
    "latitude": 34.3988838,
    "phone": "8059660999",
    "website_url": "http://www.teeccino.com",
    "state": "California",
    "street": null
  },
  {
    "id": "a0a6eb69-2178-4809-8797-840da743d2e9",
    "name": "Tek Mountain Brewing",
    "brewery_type": "micro",
    "address_1": "1844 Sir Tyler Dr",
    "address_2": null,
    "address_3": null,
    "city": "Wilmington",
    "state_province": "North Carolina",
    "postal_code": "28405-8305",
    "country": "United States",
    "longitude": -77.8239017,
    "latitude": 34.24224042,
    "phone": "9104705334",
    "website_url": "http://www.facebook.com/groups/TekMountainBrewing/",
    "state": "North Carolina",
    "street": "1844 Sir Tyler Dr"
  },
  {
    "id": "3bd29102-fc0a-4ce2-bcb6-940df953a00f",
    "name": "Telegraph Brewing Co",
    "brewery_type": "micro",
    "address_1": "418 N Salsipuedes St",
    "address_2": null,
    "address_3": null,
    "city": "Santa Barbara",
    "state_province": "California",
    "postal_code": "93103-3127",
    "country": "United States",
    "longitude": -119.6881651,
    "latitude": 34.4228601,
    "phone": "8059635018",
    "website_url": "http://www.telegraphbrewing.com",
    "state": "California",
    "street": "418 N Salsipuedes St"
  },
  {
    "id": "efaa1d14-a838-4786-869f-2471ad7c3622",
    "name": "Telluride Brewing Co",
    "brewery_type": "micro",
    "address_1": "156 DEF Society Drive",
    "address_2": null,
    "address_3": null,
    "city": "Telluride",
    "state_province": "Colorado",
    "postal_code": "81435",
    "country": "United States",
    "longitude": null,
    "latitude": null,
    "phone": "9707285094",
    "website_url": "http://www.telluridebrewingco.com",
    "state": "Colorado",
    "street": "156 DEF Society Drive"
  },
  {
    "id": "a03588bf-9b7f-4f47-85b9-fc6b36dcb2a4",
    "name": "Temblor Brewing Company",
    "brewery_type": "brewpub",
    "address_1": "3200 Buck Owens Blvd Ste 200",
    "address_2": null,
    "address_3": null,
    "city": "Bakersfield",
    "state_province": "California",
    "postal_code": "93308-6376",
    "country": "United States",
    "longitude": -119.043071,
    "latitude": 35.3885985,
    "phone": "6614894855",
    "website_url": "http://www.temblorbrewing.com",
    "state": "California",
    "street": "3200 Buck Owens Blvd Ste 200"
  },
  {
    "id": "0d941cc3-decc-49d2-affc-14664b5f3efe",
    "name": "Temescal Brewing",
    "brewery_type": "micro",
    "address_1": "4115 Telegraph Ave",
    "address_2": null,
    "address_3": null,
    "city": "Oakland",
    "state_province": "California",
    "postal_code": "94609-2405",
    "country": "United States",
    "longitude": -122.2645038,
    "latitude": 37.8303644,
    "phone": "5108995628",
    "website_url": "http://www.temescalbrewing.com",
    "state": "California",
    "street": "4115 Telegraph Ave"
  },
  {
    "id": "aa8a5d03-6fd0-4b3a-95ed-3f4e2f499b30",
    "name": "Temperance Beer Company, LLC",
    "brewery_type": "micro",
    "address_1": "2000 Dempster St",
    "address_2": null,
    "address_3": null,
    "city": "Evanston",
    "state_province": "Illinois",
    "postal_code": "60202-1017",
    "country": "United States",
    "longitude": -87.7013174,
    "latitude": 42.040962,
    "phone": "8478641000",
    "website_url": "http://temperance.beer",
    "state": "Illinois",
    "street": "2000 Dempster St"
  },
  {
    "id": "ba1f3a28-30d7-4a1f-bf5f-e1c858d3ef97",
    "name": "Temperance Row Brewing and Uptown Deli",
    "brewery_type": "brewpub",
    "address_1": "41 N State St",
    "address_2": null,
    "address_3": null,
    "city": "Westerville",
    "state_province": "Ohio",
    "postal_code": "43081-2123",
    "country": "United States",
    "longitude": -82.92806564,
    "latitude": 40.11493135,
    "phone": "6148912337",
    "website_url": "http://www.uptowndeliandbrew.com",
    "state": "Ohio",
    "street": "41 N State St"
  },
  {
    "id": "7ddbad2b-3e2c-4be0-bbc1-8e56fdae20e0",
    "name": "Temperate Habits Brewing Company",
    "brewery_type": "brewpub",
    "address_1": "500 S 1st St",
    "address_2": null,
    "address_3": null,
    "city": "Mount Vernon",
    "state_province": "Washington",
    "postal_code": "98273-3809",
    "country": "United States",
    "longitude": -122.337629,
    "latitude": 48.419856,
    "phone": "3603997740",
    "website_url": "https://temperatehabitsbrewing.com/",
    "state": "Washington",
    "street": "500 S 1st St"
  },
  {
    "id": "65cd0e8e-5d7d-4304-bf30-a587f29416ff",
    "name": "Templin Family Brewing",
    "brewery_type": "micro",
    "address_1": "936 S 300 W",
    "address_2": null,
    "address_3": null,
    "city": "Salt Lake City",
    "state_province": "Utah",
    "postal_code": "84101",
    "country": "United States",
    "longitude": -111.9000402,
    "latitude": 40.7486519,
    "phone": "3852705972",
    "website_url": "https://tfbrewing.com",
    "state": "Utah",
    "street": "936 S 300 W"
  },
  {
    "id": "8d5bb097-d59f-49d0-911a-0af4f63f66a4",
    "name": "Ten 10 Brewing Co",
    "brewery_type": "brewpub",
    "address_1": "1010 Virginia Dr",
    "address_2": null,
    "address_3": null,
    "city": "Orlando",
    "state_province": "Florida",
    "postal_code": "32803-2532",
    "country": "United States",
    "longitude": -81.36592044,
    "latitude": 28.56397689,
    "phone": "4079308993",
    "website_url": "http://www.ten10brewingcompany.com",
    "state": "Florida",
    "street": "1010 Virginia Dr"
  },
  {
    "id": "b68a7e7e-29fa-427a-a40b-1216a00af829",
    "name": "Ten Bends Beer",
    "brewery_type": "micro",
    "address_1": "590 E Main St",
    "address_2": null,
    "address_3": null,
    "city": "Hyde Park",
    "state_province": "Vermont",
    "postal_code": "05655-9267",
    "country": "United States",
    "longitude": -72.60515022,
    "latitude": 44.58894694,
    "phone": "8025217139",
    "website_url": "http://wwwtenbendsbeer.com",
    "state": "Vermont",
    "street": "590 E Main St"
  },
  {
    "id": "6ef59986-4d00-46b4-880c-8e202f6f5a7b",
    "name": "Ten Fifty Five Brewing",
    "brewery_type": "micro",
    "address_1": "3810 E 44th St Ste 315",
    "address_2": null,
    "address_3": null,
    "city": "Tucson",
    "state_province": "Arizona",
    "postal_code": "85713-5474",
    "country": "United States",
    "longitude": null,
    "latitude": null,
    "phone": "5204618073",
    "website_url": "http://www.1055brewing.com",
    "state": "Arizona",
    "street": "3810 E 44th St Ste 315"
  },
  {
    "id": "f74bf618-77d2-4541-b7c2-de15feebdcac",
    "name": "Ten Mile Brewing",
    "brewery_type": "micro",
    "address_1": "1136 E Willow St",
    "address_2": null,
    "address_3": null,
    "city": "Signal Hill",
    "state_province": "California",
    "postal_code": "90755-3433",
    "country": "United States",
    "longitude": -118.1806752,
    "latitude": 33.8043697,
    "phone": "5626121255",
    "website_url": "http://www.tenmilebrewing.com",
    "state": "California",
    "street": "1136 E Willow St"
  },
  {
    "id": "af5797f0-c4ab-4b52-972e-eb2b4cd90fe5",
    "name": "Ten Mile Creek Brewery",
    "brewery_type": "micro",
    "address_1": "48 N Last Chance Gulch",
    "address_2": null,
    "address_3": null,
    "city": "Helena",
    "state_province": "Montana",
    "postal_code": "59601-4122",
    "country": "United States",
    "longitude": null,
    "latitude": null,
    "phone": "4065021382",
    "website_url": "http://www.tenmilecreekbrewing.com",
    "state": "Montana",
    "street": "48 N Last Chance Gulch"
  },
  {
    "id": "a5abe2bb-a5cb-4994-8dde-05188906b960",
    "name": "Ten Ninety Brewing Co",
    "brewery_type": "micro",
    "address_1": "1025 Waukegan Rd",
    "address_2": null,
    "address_3": null,
    "city": "Glenview",
    "state_province": "Illinois",
    "postal_code": "60025",
    "country": "United States",
    "longitude": -87.7996254,
    "latitude": 42.0589281,
    "phone": null,
    "website_url": "http://www.ten-ninety.com",
    "state": "Illinois",
    "street": "1025 Waukegan Rd"
  },
  {
    "id": "fa334932-528c-409e-90a5-95526983fa2f",
    "name": "Ten Pin Brewing - Production Facility",
    "brewery_type": "micro",
    "address_1": "1149 N Stratford Rd",
    "address_2": null,
    "address_3": null,
    "city": "Moses Lake",
    "state_province": "Washington",
    "postal_code": "98837-1514",
    "country": "United States",
    "longitude": -119.2781737,
    "latitude": 47.14487355,
    "phone": "5097662739",
    "website_url": "http://www.tenpinbrewing.com",
    "state": "Washington",
    "street": "1149 N Stratford Rd"
  },
  {
    "id": "e91e512e-1190-41d2-94bd-2750ae80bc03",
    "name": "Ten Pin Brewing Co",
    "brewery_type": "brewpub",
    "address_1": "1165 N Stratford Rd",
    "address_2": null,
    "address_3": null,
    "city": "Moses Lake",
    "state_province": "Washington",
    "postal_code": "98837-1514",
    "country": "United States",
    "longitude": -119.2781699,
    "latitude": 47.14506441,
    "phone": "5097651265",
    "website_url": "http://www.tenpinbrewing.com",
    "state": "Washington",
    "street": "1165 N Stratford Rd"
  },
  {
    "id": "cc7e5d45-012e-45b6-8360-b1db2ddf8ada",
    "name": "Ten Sleep Brewing Company",
    "brewery_type": "micro",
    "address_1": "2549 Hwy 16",
    "address_2": null,
    "address_3": null,
    "city": "Ten Sleep",
    "state_province": "Wyoming",
    "postal_code": "82442",
    "country": "United States",
    "longitude": -107.46931490017,
    "latitude": 44.029934964157,
    "phone": "3073662074",
    "website_url": "http://www.tensleepbrewingco.com",
    "state": "Wyoming",
    "street": "2549 Hwy 16"
  },
  {
    "id": "86918223-e1ea-49a1-89a5-86ba31c4c93a",
    "name": "Tenacious Brewing Company",
    "brewery_type": "planning",
    "address_1": null,
    "address_2": null,
    "address_3": null,
    "city": "San Diego",
    "state_province": "California",
    "postal_code": "92101",
    "country": "United States",
    "longitude": -117.1627714,
    "latitude": 32.7174209,
    "phone": null,
    "website_url": null,
    "state": "California",
    "street": null
  },
  {
    "id": "00a78d20-3da2-4f63-9270-44b4722f4883",
    "name": "Tenacity Brewing",
    "brewery_type": "micro",
    "address_1": "119 N Grand Traverse St",
    "address_2": null,
    "address_3": null,
    "city": "Flint",
    "state_province": "Michigan",
    "postal_code": "48503-5620",
    "country": "United States",
    "longitude": -83.69663179,
    "latitude": 43.01522788,
    "phone": "8103396676",
    "website_url": "http://www.tenacitybrewing.com",
    "state": "Michigan",
    "street": "119 N Grand Traverse St"
  },
  {
    "id": "a8502efc-8b0d-4af4-bfed-39cf4c829fea",
    "name": "Tenaya Creek Brewery",
    "brewery_type": "micro",
    "address_1": "831 W Bonanza Rd",
    "address_2": null,
    "address_3": null,
    "city": "Las Vegas",
    "state_province": "Nevada",
    "postal_code": "89106-3526",
    "country": "United States",
    "longitude": null,
    "latitude": null,
    "phone": "7023627335",
    "website_url": "http://www.tenayacreek.com",
    "state": "Nevada",
    "street": "831 W Bonanza Rd"
  },
  {
    "id": "a7929906-12e8-4f50-b527-cdccbea3fb42",
    "name": "TenEyck Brewing",
    "brewery_type": "planning",
    "address_1": null,
    "address_2": null,
    "address_3": null,
    "city": "Queenstown",
    "state_province": "Maryland",
    "postal_code": "21658-1386",
    "country": "United States",
    "longitude": null,
    "latitude": null,
    "phone": "8134777249",
    "website_url": null,
    "state": "Maryland",
    "street": null
  },
  {
    "id": "d3677b62-c50b-41c3-8898-ba01125c45f3",
    "name": "Tennessee Brew Works",
    "brewery_type": "micro",
    "address_1": "809 Ewing Ave",
    "address_2": null,
    "address_3": null,
    "city": "Nashville",
    "state_province": "Tennessee",
    "postal_code": "37203-4631",
    "country": "United States",
    "longitude": -86.7762132,
    "latitude": 36.1503752,
    "phone": "6154360050",
    "website_url": "http://www.tnbrew.com",
    "state": "Tennessee",
    "street": "809 Ewing Ave"
  },
  {
    "id": "edce297b-c335-4670-8d96-073c26111d12",
    "name": "Tennessee Valley Brewing Company",
    "brewery_type": "micro",
    "address_1": "2088 Lowes Dr Ste H",
    "address_2": null,
    "address_3": null,
    "city": "Clarksville",
    "state_province": "Tennessee",
    "postal_code": "37040-1635",
    "country": "United States",
    "longitude": null,
    "latitude": null,
    "phone": "9312411040",
    "website_url": "http://www.tnvalleybrewing.com",
    "state": "Tennessee",
    "street": "2088 Lowes Dr Ste H"
  },
  {
    "id": "126014af-a68f-4146-bc98-267abda9a40f",
    "name": "Tent City Beer Company",
    "brewery_type": "micro",
    "address_1": "6760 El Camino Real",
    "address_2": null,
    "address_3": null,
    "city": "Atascadero",
    "state_province": "California",
    "postal_code": "93422-4205",
    "country": "United States",
    "longitude": -120.66767,
    "latitude": 35.487726,
    "phone": "8054606454",
    "website_url": "http://www.tentcitybeer.com",
    "state": "California",
    "street": "6760 El Camino Real"
  }
]