[
  {
    "id": "14141cf3-5f2e-4179-92b9-a74e83c7aeaa",
    "name": "Old Bust Head Brewing Co.",
    "brewery_type": "micro",
    "address_1": "7134 Lineweaver Rd",
    "address_2": null,
    "address_3": null,
    "city": "Warrenton",
    "state_province": "Virginia",
    "postal_code": "20187-3949",
    "country": "United States",
    "longitude": null,
    "latitude": null,
    "phone": "5403474777",
    "website_url": "http://www.oldbusthead.com",
    "state": "Virginia",
    "street": "7134 Lineweaver Rd"
  },
  {
    "id": "485b439f-0d2d-4106-8859-dbaafd85729b",
    "name": "Old Coast Ales",
    "brewery_type": "micro",
    "address_1": "300 Anastasia Blvd Ste C",
    "address_2": null,
    "address_3": null,
    "city": "Saint Augustine",
    "state_province": "Florida",
    "postal_code": "32080-4759",
    "country": "United States",
    "longitude": null,
    "latitude": null,
    "phone": "9045018575",
    "website_url": "http://www.oldcoastales.com",
    "state": "Florida",
    "street": "300 Anastasia Blvd Ste C"
  },
  {
    "id": "ba6f163e-34ae-4314-9003-59f0720e2197",
    "name": "Old Colony Brewing",
    "brewery_type": "micro",
    "address_1": "605 Bedford St Unit 1",
    "address_2": null,
    "address_3": null,
    "city": "Whitman",
    "state_province": "Massachusetts",
    "postal_code": "02382-2088",
    "country": "United States",
    "longitude": null,
    "latitude": null,
    "phone": "7815237105",
    "website_url": "http://www.oldcolonybrew.com",
    "state": "Massachusetts",
    "street": "605 Bedford St Unit 1"
  },
  {
    "id": "b945d00a-5596-4992-8010-f2313d71dc6b",
    "name": "Old Colorado Brewing Co",
    "brewery_type": "micro",
    "address_1": "8121 First St.",
    "address_2": null,
    "address_3": null,
    "city": "Wellington",
    "state_province": "Colorado",
    "postal_code": "80549",
    "country": "United States",
    "longitude": null,
    "latitude": null,
    "phone": "9702172129",
    "website_url": "http://www.oldcoloradobrewing.com",
    "state": "Colorado",
    "street": "8121 First St."
  },
  {
    "id": "7e345dad-f25e-4817-ac2c-5f941fbe6b3f",
    "name": "Old Country Brewing",
    "brewery_type": "planning",
    "address_1": null,
    "address_2": null,
    "address_3": null,
    "city": "Fairfield",
    "state_province": "California",
    "postal_code": "94533-7790",
    "country": "United States",
    "longitude": -122.0399663,
    "latitude": 38.2493581,
    "phone": null,
    "website_url": null,
    "state": "California",
    "street": null
  },
  {
    "id": "65c4f76c-6d0e-4e7f-a668-1e0eb8971506",
    "name": "Old Detroit Brewing Co",
    "brewery_type": "planning",
    "address_1": null,
    "address_2": null,
    "address_3": null,
    "city": "Bloomfield Hills",
    "state_province": "Michigan",
    "postal_code": "48304-3817",
    "country": "United States",
    "longitude": null,
    "latitude": null,
    "phone": null,
    "website_url": null,
    "state": "Michigan",
    "street": null
  },
  {
    "id": "1799d0b2-7266-4ad9-a3ca-15cc2e3bf833",
    "name": "Old Dog Alehouse & Brewery",
    "brewery_type": "micro",
    "address_1": "13 W William St",
    "address_2": null,
    "address_3": null,
    "city": "Delaware",
    "state_province": "Ohio",
    "postal_code": "43015",
    "country": "United States",
    "longitude": -83.0998526,
    "latitude": 40.2984874,
    "phone": "740-990-4506",
    "website_url": "https://www.olddogalehouse.com/menu",
    "state": "Ohio",
    "street": "13 W William St"
  },
  {
    "id": "60ad3e0d-4848-4049-8fc1-1960fe170fbd",
    "name": "Old Ellsworth Brewing Company",
    "brewery_type": "brewpub",
    "address_1": "22005 S Ellsworth Rd",
    "address_2": null,
    "address_3": null,
    "city": "Queen Creek",
    "state_province": "Arizona",
    "postal_code": "85142-8707",
    "country": "United States",
    "longitude": -111.6343894,
    "latitude": 33.24511285,
    "phone": "4804330651",
    "website_url": "http://www.oldebc.com",
    "state": "Arizona",
    "street": "22005 S Ellsworth Rd"
  },
  {
    "id": "18749797-7047-40a7-915d-feb5edfd5caa",
    "name": "Old Firehouse Brewery",
    "brewery_type": "micro",
    "address_1": "237 W Main St",
    "address_2": null,
    "address_3": null,
    "city": "Williamsburg",
    "state_province": "Ohio",
    "postal_code": "45176-1342",
    "country": "United States",
    "longitude": -84.05307618,
    "latitude": 39.05398396,
    "phone": "5135369071",
    "website_url": "http://www.oldfirehousebrewery.com",
    "state": "Ohio",
    "street": "237 W Main St"
  },
  {
    "id": "724c81c8-1ab1-47ce-bd14-1bce1e9c02bc",
    "name": "Old Forge Brewing Co",
    "brewery_type": "micro",
    "address_1": "401 Railroad St Ste 104",
    "address_2": null,
    "address_3": null,
    "city": "Danville",
    "state_province": "Pennsylvania",
    "postal_code": "17821-1593",
    "country": "United States",
    "longitude": null,
    "latitude": null,
    "phone": "5702758151",
    "website_url": "http://www.oldforgebrewingcompany.com",
    "state": "Pennsylvania",
    "street": "401 Railroad St Ste 104"
  },
  {
    "id": "49051f65-584d-4045-8a6f-3f55499f9f2a",
    "name": "Old Forge Brewing Co",
    "brewery_type": "brewpub",
    "address_1": "532 Mill St",
    "address_2": null,
    "address_3": null,
    "city": "Danville",
    "state_province": "Pennsylvania",
    "postal_code": "17821-1015",
    "country": "United States",
    "longitude": -76.61600763,
    "latitude": 40.96547999,
    "phone": "5702758151",
    "website_url": "http://www.oldforgebrewingcompany.com",
    "state": "Pennsylvania",
    "street": "532 Mill St"
  },
  {
    "id": "92732f6c-a628-4eaa-a240-d5534a8ee449",
    "name": "Old Hangtown Beer Works",
    "brewery_type": "micro",
    "address_1": null,
    "address_2": null,
    "address_3": null,
    "city": "Placerville",
    "state_province": "California",
    "postal_code": "95667",
    "country": "United States",
    "longitude": -120.798546,
    "latitude": 38.7296252,
    "phone": "5309195166",
    "website_url": null,
    "state": "California",
    "street": null
  },
  {
    "id": "baee055a-ed44-4149-bb78-804a064dc3d9",
    "name": "Old Hangtown Beer Works",
    "brewery_type": "micro",
    "address_1": "11327 Trade Center Dr Ste 350",
    "address_2": null,
    "address_3": null,
    "city": "Rancho Cordova",
    "state_province": "California",
    "postal_code": "95742-6285",
    "country": "United States",
    "longitude": -121.264149,
    "latitude": 38.6075491,
    "phone": "5309195166",
    "website_url": "http://www.oldhangtownbeerworks.com",
    "state": "California",
    "street": "11327 Trade Center Dr Ste 350"
  },
  {
    "id": "c4a47c6d-ab6b-4ac7-9f15-17e830111015",
    "name": "Old House Vineyards",
    "brewery_type": "micro",
    "address_1": "18351 Corkys Ln",
    "address_2": null,
    "address_3": null,
    "city": "Culpeper",
    "state_province": "Virginia",
    "postal_code": "22701",
    "country": "United States",
    "longitude": null,
    "latitude": null,
    "phone": "5404231032",
    "website_url": "http://www.oldhousevineyards.com",
    "state": "Virginia",
    "street": "18351 Corkys Ln"
  },
  {
    "id": "bacebf35-8146-4ec3-abe8-545c53d935a7",
    "name": "Old Irving Brewing Co.",
    "brewery_type": "brewpub",
    "address_1": "4419 W Montrose Ave",
    "address_2": null,
    "address_3": null,
    "city": "Chicago",
    "state_province": "Illinois",
    "postal_code": "60641-2021",
    "country": "United States",
    "longitude": -87.7394333,
    "latitude": 41.9605751,
    "phone": "7739166421",
    "website_url": "http://www.oldirvingbrewing.com",
    "state": "Illinois",
    "street": "4419 W Montrose Ave"
  },
  {
    "id": "1dc3e29e-702f-42df-9561-aead46dce8f3",
    "name": "Old Ivy Brewery and Taproom",
    "brewery_type": "closed",
    "address_1": "108 W Evergreen Blvd Ste A",
    "address_2": null,
    "address_3": null,
    "city": "Vancouver",
    "state_province": "Washington",
    "postal_code": "98660-3124",
    "country": "United States",
    "longitude": null,
    "latitude": null,
    "phone": "3609931827",
    "website_url": "http://www.oldivybrewery.com",
    "state": "Washington",
    "street": "108 W Evergreen Blvd Ste A"
  },
  {
    "id": "c5aea541-9ffc-402b-bfb5-ab680e8edb1a",
    "name": "Old Kan Beer & Co",
    "brewery_type": "brewpub",
    "address_1": "95 Linden St",
    "address_2": null,
    "address_3": null,
    "city": "Oakland",
    "state_province": "California",
    "postal_code": "94607-2510",
    "country": "United States",
    "longitude": -122.2879928,
    "latitude": 37.7995945,
    "phone": "5103383965",
    "website_url": "http://www.old-kan.com",
    "state": "California",
    "street": "95 Linden St"
  },
  {
    "id": "08eed67d-4ce8-4871-8b2d-5fb77a2543f7",
    "name": "Old Klaverack Brewery",
    "brewery_type": "micro",
    "address_1": "150 Thielman Rd",
    "address_2": null,
    "address_3": null,
    "city": "Hudson",
    "state_province": "New York",
    "postal_code": "12534-3716",
    "country": "United States",
    "longitude": null,
    "latitude": null,
    "phone": "5189651437",
    "website_url": "http://www.oldklaverackbrewery.com",
    "state": "New York",
    "street": "150 Thielman Rd"
  },
  {
    "id": "1e875480-8642-4d5f-a9b7-d1b582657830",
    "name": "Old Louisville Brewery",
    "brewery_type": "micro",
    "address_1": "625 W Magnolia Ave",
    "address_2": null,
    "address_3": null,
    "city": "Louisville",
    "state_province": "Kentucky",
    "postal_code": "40208-2239",
    "country": "United States",
    "longitude": -85.76579382,
    "latitude": 38.22970855,
    "phone": "5024985434",
    "website_url": "http://www.oldlouisvillebrewery.com",
    "state": "Kentucky",
    "street": "625 W Magnolia Ave"
  },
  {
    "id": "ee77f852-eeaf-4166-ac21-72afe9810545",
    "name": "Old Majestic Brewing Company",
    "brewery_type": "planning",
    "address_1": null,
    "address_2": null,
    "address_3": null,
    "city": "Mobile",
    "state_province": "Alabama",
    "postal_code": "36602-2404",
    "country": "United States",
    "longitude": -88.0430541,
    "latitude": 30.6943566,
    "phone": "2514347387",
    "website_url": null,
    "state": "Alabama",
    "street": null
  },
  {
    "id": "9ff19944-bee2-4bc3-8f15-288588c9d1c5",
    "name": "Old Market Pub and Brewery",
    "brewery_type": "brewpub",
    "address_1": "6959 SW Multnomah Blvd",
    "address_2": null,
    "address_3": null,
    "city": "Portland",
    "state_province": "Oregon",
    "postal_code": "97223-3439",
    "country": "United States",
    "longitude": -122.7486715,
    "latitude": 45.46603555,
    "phone": "5032440450",
    "website_url": "http://www.drinkbeerhere.com",
    "state": "Oregon",
    "street": "6959 SW Multnomah Blvd"
  },
  {
    "id": "632333a1-7c1e-4fde-9e34-145a803be4dc",
    "name": "Old Mill Brewing Company",
    "brewery_type": "micro",
    "address_1": "Convoy Enterprise Centre",
    "address_2": null,
    "address_3": null,
    "city": "Convoy",
    "state_province": "Donegal",
    "postal_code": "F93 X314",
    "country": "Ireland",
    "longitude": -7.6664472,
    "latitude": 54.8605864,
    "phone": "353833447788",
    "website_url": null,
    "state": "Donegal",
    "street": "Convoy Enterprise Centre"
  },
  {
    "id": "df0d2a61-3905-4340-a0b9-be4bf6bd30ef",
    "name": "Old Mill Brewpub",
    "brewery_type": "brewpub",
    "address_1": "711 E Main St",
    "address_2": null,
    "address_3": null,
    "city": "Lexington",
    "state_province": "South Carolina",
    "postal_code": "29072-3670",
    "country": "United States",
    "longitude": -81.2298014,
    "latitude": 33.9772343,
    "phone": "8037852337",
    "website_url": "http://www.oldmillbrewpub.net",
    "state": "South Carolina",
    "street": "711 E Main St"
  },
  {
    "id": "fd4d4773-1ead-4f71-9f61-55cdfe620267",
    "name": "Old Mill Brewpub and Grill",
    "brewery_type": "brewpub",
    "address_1": "717 E Bridge St",
    "address_2": null,
    "address_3": null,
    "city": "Plainwell",
    "state_province": "Michigan",
    "postal_code": "49080-1801",
    "country": "United States",
    "longitude": -85.63224537,
    "latitude": 42.442939,
    "phone": "2692046601",
    "website_url": "http://www.oldmillbrew.com",
    "state": "Michigan",
    "street": "717 E Bridge St"
  },
  {
    "id": "5a9cc7b6-2864-48be-81a8-0a27a48440ac",
    "name": "Old Mill Craft Beer",
    "brewery_type": "micro",
    "address_1": "2376 State Route 850",
    "address_2": null,
    "address_3": null,
    "city": "Bidwell",
    "state_province": "Ohio",
    "postal_code": "45614-9590",
    "country": "United States",
    "longitude": null,
    "latitude": null,
    "phone": "7402459463",
    "website_url": null,
    "state": "Ohio",
    "street": "2376 State Route 850"
  },
  {
    "id": "caf2d686-872a-423f-9593-6ec537c7f13e",
    "name": "Old Nation Brewing Company",
    "brewery_type": "micro",
    "address_1": "1500 W. Grand River Ave",
    "address_2": null,
    "address_3": null,
    "city": "Williamston",
    "state_province": "Michigan",
    "postal_code": "48895-97ND",
    "country": "United States",
    "longitude": -84.2899561,
    "latitude": 42.6878555,
    "phone": "5176551301",
    "website_url": "http://www.oldnationbrewing.com",
    "state": "Michigan",
    "street": "1500 W. Grand River Ave"
  },
  {
    "id": "b02c0a0c-840d-459e-b9e9-347cd9ebfc44",
    "name": "Old Ox Brewery LLC",
    "brewery_type": "micro",
    "address_1": "44652 Guilford Dr Ste 114",
    "address_2": null,
    "address_3": null,
    "city": "Ashburn",
    "state_province": "Virginia",
    "postal_code": "20147-6006",
    "country": "United States",
    "longitude": -77.45608031,
    "latitude": 39.02226368,
    "phone": "7037298375",
    "website_url": "http://www.oldoxbrewery.com",
    "state": "Virginia",
    "street": "44652 Guilford Dr Ste 114"
  },
  {
    "id": "2582e5ad-5382-4e33-a5a3-7c0e321b7208",
    "name": "Old Planters Brewing Co.",
    "brewery_type": "micro",
    "address_1": "100 Corning St",
    "address_2": null,
    "address_3": null,
    "city": "Beverly",
    "state_province": "Massachusetts",
    "postal_code": "01915-3837",
    "country": "United States",
    "longitude": -70.86287139,
    "latitude": 42.55499645,
    "phone": "9785226446",
    "website_url": "http://www.oldplanters.com",
    "state": "Massachusetts",
    "street": "100 Corning St"
  },
  {
    "id": "6ce2c54b-2304-46e8-a50d-ffc84489ed06",
    "name": "Old Possum Brewing Company",
    "brewery_type": "brewpub",
    "address_1": "357 Sutton Pl",
    "address_2": null,
    "address_3": null,
    "city": "Santa Rosa",
    "state_province": "California",
    "postal_code": "95407",
    "country": "United States",
    "longitude": -122.7252078,
    "latitude": 38.39097419,
    "phone": "7073037177",
    "website_url": "http://www.oldpossumbrewing.com",
    "state": "California",
    "street": "357 Sutton Pl"
  },
  {
    "id": "ebc2f1b3-852f-4e01-b412-09a669cd0c7f",
    "name": "Old Rail Brewing Co",
    "brewery_type": "closed",
    "address_1": "639 Girod St",
    "address_2": null,
    "address_3": null,
    "city": "Mandeville",
    "state_province": "Louisiana",
    "postal_code": "70448-5205",
    "country": "United States",
    "longitude": -90.06386106,
    "latitude": 30.35985466,
    "phone": "9856121828",
    "website_url": "http://www.oldrailbrewing.com",
    "state": "Louisiana",
    "street": "639 Girod St"
  },
  {
    "id": "43e3961c-245d-448b-9745-6be68d5bd105",
    "name": "Old Redwood Brewing Co",
    "brewery_type": "closed",
    "address_1": "9000 Windsor Rd # A",
    "address_2": null,
    "address_3": null,
    "city": "Windsor",
    "state_province": "California",
    "postal_code": "95492-9701",
    "country": "United States",
    "longitude": -122.8166482,
    "latitude": 38.5475452,
    "phone": "7076577624",
    "website_url": "http://www.oldredwoodbrewing.com",
    "state": "California",
    "street": "9000 Windsor Rd # A"
  },
  {
    "id": "0b2aaada-2557-45f9-a039-b4a41832183f",
    "name": "Old Schoolhouse Brewery",
    "brewery_type": "brewpub",
    "address_1": "155 Riverside Ave",
    "address_2": null,
    "address_3": null,
    "city": "Winthrop",
    "state_province": "Washington",
    "postal_code": "98862-0577",
    "country": "United States",
    "longitude": -120.1866354,
    "latitude": 48.47814625,
    "phone": "5099963183",
    "website_url": "http://www.oldschoolhousebrewery.com",
    "state": "Washington",
    "street": "155 Riverside Ave"
  },
  {
    "id": "788d873c-70cc-4d9e-94f5-a2675f2c23fa",
    "name": "Old Soul Brewing",
    "brewery_type": "micro",
    "address_1": "10970 S Cleveland Ave Ste 402",
    "address_2": null,
    "address_3": null,
    "city": "Fort Myers",
    "state_province": "Florida",
    "postal_code": "33907-2315",
    "country": "United States",
    "longitude": null,
    "latitude": null,
    "phone": "2393344334",
    "website_url": "http://www.oldsoulbrewcompany.com",
    "state": "Florida",
    "street": "10970 S Cleveland Ave Ste 402"
  },
  {
    "id": "d6dab3d7-38df-41b7-a2f0-21699fcf1a7b",
    "name": "Old Spruce Brewing",
    "brewery_type": "brewpub",
    "address_1": "10 Snowshoe Dr",
    "address_2": null,
    "address_3": null,
    "city": "Snowshoe",
    "state_province": "West Virginia",
    "postal_code": "26209",
    "country": "United States",
    "longitude": -80.036148,
    "latitude": 38.416222,
    "phone": "3045721020",
    "website_url": "http://www.oldsprucetavern.com",
    "state": "West Virginia",
    "street": "10 Snowshoe Dr"
  },
  {
    "id": "b97ab81e-5190-41da-8107-8014bfa7a4d4",
    "name": "Old Station Brewing Co",
    "brewery_type": "micro",
    "address_1": "140 1st St",
    "address_2": null,
    "address_3": null,
    "city": "Havre",
    "state_province": "Montana",
    "postal_code": "59501-3502",
    "country": "United States",
    "longitude": -109.6803593,
    "latitude": 48.55367512,
    "phone": "4062650980",
    "website_url": null,
    "state": "Montana",
    "street": "140 1st St"
  },
  {
    "id": "59614bdc-7e99-4f33-be89-3d38e50dbde7",
    "name": "Old Stove Brewing Company",
    "brewery_type": "brewpub",
    "address_1": "1916 Pike Pl Ste 12 # 420",
    "address_2": null,
    "address_3": null,
    "city": "Seattle",
    "state_province": "Washington",
    "postal_code": "98101-1056",
    "country": "United States",
    "longitude": -122.34284164943,
    "latitude": 47.610283074606,
    "phone": "2066602682",
    "website_url": "http://www.oldstove.com",
    "state": "Washington",
    "street": "1916 Pike Pl Ste 12 # 420"
  },
  {
    "id": "0eb7bedd-5067-44f4-b5c5-28997e84b34a",
    "name": "Old Stump Brewery",
    "brewery_type": "micro",
    "address_1": "2896 Metropolitan Pl",
    "address_2": null,
    "address_3": null,
    "city": "Pomona",
    "state_province": "California",
    "postal_code": "91767-1854",
    "country": "United States",
    "longitude": -117.7541465,
    "latitude": 34.09763808,
    "phone": "9098609052",
    "website_url": "http://www.oldstumpbrewery.com",
    "state": "California",
    "street": "2896 Metropolitan Pl"
  },
  {
    "id": "b16226d8-7fb9-4f93-99b8-055edbb68325",
    "name": "Old Town Abbey Ales",
    "brewery_type": "proprietor",
    "address_1": "125 S Jefferson St Unit 2709",
    "address_2": null,
    "address_3": null,
    "city": "Chicago",
    "state_province": "Illinois",
    "postal_code": "60661-3731",
    "country": "United States",
    "longitude": null,
    "latitude": null,
    "phone": "3126226544",
    "website_url": "http://www.oldtownabbey.com",
    "state": "Illinois",
    "street": "125 S Jefferson St Unit 2709"
  },
  {
    "id": "71e0c30f-3833-4d6c-83b6-ecce06256c93",
    "name": "Old Town Brewhouse",
    "brewery_type": "micro",
    "address_1": "146 Whatley Ave",
    "address_2": null,
    "address_3": null,
    "city": "Lewisville",
    "state_province": "Texas",
    "postal_code": "75057-3961",
    "country": "United States",
    "longitude": -96.99353141,
    "latitude": 33.044038,
    "phone": "9722212337",
    "website_url": "http://www.cobrabrewingco.com",
    "state": "Texas",
    "street": "146 Whatley Ave"
  },
  {
    "id": "e7f93b89-81e3-411d-8260-e2c6ec60c587",
    "name": "Old Town Brewing",
    "brewery_type": "brewpub",
    "address_1": "5201 NE M L King Blvd",
    "address_2": null,
    "address_3": null,
    "city": "Portland",
    "state_province": "Oregon",
    "postal_code": "97211-3235",
    "country": "United States",
    "longitude": -122.6639427,
    "latitude": 45.5606811,
    "phone": "5032005988",
    "website_url": "http://www.otbrewing.com",
    "state": "Oregon",
    "street": "5201 NE M L King Blvd"
  },
  {
    "id": "1a23b4af-f4c1-455c-a8d2-37eadf0ba098",
    "name": "Old Trade Brewery",
    "brewery_type": "micro",
    "address_1": "13270 Alanthus Rd",
    "address_2": null,
    "address_3": null,
    "city": "Brandy Station",
    "state_province": "Virginia",
    "postal_code": "22714-1905",
    "country": "United States",
    "longitude": -77.910796,
    "latitude": 38.523145,
    "phone": "7742188645",
    "website_url": "http://www.oldtradebrewery.com",
    "state": "Virginia",
    "street": "13270 Alanthus Rd"
  },
  {
    "id": "12e7aba5-3cf1-417f-9d75-e35a48398119",
    "name": "Old Tree Brewery",
    "brewery_type": "micro",
    "address_1": "Richmond Place",
    "address_2": null,
    "address_3": null,
    "city": "Brighton",
    "state_province": "East Sussex",
    "postal_code": "BN2 9NA",
    "country": "England",
    "longitude": -0.134261,
    "latitude": 50.828046,
    "phone": "7413064346",
    "website_url": "https://oldtree.house/",
    "state": "East Sussex",
    "street": "Richmond Place"
  },
  {
    "id": "c5c707c0-4459-4e37-9673-00a58959a74d",
    "name": "Olde Bedford Brewing Company",
    "brewery_type": "micro",
    "address_1": "109 Railroad St",
    "address_2": null,
    "address_3": null,
    "city": "Bedford",
    "state_province": "Pennsylvania",
    "postal_code": "15522-1014",
    "country": "United States",
    "longitude": -78.5033435,
    "latitude": 40.021898,
    "phone": "9072297942",
    "website_url": "http://www.oldebbc.com",
    "state": "Pennsylvania",
    "street": "109 Railroad St"
  },
  {
    "id": "379400de-0839-4f1e-94f4-b34d888e0f50",
    "name": "Olde Burnside Brewing Co.",
    "brewery_type": "closed",
    "address_1": "776 Tolland St",
    "address_2": null,
    "address_3": null,
    "city": "East Hartford",
    "state_province": "Connecticut",
    "postal_code": "06108-2727",
    "country": "United States",
    "longitude": -72.60022238,
    "latitude": 41.7850567,
    "phone": "8605282200",
    "website_url": "http://www.oldeburnsidebrewing.com",
    "state": "Connecticut",
    "street": "776 Tolland St"
  },
  {
    "id": "6b3bd021-21d2-4a08-8883-3f22c7df0896",
    "name": "Olde Hickory Brewery - Production",
    "brewery_type": "micro",
    "address_1": "2 3rd St SW",
    "address_2": null,
    "address_3": null,
    "city": "Hickory",
    "state_province": "North Carolina",
    "postal_code": "28602-2941",
    "country": "United States",
    "longitude": -81.34229502,
    "latitude": 35.7313114,
    "phone": null,
    "website_url": null,
    "state": "North Carolina",
    "street": "2 3rd St SW"
  },
  {
    "id": "538cd69c-0efe-43e1-bef4-a93fac2ae151",
    "name": "Olde Hickory Brewery & Amos Howards",
    "brewery_type": "brewpub",
    "address_1": "2828 US Highway 70 SW",
    "address_2": null,
    "address_3": null,
    "city": "Hickory",
    "state_province": "North Carolina",
    "postal_code": "28602-4645",
    "country": "United States",
    "longitude": null,
    "latitude": null,
    "phone": "8283238753",
    "website_url": "http://www.amoshowards.com",
    "state": "North Carolina",
    "street": "2828 US Highway 70 SW"
  },
  {
    "id": "1abb8651-92a8-4388-89ad-0c62011de017",
    "name": "Olde Main Brewing Co & Restaurant",
    "brewery_type": "closed",
    "address_1": "316 Main St",
    "address_2": null,
    "address_3": null,
    "city": "Ames",
    "state_province": "Iowa",
    "postal_code": "50010",
    "country": "United States",
    "longitude": -93.61410043,
    "latitude": 42.02503227,
    "phone": "5152320553",
    "website_url": "http://www.oldemainbrewing.com/",
    "state": "Iowa",
    "street": "316 Main St"
  },
  {
    "id": "dd9deed9-dddf-45b9-b439-8a6a4d9be915",
    "name": "Olde Mother Brewing, LLC",
    "brewery_type": "micro",
    "address_1": "911 E Patrick St",
    "address_2": null,
    "address_3": null,
    "city": "Frederick",
    "state_province": "Maryland",
    "postal_code": "21701-3132",
    "country": "United States",
    "longitude": -77.3912138,
    "latitude": 39.40928,
    "phone": "3016241700",
    "website_url": "http://OldeMother.com",
    "state": "Maryland",
    "street": "911 E Patrick St"
  },
  {
    "id": "f32515b5-61f3-4a83-9c8e-34a05734158a",
    "name": "Olde Peninsula Brewpub and Restaurant",
    "brewery_type": "brewpub",
    "address_1": "200 E Michigan Ave",
    "address_2": null,
    "address_3": null,
    "city": "Kalamazoo",
    "state_province": "Michigan",
    "postal_code": "49007-3961",
    "country": "United States",
    "longitude": -85.581578,
    "latitude": 42.2916484,
    "phone": "2693432739",
    "website_url": "http://www.oldepeninsula.com",
    "state": "Michigan",
    "street": "200 E Michigan Ave"
  },
  {
    "id": "1d13ecd0-7e01-4919-bae6-eb64f29e53e1",
    "name": "Olde Salem Brewing Company",
    "brewery_type": "micro",
    "address_1": "21 E Main St",
    "address_2": null,
    "address_3": null,
    "city": "Salem",
    "state_province": "Virginia",
    "postal_code": "24153-3806",
    "country": "United States",
    "longitude": -80.04053168,
    "latitude": 37.29440174,
    "phone": null,
    "website_url": "http://oldesalembrewing.com",
    "state": "Virginia",
    "street": "21 E Main St"
  }
]