[
  {
    "id": "34990fd2-327d-4dac-ad38-0bf1a07e36a7",
    "name": "Forge Brew Works",
    "brewery_type": "brewpub",
    "address_1": "8532 Terminal Rd Ste M",
    "address_2": null,
    "address_3": null,
    "city": "Lorton",
    "state_province": "Virginia",
    "postal_code": "22079-1428",
    "country": "United States",
    "longitude": null,
    "latitude": null,
    "phone": "7033722979",
    "website_url": "http://www.forgebrewworks.com",
    "state": "Virginia",
    "street": "8532 Terminal Rd Ste M"
  },
  {
    "id": "d7c42bff-51bc-4ae5-ad50-8b835bb83048",
    "name": "Forge Brewhouse",
    "brewery_type": "brewpub",
    "address_1": "1330 E State St",
    "address_2": null,
    "address_3": null,
    "city": "Sycamore",
    "state_province": "Illinois",
    "postal_code": "60178-9580",
    "country": "United States",
    "longitude": -88.66048,
    "latitude": 41.984784,
    "phone": null,
    "website_url": null,
    "state": "Illinois",
    "street": "1330 E State St"
  },
  {
    "id": "51ac1ec4-3a11-4216-8498-e83957bdc40b",
    "name": "Forgotten Boardwalk Brewing",
    "brewery_type": "micro",
    "address_1": "1940 Olney Ave Ste 100",
    "address_2": null,
    "address_3": null,
    "city": "Cherry Hill",
    "state_province": "New Jersey",
    "postal_code": "08003-2016",
    "country": "United States",
    "longitude": null,
    "latitude": null,
    "phone": "8564370709",
    "website_url": "http://www.forgottenboardwalk.com",
    "state": "New Jersey",
    "street": "1940 Olney Ave Ste 100"
  },
  {
    "id": "1cfa05f2-9520-4707-9716-496749ddfd67",
    "name": "Forgotten Road Ales",
    "brewery_type": "planning",
    "address_1": null,
    "address_2": null,
    "address_3": null,
    "city": "Graham",
    "state_province": "North Carolina",
    "postal_code": "27253",
    "country": "United States",
    "longitude": null,
    "latitude": null,
    "phone": "4342031993",
    "website_url": null,
    "state": "North Carolina",
    "street": null
  },
  {
    "id": "e3dc101b-aa7d-40c2-b195-e12b829e0f9e",
    "name": "Forgottonia Brewing",
    "brewery_type": "micro",
    "address_1": "324 N Lafayette St",
    "address_2": null,
    "address_3": null,
    "city": "Macomb",
    "state_province": "Illinois",
    "postal_code": "61455",
    "country": "United States",
    "longitude": -90.671920174608,
    "latitude": 40.461798911859,
    "phone": "3092378649",
    "website_url": "https://www.forgottoniabrewing.com",
    "state": "Illinois",
    "street": "324 N Lafayette St"
  },
  {
    "id": "d9415cb6-2329-4827-8ec8-dd6130327ff8",
    "name": "Fort Brewery and Pizza",
    "brewery_type": "brewpub",
    "address_1": "1001 W Magnolia Ave",
    "address_2": null,
    "address_3": null,
    "city": "Fort Worth",
    "state_province": "Texas",
    "postal_code": "76104-4504",
    "country": "United States",
    "longitude": -97.33528782,
    "latitude": 32.7303843,
    "phone": "5125697369",
    "website_url": "http://www.fortbrewery.com",
    "state": "Texas",
    "street": "1001 W Magnolia Ave"
  },
  {
    "id": "f71ae900-2020-454b-a23e-925d7e5dbb4f",
    "name": "Fort George Brewery",
    "brewery_type": "regional",
    "address_1": "1483 Duane St",
    "address_2": null,
    "address_3": null,
    "city": "Astoria",
    "state_province": "Oregon",
    "postal_code": "97103-3819",
    "country": "United States",
    "longitude": -123.8274681,
    "latitude": 46.1883837,
    "phone": "5033257468",
    "website_url": "http://www.fortgeorgebrewery.com",
    "state": "Oregon",
    "street": "1483 Duane St"
  },
  {
    "id": "99143ec6-594d-4ce6-8e94-cffe750dae0b",
    "name": "Fort Hill Brewery",
    "brewery_type": "micro",
    "address_1": "30 Fort Hill Rd",
    "address_2": null,
    "address_3": null,
    "city": "Easthampton",
    "state_province": "Massachusetts",
    "postal_code": "01027-1268",
    "country": "United States",
    "longitude": -72.64143098,
    "latitude": 42.28503154,
    "phone": "4132035754",
    "website_url": "http://www.forthillbrewery.com",
    "state": "Massachusetts",
    "street": "30 Fort Hill Rd"
  },
  {
    "id": "26232dc1-e177-4342-a9ae-58da4d2d223c",
    "name": "Fort Myers Brewing",
    "brewery_type": "micro",
    "address_1": "12811 Commerce Lakes Dr Ste 28",
    "address_2": null,
    "address_3": null,
    "city": "Fort Myers",
    "state_province": "Florida",
    "postal_code": "33913-8649",
    "country": "United States",
    "longitude": -81.7619411,
    "latitude": 26.5611037,
    "phone": "9162343332",
    "website_url": null,
    "state": "Florida",
    "street": "12811 Commerce Lakes Dr Ste 28"
  },
  {
    "id": "a3c10655-e6cc-4aa6-a520-1a43cf0021e0",
    "name": "Fort Orange Brewing",
    "brewery_type": "micro",
    "address_1": "450 N Pearl St",
    "address_2": null,
    "address_3": null,
    "city": "Albany",
    "state_province": "New York",
    "postal_code": "12204-1511",
    "country": "United States",
    "longitude": -73.74427,
    "latitude": 42.66372,
    "phone": "5189923103",
    "website_url": "http://www.fortorangebrewing.com",
    "state": "New York",
    "street": "450 N Pearl St"
  },
  {
    "id": "4431b884-6f1c-495c-8b78-ab3ad0cc9ba1",
    "name": "Fort Point Beer Company",
    "brewery_type": "regional",
    "address_1": "644 Mason St",
    "address_2": null,
    "address_3": null,
    "city": "San Francisco",
    "state_province": "California",
    "postal_code": "94129-1600",
    "country": "United States",
    "longitude": -122.4102278,
    "latitude": 37.78946124,
    "phone": "4159064021",
    "website_url": "http://www.fortpointbeer.com",
    "state": "California",
    "street": "644 Mason St"
  },
  {
    "id": "661d7d37-9c19-4209-ab5b-454ed12bf081",
    "name": "Fort Rock Brewing",
    "brewery_type": "micro",
    "address_1": "12401 Folsom Blvd Ste 110",
    "address_2": null,
    "address_3": null,
    "city": "Rancho Cordova",
    "state_province": "California",
    "postal_code": "95742-6422",
    "country": "United States",
    "longitude": -121.2248778,
    "latitude": 38.62586534,
    "phone": "9169364616",
    "website_url": "http://www.fortrockbrewing.com",
    "state": "California",
    "street": "12401 Folsom Blvd Ste 110"
  },
  {
    "id": "0140615a-3940-46ff-8acb-7534571218e5",
    "name": "Fort Smith Brewing Company",
    "brewery_type": "micro",
    "address_1": "7500 Fort Chaffee Blvd",
    "address_2": null,
    "address_3": null,
    "city": "Fort Smith",
    "state_province": "Arkansas",
    "postal_code": "72916-6086",
    "country": "United States",
    "longitude": -94.298483,
    "latitude": 35.310777,
    "phone": "4792423722",
    "website_url": "http://www.fsbrewco.com",
    "state": "Arkansas",
    "street": "7500 Fort Chaffee Blvd"
  },
  {
    "id": "06246179-ac7f-4884-b36f-13f36391e284",
    "name": "Fort Street Brewery",
    "brewery_type": "brewpub",
    "address_1": "1660 Fort St",
    "address_2": null,
    "address_3": null,
    "city": "Lincoln Park",
    "state_province": "Michigan",
    "postal_code": "48146-1909",
    "country": "United States",
    "longitude": -83.17610229,
    "latitude": 42.25215845,
    "phone": "3133899620",
    "website_url": "http://www.fortstreetbeer.com",
    "state": "Michigan",
    "street": "1660 Fort St"
  },
  {
    "id": "cf1a2b61-8b8d-4baa-9246-945c5d4326ab",
    "name": "Fortnight Brewing Company",
    "brewery_type": "micro",
    "address_1": "211 Powers Ferry Rd",
    "address_2": null,
    "address_3": null,
    "city": "Cary",
    "state_province": "North Carolina",
    "postal_code": "27519-1510",
    "country": "United States",
    "longitude": -78.91133714,
    "latitude": 35.80576231,
    "phone": "9194340742",
    "website_url": "http://www.fortnightbrewing.com",
    "state": "North Carolina",
    "street": "211 Powers Ferry Rd"
  },
  {
    "id": "e8d72e1d-cdd5-4d61-87a2-18aeaee80e9e",
    "name": "Fortside Brewing Company",
    "brewery_type": "micro",
    "address_1": "2200 NE Andresen Rd Ste B",
    "address_2": null,
    "address_3": null,
    "city": "Vancouver",
    "state_province": "Washington",
    "postal_code": "98661-7350",
    "country": "United States",
    "longitude": -122.6011643,
    "latitude": 45.63911642,
    "phone": "3605244692",
    "website_url": "http://www.fortsidebrewing.com",
    "state": "Washington",
    "street": "2200 NE Andresen Rd Ste B"
  },
  {
    "id": "e85a8ede-cc69-446a-a751-75e47c74dc2c",
    "name": "Forward Operating Base Brewing Company / FOB Brewing",
    "brewery_type": "micro",
    "address_1": "2750 Williamson Pl Ste 100",
    "address_2": null,
    "address_3": null,
    "city": "Dupont",
    "state_province": "Washington",
    "postal_code": "98327-7501",
    "country": "United States",
    "longitude": -122.625039,
    "latitude": 47.107496,
    "phone": "2535074667",
    "website_url": "http://www.fobbrewingcompany.com",
    "state": "Washington",
    "street": "2750 Williamson Pl Ste 100"
  },
  {
    "id": "17854d44-057a-4799-a2ce-c772eeeaa562",
    "name": "Fossil Cove Brewing Co",
    "brewery_type": "brewpub",
    "address_1": "1946 N Birch Ave",
    "address_2": null,
    "address_3": null,
    "city": "Fayetteville",
    "state_province": "Arkansas",
    "postal_code": "72703-2408",
    "country": "United States",
    "longitude": -94.16478287,
    "latitude": 36.0879053,
    "phone": "4796444601",
    "website_url": "http://www.fossilcovebrewing.com",
    "state": "Arkansas",
    "street": "1946 N Birch Ave"
  },
  {
    "id": "152e976b-f10d-4fad-9651-13b6bfd9b9cb",
    "name": "Fossil Craft Beer Co",
    "brewery_type": "micro",
    "address_1": "2845 Ore Mill Rd Ste 1",
    "address_2": null,
    "address_3": null,
    "city": "Colorado Springs",
    "state_province": "Colorado",
    "postal_code": "80904-3161",
    "country": "United States",
    "longitude": null,
    "latitude": null,
    "phone": "7193758298",
    "website_url": "http://www.fossilcraftbeer.com",
    "state": "Colorado",
    "street": "2845 Ore Mill Rd Ste 1"
  },
  {
    "id": "d912be91-1011-428d-a77f-3b51b78b6da5",
    "name": "Fossil Fuels Brewing Co",
    "brewery_type": "contract",
    "address_1": "45928 Omega Dr",
    "address_2": null,
    "address_3": null,
    "city": "Fremont",
    "state_province": "California",
    "postal_code": "94539-6848",
    "country": "United States",
    "longitude": -121.9215949,
    "latitude": 37.4989939,
    "phone": "5103815739",
    "website_url": null,
    "state": "California",
    "street": "45928 Omega Dr"
  },
  {
    "id": "6eda8209-074b-4af0-9825-7ea5288e426c",
    "name": "Foster's Pint & Plate",
    "brewery_type": "brewpub",
    "address_1": "2001 S Bellview Rd # 2",
    "address_2": null,
    "address_3": null,
    "city": "Rogers",
    "state_province": "Arkansas",
    "postal_code": "72758-4050",
    "country": "United States",
    "longitude": null,
    "latitude": null,
    "phone": null,
    "website_url": "http://www.fosterspintandplate.com",
    "state": "Arkansas",
    "street": "2001 S Bellview Rd # 2"
  },
  {
    "id": "1ce06580-ed70-4d32-bc01-5bd23e5aa388",
    "name": "Foulmouthed Brewing",
    "brewery_type": "brewpub",
    "address_1": "15 Ocean St",
    "address_2": null,
    "address_3": null,
    "city": "South Portland",
    "state_province": "Maine",
    "postal_code": "04106-2838",
    "country": "United States",
    "longitude": -70.2548007,
    "latitude": 43.640989,
    "phone": "2076186977",
    "website_url": "http://www.foulmouthedbrewing.com",
    "state": "Maine",
    "street": "15 Ocean St"
  },
  {
    "id": "860bf417-1430-4680-b406-0252a2568ac9",
    "name": "Foundation Brewing Company",
    "brewery_type": "micro",
    "address_1": "1 Industrial Way Ste 5",
    "address_2": null,
    "address_3": null,
    "city": "Portland",
    "state_province": "Maine",
    "postal_code": "04103-1072",
    "country": "United States",
    "longitude": null,
    "latitude": null,
    "phone": "2073708187",
    "website_url": "http://www.foundationbrew.com",
    "state": "Maine",
    "street": "1 Industrial Way Ste 5"
  },
  {
    "id": "195e9808-a949-4f43-ad81-c6da0529fc96",
    "name": "Founders Brewing Co",
    "brewery_type": "regional",
    "address_1": "456 Charlotte St",
    "address_2": null,
    "address_3": null,
    "city": "Detroit",
    "state_province": "Michigan",
    "postal_code": "48201-2640",
    "country": "United States",
    "longitude": -83.0605729,
    "latitude": 42.34299565,
    "phone": null,
    "website_url": null,
    "state": "Michigan",
    "street": "456 Charlotte St"
  },
  {
    "id": "e4da6e5d-1e64-4701-ab21-786b0f3a1ff4",
    "name": "Founders Brewing Co",
    "brewery_type": "regional",
    "address_1": "235 Grandville Ave SW",
    "address_2": null,
    "address_3": null,
    "city": "Grand Rapids",
    "state_province": "Michigan",
    "postal_code": "49503-4037",
    "country": "United States",
    "longitude": -85.6765753,
    "latitude": 42.9524964,
    "phone": "6167761195",
    "website_url": "http://www.foundersbrewing.com",
    "state": "Michigan",
    "street": "235 Grandville Ave SW"
  },
  {
    "id": "687105f2-ab5e-41b4-adad-73daabd7c087",
    "name": "Founders Brewing Production Facility",
    "brewery_type": "regional",
    "address_1": "900 Hynes Ave SW",
    "address_2": null,
    "address_3": null,
    "city": "Grand Rapids",
    "state_province": "Michigan",
    "postal_code": "49507-1085",
    "country": "United States",
    "longitude": -85.67523323,
    "latitude": 42.94662234,
    "phone": null,
    "website_url": null,
    "state": "Michigan",
    "street": "900 Hynes Ave SW"
  },
  {
    "id": "b0d9dfce-11dc-4f85-9b26-133a664f8a88",
    "name": "Founding Fathers Brewing Company",
    "brewery_type": "contract",
    "address_1": "1844 W Wayzata Blvd",
    "address_2": null,
    "address_3": null,
    "city": "Long Lake",
    "state_province": "Minnesota",
    "postal_code": "55356-9491",
    "country": "United States",
    "longitude": null,
    "latitude": null,
    "phone": "9527676403",
    "website_url": "http://www.foundingfathersbrewingco.com",
    "state": "Minnesota",
    "street": "1844 W Wayzata Blvd"
  },
  {
    "id": "b6490ce6-c91e-4d26-a89d-20e2fc2b118e",
    "name": "Fountain City Brewing Co / Monarch Public House",
    "brewery_type": "contract",
    "address_1": "19 N Main St",
    "address_2": null,
    "address_3": null,
    "city": "Fountain City",
    "state_province": "Wisconsin",
    "postal_code": "54629-",
    "country": "United States",
    "longitude": -91.71737039,
    "latitude": 44.13124401,
    "phone": "6086874231",
    "website_url": "http://www.monarchtavern.com",
    "state": "Wisconsin",
    "street": "19 N Main St"
  },
  {
    "id": "2969ce00-5f8d-4687-aa79-31a003b8b5f7",
    "name": "Fountain Hill Brewery",
    "brewery_type": "brewpub",
    "address_1": "151 Fountain St NE",
    "address_2": null,
    "address_3": null,
    "city": "Grand Rapids",
    "state_province": "Michigan",
    "postal_code": "49503-3263",
    "country": "United States",
    "longitude": -85.664754,
    "latitude": 42.965489,
    "phone": "6162343690",
    "website_url": null,
    "state": "Michigan",
    "street": "151 Fountain St NE"
  },
  {
    "id": "54207534-6dc2-4423-b3c0-0c9f96bf85d9",
    "name": "Fountain Square Brewing Co",
    "brewery_type": "micro",
    "address_1": "1301 Barth Ave",
    "address_2": null,
    "address_3": null,
    "city": "Indianapolis",
    "state_province": "Indiana",
    "postal_code": "46203-1872",
    "country": "United States",
    "longitude": -86.1404227,
    "latitude": 39.7496885,
    "phone": "3174931410",
    "website_url": "http://www.fountainsquarebrewing.com",
    "state": "Indiana",
    "street": "1301 Barth Ave"
  },
  {
    "id": "cb1d33a3-d319-4576-adc3-2cdd4c1c805f",
    "name": "Fountainhead Brewing Co",
    "brewery_type": "micro",
    "address_1": "4621 24th St",
    "address_2": null,
    "address_3": null,
    "city": "Sacramento",
    "state_province": "California",
    "postal_code": "95822-1412",
    "country": "United States",
    "longitude": -121.4831173,
    "latitude": 38.5332279,
    "phone": "9162284610",
    "website_url": "http://www.fountainheadbrewingco.com",
    "state": "California",
    "street": "4621 24th St"
  },
  {
    "id": "d5e69bc8-cc56-4de7-8fdc-ee092c3f8ff1",
    "name": "Four Beasts Brewery",
    "brewery_type": "planning",
    "address_1": null,
    "address_2": null,
    "address_3": null,
    "city": "Brooklyn",
    "state_province": "New York",
    "postal_code": "11215-2305",
    "country": "United States",
    "longitude": null,
    "latitude": null,
    "phone": "3478863834",
    "website_url": null,
    "state": "New York",
    "street": null
  },
  {
    "id": "1529695e-6fe4-4799-986d-ef79236a4685",
    "name": "Four Bullets Brewery",
    "brewery_type": "micro",
    "address_1": "640 N Interurban St",
    "address_2": null,
    "address_3": null,
    "city": "Richardson",
    "state_province": "Texas",
    "postal_code": "75081-3317",
    "country": "United States",
    "longitude": -96.72688255,
    "latitude": 32.95803915,
    "phone": null,
    "website_url": "http://www.fourbulletsbrewery.com",
    "state": "Texas",
    "street": "640 N Interurban St"
  },
  {
    "id": "2b86493e-8c1c-496f-91e3-8b770349e281",
    "name": "Four Corners Brewing Co",
    "brewery_type": "micro",
    "address_1": "423 Singleton Blvd",
    "address_2": null,
    "address_3": null,
    "city": "Dallas",
    "state_province": "Texas",
    "postal_code": "75212-4104",
    "country": "United States",
    "longitude": -96.83062417,
    "latitude": 32.7793491,
    "phone": "2147482739",
    "website_url": "http://www.fcbrewing.com",
    "state": "Texas",
    "street": "423 Singleton Blvd"
  },
  {
    "id": "dde3ee18-a2c9-4118-a0d1-dced77329738",
    "name": "Four Corners Brewing Co",
    "brewery_type": "micro",
    "address_1": "1311 S Ervay St",
    "address_2": null,
    "address_3": null,
    "city": "Dallas",
    "state_province": "Texas",
    "postal_code": "75215",
    "country": "United States",
    "longitude": -96.79155915,
    "latitude": 32.77172705,
    "phone": "2147482739",
    "website_url": null,
    "state": "Texas",
    "street": "1311 S Ervay St"
  },
  {
    "id": "676352a3-879e-451a-aa20-4bc25611f7ab",
    "name": "Four Day Ray Brewing",
    "brewery_type": "brewpub",
    "address_1": "11671 Lantern Rd",
    "address_2": null,
    "address_3": null,
    "city": "Fishers",
    "state_province": "Indiana",
    "postal_code": "46038-2952",
    "country": "United States",
    "longitude": -86.013396,
    "latitude": 39.956908,
    "phone": "3173430200",
    "website_url": "http://www.fourdayray.com",
    "state": "Indiana",
    "street": "11671 Lantern Rd"
  },
  {
    "id": "bc2f73b9-a10d-447c-8f49-93b9569b7193",
    "name": "Four Eyed Guys Brewing",
    "brewery_type": "micro",
    "address_1": "910 W Indiana Ave",
    "address_2": null,
    "address_3": null,
    "city": "Spokane",
    "state_province": "Washington",
    "postal_code": "99205",
    "country": "United States",
    "longitude": -117.4256801,
    "latitude": 47.67578312,
    "phone": "5097959648",
    "website_url": "http://foureyedguysbrewing.com",
    "state": "Washington",
    "street": "910 W Indiana Ave"
  },
  {
    "id": "1186fc4c-2fba-4a7a-9692-08851d7276a8",
    "name": "Four Fathers Brewing",
    "brewery_type": "micro",
    "address_1": "1555 W Lincolnway Ste 105",
    "address_2": null,
    "address_3": null,
    "city": "Valparaiso",
    "state_province": "Indiana",
    "postal_code": "46385-3801",
    "country": "United States",
    "longitude": -87.07906572,
    "latitude": 41.47328343,
    "phone": "2194649712",
    "website_url": "http://www.fourfathersbrewing.com",
    "state": "Indiana",
    "street": "1555 W Lincolnway Ste 105"
  },
  {
    "id": "62f9e6a6-9200-45aa-9cf0-03ef0ffce99b",
    "name": "Four Generals Brewing",
    "brewery_type": "micro",
    "address_1": "229 Wells Ave S",
    "address_2": null,
    "address_3": null,
    "city": "Renton",
    "state_province": "Washington",
    "postal_code": "98057-2131",
    "country": "United States",
    "longitude": -122.205586,
    "latitude": 47.4801424,
    "phone": "4252824360",
    "website_url": "http://www.fourgenerals.com",
    "state": "Washington",
    "street": "229 Wells Ave S"
  },
  {
    "id": "8b23de29-c85d-4aae-8769-ea1fece3eab6",
    "name": "Four Horsemen Brewery",
    "brewery_type": "micro",
    "address_1": "30221 148th Ave SE",
    "address_2": null,
    "address_3": null,
    "city": "Kent",
    "state_province": "Washington",
    "postal_code": "98042-9368",
    "country": "United States",
    "longitude": -122.1426915,
    "latitude": 47.3844953,
    "phone": "2539814258",
    "website_url": "http://www.fourhorsemen.beer",
    "state": "Washington",
    "street": "30221 148th Ave SE"
  },
  {
    "id": "cd99ac7a-641c-4293-9e5e-fb8b37e3ff0d",
    "name": "Four Leaf Brewing",
    "brewery_type": "brewpub",
    "address_1": "412 N McEwan St",
    "address_2": null,
    "address_3": null,
    "city": "Clare",
    "state_province": "Michigan",
    "postal_code": "48617-1403",
    "country": "United States",
    "longitude": -84.7683591,
    "latitude": 43.8256884,
    "phone": "9894246114",
    "website_url": "http://www.fourleafcraftbeer.com",
    "state": "Michigan",
    "street": "412 N McEwan St"
  },
  {
    "id": "8dca273c-dc49-4025-9f22-6600c5268040",
    "name": "Four Mile Brewing",
    "brewery_type": "micro",
    "address_1": "202 E Green St",
    "address_2": null,
    "address_3": null,
    "city": "Olean",
    "state_province": "New York",
    "postal_code": "14760-3606",
    "country": "United States",
    "longitude": null,
    "latitude": null,
    "phone": "7163732337",
    "website_url": "http://www.fourmilebrewing.com",
    "state": "New York",
    "street": "202 E Green St"
  },
  {
    "id": "dd03f4d8-8690-4895-8755-1dab15c6c160",
    "name": "Four Peaks Brewery & Taproom",
    "brewery_type": "large",
    "address_1": "2401 S Wilson St",
    "address_2": null,
    "address_3": null,
    "city": "Tempe",
    "state_province": "Arizona",
    "postal_code": "85282-2054",
    "country": "United States",
    "longitude": -111.9446549,
    "latitude": 33.40287138,
    "phone": "4803039967",
    "website_url": "http://www.fourpeaks.com",
    "state": "Arizona",
    "street": "2401 S Wilson St"
  },
  {
    "id": "49fb70b9-b353-4a39-b4c8-a0c4eef09879",
    "name": "Four Peaks Brewing Co",
    "brewery_type": "large",
    "address_1": "1340 E 8th St Ste 104",
    "address_2": null,
    "address_3": null,
    "city": "Tempe",
    "state_province": "Arizona",
    "postal_code": "85281-4396",
    "country": "United States",
    "longitude": null,
    "latitude": null,
    "phone": "4803039967",
    "website_url": "http://www.fourpeaks.com",
    "state": "Arizona",
    "street": "1340 E 8th St Ste 104"
  },
  {
    "id": "b16403e4-c0ba-4bcb-9181-ba235204a694",
    "name": "Four Provinces Brewing Co.",
    "brewery_type": "brewpub",
    "address_1": "25 Ravensdale Park",
    "address_2": "Dublin 12",
    "address_3": null,
    "city": "Kimmage",
    "state_province": "Dublin",
    "postal_code": "D12 X965",
    "country": "Ireland",
    "longitude": -6.3031169,
    "latitude": 53.3146444,
    "phone": "35315890152",
    "website_url": "https://www.fourprovinces.ie/",
    "state": "Dublin",
    "street": "25 Ravensdale Park"
  },
  {
    "id": "09fe8bee-43c0-4238-a8aa-229371372753",
    "name": "Four Quarters Brewing Co",
    "brewery_type": "micro",
    "address_1": "150 W Canal St",
    "address_2": null,
    "address_3": null,
    "city": "Winooski",
    "state_province": "Vermont",
    "postal_code": "05404-2171",
    "country": "United States",
    "longitude": -73.1924334,
    "latitude": 44.4906838,
    "phone": "8023243327",
    "website_url": "http://www.4qbc.com",
    "state": "Vermont",
    "street": "150 W Canal St"
  },
  {
    "id": "8aa75d11-acb0-4454-8fd9-6190217c729e",
    "name": "Four Saints Brewing",
    "brewery_type": "micro",
    "address_1": "218 S Fayetteville St",
    "address_2": null,
    "address_3": null,
    "city": "Asheboro",
    "state_province": "North Carolina",
    "postal_code": "27203-5725",
    "country": "United States",
    "longitude": -79.81447771,
    "latitude": 35.70368557,
    "phone": "3366103722",
    "website_url": "http://www.foursaintsbrewing.com",
    "state": "North Carolina",
    "street": "218 S Fayetteville St"
  },
  {
    "id": "78166b84-827e-4226-9327-41c9876338dc",
    "name": "Four Seasons Brewing Co",
    "brewery_type": "brewpub",
    "address_1": "745 Lloyd Ave Ext",
    "address_2": null,
    "address_3": null,
    "city": "Latrobe",
    "state_province": "Pennsylvania",
    "postal_code": "15650",
    "country": "United States",
    "longitude": null,
    "latitude": null,
    "phone": "7245204111",
    "website_url": "http://www.fsbrewing.com",
    "state": "Pennsylvania",
    "street": "745 Lloyd Ave Ext"
  },
  {
    "id": "874a730f-a97f-4169-8f5a-71a2c95684bb",
    "name": "Four Sons Brewing",
    "brewery_type": "micro",
    "address_1": "18421 Gothard St Ste 100",
    "address_2": null,
    "address_3": null,
    "city": "Huntington Beach",
    "state_province": "California",
    "postal_code": "92648-1236",
    "country": "United States",
    "longitude": -118.0000495,
    "latitude": 33.69505764,
    "phone": "7145847501",
    "website_url": "http://www.foursonsbrewing.com",
    "state": "California",
    "street": "18421 Gothard St Ste 100"
  },
  {
    "id": "b2e2278e-68fc-4b7d-a86f-c4db12787c21",
    "name": "Four Stacks Brewing",
    "brewery_type": "micro",
    "address_1": "5469 N US Highway 41",
    "address_2": null,
    "address_3": null,
    "city": "Apollo Beach",
    "state_province": "Florida",
    "postal_code": "33572-3505",
    "country": "United States",
    "longitude": null,
    "latitude": null,
    "phone": "8136412036",
    "website_url": "http://fourstacksbrewing.com",
    "state": "Florida",
    "street": "5469 N US Highway 41"
  }
]