[
  {
    "id": "f31f30a7-6d1c-42b0-9428-a6164ded8c06",
    "name": "Echoes Brewing Company",
    "brewery_type": "micro",
    "address_1": "19479 Viking Ave NW",
    "address_2": null,
    "address_3": null,
    "city": "Poulsbo",
    "state_province": "Washington",
    "postal_code": "98370",
    "country": "United States",
    "longitude": -122.6597498,
    "latitude": 47.74030477,
    "phone": "3609308152",
    "website_url": "https://www.echoesbrewing.com/",
    "state": "Washington",
    "street": "19479 Viking Ave NW"
  },
  {
    "id": "a6543b42-2ccd-44fb-b6ae-57fde02754e6",
    "name": "Eckert Malting and Brewing Co",
    "brewery_type": "micro",
    "address_1": "2280 Ivy St Ste 130",
    "address_2": null,
    "address_3": null,
    "city": "Chico",
    "state_province": "California",
    "postal_code": "95928-8000",
    "country": "United States",
    "longitude": -121.8241602,
    "latitude": 39.71428839,
    "phone": "5303422320",
    "website_url": "http://www.eckertmaltingandbrewing.com",
    "state": "California",
    "street": "2280 Ivy St Ste 130"
  },
  {
    "id": "580722ab-9c8c-47bb-a2df-b6cfc3df6875",
    "name": "Eclipse Brewing",
    "brewery_type": "micro",
    "address_1": "25 E Park Ave",
    "address_2": null,
    "address_3": null,
    "city": "Merchantville",
    "state_province": "New Jersey",
    "postal_code": "08109-2607",
    "country": "United States",
    "longitude": -75.04831308,
    "latitude": 39.95164416,
    "phone": "6093203979",
    "website_url": null,
    "state": "New Jersey",
    "street": "25 E Park Ave"
  },
  {
    "id": "08cc0e41-1349-4d06-9fa6-33291a745d60",
    "name": "Eclipse Craft Brewing",
    "brewery_type": "planning",
    "address_1": null,
    "address_2": null,
    "address_3": null,
    "city": "Sunbury",
    "state_province": "Pennsylvania",
    "postal_code": "17801-5337",
    "country": "United States",
    "longitude": null,
    "latitude": null,
    "phone": null,
    "website_url": "http://curtisbenner@hotmail.com",
    "state": "Pennsylvania",
    "street": null
  },
  {
    "id": "5e07c2a9-63b7-4c82-8167-13f350b811a6",
    "name": "Ecliptic Brewing",
    "brewery_type": "micro",
    "address_1": "825 N Cook St",
    "address_2": null,
    "address_3": null,
    "city": "Portland",
    "state_province": "Oregon",
    "postal_code": "97227-1503",
    "country": "United States",
    "longitude": -122.6751185,
    "latitude": 45.54737005,
    "phone": "5032658002",
    "website_url": "http://www.eclipticbrewing.com",
    "state": "Oregon",
    "street": "825 N Cook St"
  },
  {
    "id": "4c106efe-6804-48ef-8420-58a09829c931",
    "name": "Ecusta Brewing Co",
    "brewery_type": "micro",
    "address_1": "49 Pisgah Hwy Ste 3",
    "address_2": null,
    "address_3": null,
    "city": "Pisgah Forest",
    "state_province": "North Carolina",
    "postal_code": "28768",
    "country": "United States",
    "longitude": null,
    "latitude": null,
    "phone": "8289662337",
    "website_url": "http://www.ecustabrewing.com",
    "state": "North Carolina",
    "street": "49 Pisgah Hwy Ste 3"
  },
  {
    "id": "356dcb41-83fd-41cd-9a0b-a65a770a2652",
    "name": "Ecusta Brewing Co - Drift Taproom",
    "brewery_type": "micro",
    "address_1": "49 Pisgah Hwy",
    "address_2": null,
    "address_3": null,
    "city": "Pisgah Forest",
    "state_province": "North Carolina",
    "postal_code": "28768-8817",
    "country": "United States",
    "longitude": null,
    "latitude": null,
    "phone": "8289662337",
    "website_url": null,
    "state": "North Carolina",
    "street": "49 Pisgah Hwy"
  },
  {
    "id": "3dfa223c-f2e6-45e2-a2c3-bf9bcc5c53dd",
    "name": "Eddie McStiffs Brewing Co c/o Eddie Snyder",
    "brewery_type": "closed",
    "address_1": "57 S Main St",
    "address_2": null,
    "address_3": null,
    "city": "Moab",
    "state_province": "Utah",
    "postal_code": "84532-2502",
    "country": "United States",
    "longitude": null,
    "latitude": null,
    "phone": "4352592337",
    "website_url": "http://www.eddiemcstiffs.com",
    "state": "Utah",
    "street": "57 S Main St"
  },
  {
    "id": "706a591a-5afb-4cc6-b005-b96e0bcd95fc",
    "name": "Eddyline Brewing LLC",
    "brewery_type": "micro",
    "address_1": "102 Linderman Ave",
    "address_2": null,
    "address_3": null,
    "city": "Buena Vista",
    "state_province": "Colorado",
    "postal_code": "81211-5106",
    "country": "United States",
    "longitude": -106.131606,
    "latitude": 38.84025,
    "phone": "7199666018",
    "website_url": "http://eddylinebrewery.com",
    "state": "Colorado",
    "street": "102 Linderman Ave"
  },
  {
    "id": "84e0a77b-3442-442d-a275-8f8135620905",
    "name": "Edelbrau Brewing Company",
    "brewery_type": "planning",
    "address_1": null,
    "address_2": null,
    "address_3": null,
    "city": "Ann Arbor",
    "state_province": "Michigan",
    "postal_code": "48108-3393",
    "country": "United States",
    "longitude": null,
    "latitude": null,
    "phone": "7347075184",
    "website_url": "http://www.edelbrau.com",
    "state": "Michigan",
    "street": null
  },
  {
    "id": "6e525c51-c2aa-44b4-adaa-9fb869c1ae23",
    "name": "Edge Brewing Company",
    "brewery_type": "brewpub",
    "address_1": "525 N Steelhead Way",
    "address_2": null,
    "address_3": null,
    "city": "Boise",
    "state_province": "Idaho",
    "postal_code": "83704-8374",
    "country": "United States",
    "longitude": -116.2906516,
    "latitude": 43.6094254,
    "phone": "2089952979",
    "website_url": "http://www.edgebrew.com",
    "state": "Idaho",
    "street": "525 N Steelhead Way"
  },
  {
    "id": "c0b2740e-e4e0-41ca-9a4e-c72785a07767",
    "name": "Edge Brewing Company - Pub on 10th",
    "brewery_type": "brewpub",
    "address_1": "205 N 10th St",
    "address_2": null,
    "address_3": null,
    "city": "Boise",
    "state_province": "Idaho",
    "postal_code": "83702-5773",
    "country": "United States",
    "longitude": -116.206021,
    "latitude": 43.623807,
    "phone": "2089725900",
    "website_url": "http://www.edgebrew.com",
    "state": "Idaho",
    "street": "205 N 10th St"
  },
  {
    "id": "0898a2bf-6fc4-4156-8d97-08ce6b1ae29a",
    "name": "Edge Of The World Brewery",
    "brewery_type": "micro",
    "address_1": "70 N Central St",
    "address_2": null,
    "address_3": null,
    "city": "Colorado City",
    "state_province": "Arizona",
    "postal_code": "86021-1524",
    "country": "United States",
    "longitude": -112.9740725,
    "latitude": 36.9941047,
    "phone": "9288758710",
    "website_url": "http://edgeoftheworld.bar",
    "state": "Arizona",
    "street": "70 N Central St"
  },
  {
    "id": "78d2954b-5437-4a8d-ab39-eda4478644e1",
    "name": "Edgewater Brewery",
    "brewery_type": "brewpub",
    "address_1": "905 Struthers Ave",
    "address_2": null,
    "address_3": null,
    "city": "Grand Junction",
    "state_province": "Colorado",
    "postal_code": "81501-3804",
    "country": "United States",
    "longitude": -108.5575144,
    "latitude": 39.05565588,
    "phone": "9702433659",
    "website_url": "http://www.kannahcreekbrewingco.com/edgewater-brewery",
    "state": "Colorado",
    "street": "905 Struthers Ave"
  },
  {
    "id": "32db0465-4efa-4acc-a7b3-aa6678531e24",
    "name": "Edmund's Oast Brewing Co",
    "brewery_type": "brewpub",
    "address_1": "1505 King St Extension",
    "address_2": null,
    "address_3": null,
    "city": "Charleston",
    "state_province": "South Carolina",
    "postal_code": "29405",
    "country": "United States",
    "longitude": null,
    "latitude": null,
    "phone": "8437183224",
    "website_url": "http://www.edmundsoast.com",
    "state": "South Carolina",
    "street": "1505 King St Extension"
  },
  {
    "id": "1a810992-ac1c-41b5-87ae-6da0f0900733",
    "name": "Edward Teach Brewing",
    "brewery_type": "micro",
    "address_1": "604 N 4th St",
    "address_2": null,
    "address_3": null,
    "city": "Wilmington",
    "state_province": "North Carolina",
    "postal_code": "28401",
    "country": "United States",
    "longitude": -77.945422,
    "latitude": 34.242576,
    "phone": "9105235401",
    "website_url": null,
    "state": "North Carolina",
    "street": "604 N 4th St"
  },
  {
    "id": "97826164-b0b6-4012-b8d7-a25d2eb3b252",
    "name": "Edwinton Brewing Company",
    "brewery_type": "closed",
    "address_1": "407 E Main Ave",
    "address_2": null,
    "address_3": null,
    "city": "Bismarck",
    "state_province": "North Dakota",
    "postal_code": "58501-4043",
    "country": "United States",
    "longitude": -100.7859036,
    "latitude": 46.80535377,
    "phone": "7017127700",
    "website_url": "http://www.edwinton.com",
    "state": "North Dakota",
    "street": "407 E Main Ave"
  },
  {
    "id": "649c8cd8-0c3c-4016-9944-02fda05f24bd",
    "name": "Eel River Brewing Co",
    "brewery_type": "micro",
    "address_1": "1777 Alamar Way",
    "address_2": null,
    "address_3": null,
    "city": "Fortuna",
    "state_province": "California",
    "postal_code": "95540-9548",
    "country": "United States",
    "longitude": -124.1524471,
    "latitude": 40.57874196,
    "phone": "7077252739",
    "website_url": "http://www.eelriverbrewing.com",
    "state": "California",
    "street": "1777 Alamar Way"
  },
  {
    "id": "3988f05a-d439-413e-8247-d274eeb70b44",
    "name": "Eel River Brewing Co - Facility and Warehouse",
    "brewery_type": "micro",
    "address_1": "600 K Bridge St",
    "address_2": null,
    "address_3": null,
    "city": "Scotia",
    "state_province": "California",
    "postal_code": "95565",
    "country": "United States",
    "longitude": -124.1017905,
    "latitude": 40.48674854,
    "phone": "7077641772",
    "website_url": null,
    "state": "California",
    "street": "600 K Bridge St"
  },
  {
    "id": "3b7796a9-c125-4743-8c60-f4a847264ed3",
    "name": "Egan & Sons",
    "brewery_type": "contract",
    "address_1": "118 Walnut St",
    "address_2": null,
    "address_3": null,
    "city": "Montclair",
    "state_province": "New Jersey",
    "postal_code": "07042-3852",
    "country": "United States",
    "longitude": -74.21181832,
    "latitude": 40.81768748,
    "phone": "9737441413",
    "website_url": "http://www.eganandsons.com",
    "state": "New Jersey",
    "street": "118 Walnut St"
  },
  {
    "id": "3838a411-f540-4b66-93cc-7ff3c9f5e128",
    "name": "Eight & Sand Beer Co",
    "brewery_type": "micro",
    "address_1": "1003 N Evergreen Ave",
    "address_2": null,
    "address_3": null,
    "city": "Woodbury",
    "state_province": "New Jersey",
    "postal_code": "08096-",
    "country": "United States",
    "longitude": -75.14222034,
    "latitude": 39.84934725,
    "phone": "8565371339",
    "website_url": "http://www.eightandsandbeer.com",
    "state": "New Jersey",
    "street": "1003 N Evergreen Ave"
  },
  {
    "id": "5c23b248-c3c5-4e39-8cd4-b06b6601bc9b",
    "name": "Eight Bridges Brewing",
    "brewery_type": "micro",
    "address_1": "332 Earhart Way",
    "address_2": null,
    "address_3": null,
    "city": "Livermore",
    "state_province": "California",
    "postal_code": "94551-9309",
    "country": "United States",
    "longitude": -121.8145893,
    "latitude": 37.69895004,
    "phone": "9259619160",
    "website_url": "http://www.eightbridgesbrewing.com",
    "state": "California",
    "street": "332 Earhart Way"
  },
  {
    "id": "be2c5ed3-2579-4ba1-8838-e68556b4ab71",
    "name": "Eight Degrees Brewing",
    "brewery_type": "micro",
    "address_1": "Unit 4",
    "address_2": "Coolnanave Industrial Park",
    "address_3": "Coolnanave",
    "city": "Mitchelstown",
    "state_province": "Cork",
    "postal_code": "P67 FR62",
    "country": "Ireland",
    "longitude": -8.271831,
    "latitude": 52.2772804,
    "phone": "3532584933",
    "website_url": "https://www.eightdegrees.ie/",
    "state": "Cork",
    "street": "Unit 4"
  },
  {
    "id": "0c4225cc-f91e-4955-a19c-07d6e43b9849",
    "name": "Eight Rivers Brewery",
    "brewery_type": "planning",
    "address_1": null,
    "address_2": null,
    "address_3": null,
    "city": "Hillsboro",
    "state_province": "West Virginia",
    "postal_code": "24946-0039",
    "country": "United States",
    "longitude": null,
    "latitude": null,
    "phone": "2022513083",
    "website_url": null,
    "state": "West Virginia",
    "street": null
  },
  {
    "id": "46c262c0-2b6f-42d6-84df-1da1a1656095",
    "name": "Einstok Beer Company",
    "brewery_type": "contract",
    "address_1": "12381 Wilshire Blvd Suite 105",
    "address_2": null,
    "address_3": null,
    "city": "Los Angeles",
    "state_province": "California",
    "postal_code": "90025",
    "country": "United States",
    "longitude": -118.4704166,
    "latitude": 34.0423497,
    "phone": "4242180179",
    "website_url": "http://einstokbeer.com",
    "state": "California",
    "street": "12381 Wilshire Blvd Suite 105"
  },
  {
    "id": "776a7a9b-c542-4578-9990-4a5dd26f9204",
    "name": "El Dorado Brewing Co",
    "brewery_type": "micro",
    "address_1": "6051 Enterprise Dr",
    "address_2": null,
    "address_3": null,
    "city": "Diamond Springs",
    "state_province": "California",
    "postal_code": "95619-9447",
    "country": "United States",
    "longitude": -120.8345161,
    "latitude": 38.6942363,
    "phone": "5305584188",
    "website_url": "http://www.eldobrew.com",
    "state": "California",
    "street": "6051 Enterprise Dr"
  },
  {
    "id": "7a3aa913-807c-4395-9714-2d65d30ad9ee",
    "name": "El Paso Brewing Company",
    "brewery_type": "micro",
    "address_1": "810-B Texas Ave",
    "address_2": null,
    "address_3": null,
    "city": "El Paso",
    "state_province": "Texas",
    "postal_code": "79901-",
    "country": "United States",
    "longitude": -106.4818378,
    "latitude": 31.76216161,
    "phone": "9152620687",
    "website_url": "http://www.elpasobrewing.com",
    "state": "Texas",
    "street": "810-B Texas Ave"
  },
  {
    "id": "36389c21-d80a-468a-bd08-a394b0de74e8",
    "name": "El Rancho Brewing",
    "brewery_type": "brewpub",
    "address_1": "29260 US Highway 40",
    "address_2": null,
    "address_3": null,
    "city": "Evergreen",
    "state_province": "Colorado",
    "postal_code": "80439-3700",
    "country": "United States",
    "longitude": null,
    "latitude": null,
    "phone": "3036702739",
    "website_url": "http://www.elranchobrewing.com",
    "state": "Colorado",
    "street": "29260 US Highway 40"
  },
  {
    "id": "5ff5bda9-bc0b-4794-a280-8e2a361066a2",
    "name": "El Segundo Brewing Co",
    "brewery_type": "micro",
    "address_1": "140 Main St",
    "address_2": null,
    "address_3": null,
    "city": "El Segundo",
    "state_province": "California",
    "postal_code": "90245-3801",
    "country": "United States",
    "longitude": -118.4156967,
    "latitude": 33.91771,
    "phone": "3105293882",
    "website_url": "http://www.elsegundobrewing.com",
    "state": "California",
    "street": "140 Main St"
  },
  {
    "id": "d4630be0-3ff3-4aeb-8e01-e920425ac6d8",
    "name": "El Toro Brewing Company Brewpub",
    "brewery_type": "brewpub",
    "address_1": "17605 Monterey Rd",
    "address_2": null,
    "address_3": null,
    "city": "Morgan Hill",
    "state_province": "California",
    "postal_code": "95037-3620",
    "country": "United States",
    "longitude": -121.7082244,
    "latitude": 37.1864644,
    "phone": null,
    "website_url": null,
    "state": "California",
    "street": "17605 Monterey Rd"
  },
  {
    "id": "614ec534-b889-4b25-8381-a57cac69c029",
    "name": "Elation Brewing",
    "brewery_type": "planning",
    "address_1": null,
    "address_2": null,
    "address_3": null,
    "city": "Norfolk",
    "state_province": "Virginia",
    "postal_code": "23508",
    "country": "United States",
    "longitude": null,
    "latitude": null,
    "phone": "7574696020",
    "website_url": null,
    "state": "Virginia",
    "street": null
  },
  {
    "id": "f4fd3cd9-6837-4ed0-b7f7-5f9635caa68e",
    "name": "Elder Brewing Co.",
    "brewery_type": "micro",
    "address_1": "218 E Cass St",
    "address_2": null,
    "address_3": null,
    "city": "Joliet",
    "state_province": "Illinois",
    "postal_code": "60432-2813",
    "country": "United States",
    "longitude": -88.076785,
    "latitude": 41.527834,
    "phone": null,
    "website_url": "http://www.elderbrewingco.com",
    "state": "Illinois",
    "street": "218 E Cass St"
  },
  {
    "id": "44d62e5e-209d-4432-8149-715add60e6d4",
    "name": "Elder Pine Brewing and Blending Co",
    "brewery_type": "micro",
    "address_1": "4200 Sundown Rd",
    "address_2": null,
    "address_3": null,
    "city": "Gaithersburg",
    "state_province": "Maryland",
    "postal_code": "20882",
    "country": "United States",
    "longitude": null,
    "latitude": null,
    "phone": null,
    "website_url": "http://www.elderpine.com",
    "state": "Maryland",
    "street": "4200 Sundown Rd"
  },
  {
    "id": "377038fb-785b-4d4c-bc17-2c8514340e76",
    "name": "Elder Son Brewing Co.",
    "brewery_type": "micro",
    "address_1": "946 N Shepherd Dr Suite A",
    "address_2": null,
    "address_3": null,
    "city": "Houston",
    "state_province": "Texas",
    "postal_code": "77008",
    "country": " United States",
    "longitude": null,
    "latitude": null,
    "phone": "7134855749",
    "website_url": "https://eldersonbrewing.com/",
    "state": "Texas",
    "street": "946 N Shepherd Dr Suite A"
  },
  {
    "id": "77e1db72-3870-4bd4-ad7d-80ae108c5398",
    "name": "Elderbrew",
    "brewery_type": "micro",
    "address_1": "24 6th St",
    "address_2": null,
    "address_3": null,
    "city": "Bristol",
    "state_province": "Tennessee",
    "postal_code": "37620",
    "country": "United States",
    "longitude": -82.18356135,
    "latitude": 36.594077,
    "phone": null,
    "website_url": "http://www.elderbrew.com",
    "state": "Tennessee",
    "street": "24 6th St"
  },
  {
    "id": "b04d45c8-34d1-4220-9147-f87030b13922",
    "name": "Electric Brewing",
    "brewery_type": "micro",
    "address_1": "1326 W HWY 92 STE 8",
    "address_2": null,
    "address_3": null,
    "city": "Bisbee",
    "state_province": "Arizona",
    "postal_code": "85603-1151",
    "country": "United States",
    "longitude": -109.9296097,
    "latitude": 31.3969105,
    "phone": "5208004210",
    "website_url": "https://www.electricbrewing.com",
    "state": "Arizona",
    "street": "1326 W HWY 92 STE 8"
  },
  {
    "id": "e6693673-773f-4925-918d-8eab89a62daa",
    "name": "Electric Brewing Co",
    "brewery_type": "micro",
    "address_1": "41537 Cherry St",
    "address_2": null,
    "address_3": null,
    "city": "Murrieta",
    "state_province": "California",
    "postal_code": "92562-9193",
    "country": "United States",
    "longitude": -117.172438,
    "latitude": 33.5268827,
    "phone": "9516962266",
    "website_url": "http://www.electricbrewingcompany.com",
    "state": "California",
    "street": "41537 Cherry St"
  },
  {
    "id": "be78f4a5-2c4a-426b-8aa6-3577b0bde2ad",
    "name": "Element Brewing Co",
    "brewery_type": "micro",
    "address_1": "16 Bridge St",
    "address_2": null,
    "address_3": null,
    "city": "Millers Falls",
    "state_province": "Massachusetts",
    "postal_code": "01349-1336",
    "country": "United States",
    "longitude": -72.49516039,
    "latitude": 42.57950929,
    "phone": "4138356340",
    "website_url": "http://www.elementbeer.com",
    "state": "Massachusetts",
    "street": "16 Bridge St"
  },
  {
    "id": "59dee189-7a16-4a13-a913-620994d7b548",
    "name": "Elevate Your Passion Brewing",
    "brewery_type": "micro",
    "address_1": "2209 W 1st St # A107",
    "address_2": null,
    "address_3": null,
    "city": "Tempe",
    "state_province": "Arizona",
    "postal_code": "85281-7245",
    "country": "United States",
    "longitude": null,
    "latitude": null,
    "phone": "8883972337",
    "website_url": "http://www.elevateyourpassion.com",
    "state": "Arizona",
    "street": "2209 W 1st St # A107"
  },
  {
    "id": "f8d43fea-de33-43f9-a243-2e3d4f6f6928",
    "name": "Elevation 66 Brewing Co",
    "brewery_type": "brewpub",
    "address_1": "10082 San Pablo Ave",
    "address_2": null,
    "address_3": null,
    "city": "El Cerrito",
    "state_province": "California",
    "postal_code": "94530-3927",
    "country": "United States",
    "longitude": -122.3030241,
    "latitude": 37.9020418,
    "phone": "5308489176",
    "website_url": "http://www.elevation66.com",
    "state": "California",
    "street": "10082 San Pablo Ave"
  },
  {
    "id": "f13fa652-5f4d-43f1-b48d-493a6c417e7d",
    "name": "Elevation Beer Company",
    "brewery_type": "micro",
    "address_1": "115 Pahlone Pkwy",
    "address_2": null,
    "address_3": null,
    "city": "Poncha Springs",
    "state_province": "Colorado",
    "postal_code": "81242",
    "country": "United States",
    "longitude": -106.0659377,
    "latitude": 38.51804434,
    "phone": null,
    "website_url": null,
    "state": "Colorado",
    "street": "115 Pahlone Pkwy"
  },
  {
    "id": "3037658d-3655-4682-a2f2-5b03d3f96090",
    "name": "Elevator Brewery and Draught Haus",
    "brewery_type": "brewpub",
    "address_1": "161 N High St",
    "address_2": null,
    "address_3": null,
    "city": "Columbus",
    "state_province": "Ohio",
    "postal_code": "43215-2402",
    "country": "United States",
    "longitude": -83.0017892,
    "latitude": 39.9656697,
    "phone": "6142280500",
    "website_url": "http://www.elevatorbrewing.com",
    "state": "Ohio",
    "street": "161 N High St"
  },
  {
    "id": "1f4af7fe-6b86-4d3c-95f2-c0fec87a67fb",
    "name": "Elevator Brewing Co - Production facility",
    "brewery_type": "micro",
    "address_1": "165 N 4th St",
    "address_2": null,
    "address_3": null,
    "city": "Columbus",
    "state_province": "Ohio",
    "postal_code": "43215-2906",
    "country": "United States",
    "longitude": -82.9995686,
    "latitude": 39.9662282,
    "phone": "6146792337",
    "website_url": "http://elevatorbrewery.com",
    "state": "Ohio",
    "street": "165 N 4th St"
  },
  {
    "id": "9f67414c-21a7-4be0-8f7f-9f3c7d1e82e2",
    "name": "Eleven Lakes Brewing Company",
    "brewery_type": "micro",
    "address_1": "10228 Bailey Rd Ste 201",
    "address_2": null,
    "address_3": null,
    "city": "Cornelius",
    "state_province": "North Carolina",
    "postal_code": "28031-9420",
    "country": "United States",
    "longitude": -80.86054928,
    "latitude": 35.45400686,
    "phone": "7044000927",
    "website_url": "http://www.elevenlakesbrewing.com",
    "state": "North Carolina",
    "street": "10228 Bailey Rd Ste 201"
  },
  {
    "id": "728c3c0c-df0f-4448-a826-1bd4b2e86e85",
    "name": "Eleventh Hour Brewing Co",
    "brewery_type": "micro",
    "address_1": "3711 Charlotte St",
    "address_2": null,
    "address_3": null,
    "city": "Pittsburgh",
    "state_province": "Pennsylvania",
    "postal_code": "15201-3201",
    "country": "United States",
    "longitude": -79.96553317,
    "latitude": 40.46680403,
    "phone": "4127165107",
    "website_url": "http://www.11thhourbrews.com",
    "state": "Pennsylvania",
    "street": "3711 Charlotte St"
  },
  {
    "id": "9366a4a1-222a-43ec-af7f-e8c1e3454b57",
    "name": "Eli Fish Brewing Company",
    "brewery_type": "brewpub",
    "address_1": "109 Main St",
    "address_2": null,
    "address_3": null,
    "city": "Batavia",
    "state_province": "New York",
    "postal_code": "14020-2110",
    "country": "United States",
    "longitude": -78.18219898,
    "latitude": 42.99732747,
    "phone": "5858150401",
    "website_url": "http://www.elifishbrewing.com",
    "state": "New York",
    "street": "109 Main St"
  },
  {
    "id": "357b4282-20a8-4fad-9de0-cdbdc3ed9879",
    "name": "Elk Avenue Brewing Company",
    "brewery_type": "brewpub",
    "address_1": "215 Elk Avenue",
    "address_2": null,
    "address_3": null,
    "city": "Crested Butte",
    "state_province": "Colorado",
    "postal_code": "81224",
    "country": "United States",
    "longitude": -106.9861689,
    "latitude": 38.86984685,
    "phone": "7733307876",
    "website_url": null,
    "state": "Colorado",
    "street": "215 Elk Avenue"
  },
  {
    "id": "a89d6a63-9639-405f-b783-c6dd4c5fbab0",
    "name": "Elk Brewing Co",
    "brewery_type": "brewpub",
    "address_1": "400 Dodge Rd NE",
    "address_2": null,
    "address_3": null,
    "city": "Comstock Park",
    "state_province": "Michigan",
    "postal_code": "49321-8041",
    "country": "United States",
    "longitude": null,
    "latitude": null,
    "phone": "6162385227",
    "website_url": null,
    "state": "Michigan",
    "street": "400 Dodge Rd NE"
  },
  {
    "id": "ce34c0ef-c2ae-4f78-a4ee-de33c58c1744",
    "name": "Elk Brewing Co",
    "brewery_type": "brewpub",
    "address_1": "700 Wealthy St SE",
    "address_2": null,
    "address_3": null,
    "city": "Grand Rapids",
    "state_province": "Michigan",
    "postal_code": "49503-5539",
    "country": "United States",
    "longitude": -85.6515221,
    "latitude": 42.9554463,
    "phone": "6162385227",
    "website_url": "http://www.elkbrewing.com",
    "state": "Michigan",
    "street": "700 Wealthy St SE"
  },
  {
    "id": "c55c2083-6f77-4a62-8b1e-dd1053d2cdb0",
    "name": "Elk Creek Cafe + Aleworks",
    "brewery_type": "brewpub",
    "address_1": "100 W Main St",
    "address_2": null,
    "address_3": null,
    "city": "Millheim",
    "state_province": "Pennsylvania",
    "postal_code": "16854",
    "country": "United States",
    "longitude": -77.47694623,
    "latitude": 40.8911574,
    "phone": "8143498850",
    "website_url": "http://www.elkcreekcafe.net",
    "state": "Pennsylvania",
    "street": "100 W Main St"
  }
]