[
  {
    "id": "2d60ec76-646d-4512-9e57-4d04406cd1e2",
    "name": "Fish Brewing Co",
    "brewery_type": "micro",
    "address_1": "514 Jefferson St SE",
    "address_2": null,
    "address_3": null,
    "city": "Olympia",
    "state_province": "Washington",
    "postal_code": "98501-1467",
    "country": "United States",
    "longitude": -122.8954179,
    "latitude": 47.03437129,
    "phone": "3609436480",
    "website_url": "http://www.fishbrewing.com",
    "state": "Washington",
    "street": "514 Jefferson St SE"
  },
  {
    "id": "10364982-a5d1-4595-bf95-25068d2386e3",
    "name": "Fish Brewing Pub & Eatery",
    "brewery_type": "closed",
    "address_1": "5108 Grand Loop",
    "address_2": null,
    "address_3": null,
    "city": "Ruston",
    "state_province": "Washington",
    "postal_code": "98407-3180",
    "country": "United States",
    "longitude": null,
    "latitude": null,
    "phone": null,
    "website_url": null,
    "state": "Washington",
    "street": "5108 Grand Loop"
  },
  {
    "id": "9fbea2d8-57b9-4b17-bb19-01a96485e0d3",
    "name": "Fishale Taphouse and Grill",
    "brewery_type": "brewpub",
    "address_1": "7715 Front Beach Rd",
    "address_2": null,
    "address_3": null,
    "city": "Panama City Beach",
    "state_province": "Florida",
    "postal_code": "32407-4813",
    "country": "United States",
    "longitude": -85.7855375,
    "latitude": 30.1823237,
    "phone": "8506401410",
    "website_url": null,
    "state": "Florida",
    "street": "7715 Front Beach Rd"
  },
  {
    "id": "b014d168-6455-4325-9e1c-7b212daf49ef",
    "name": "Fisher Brewing Company",
    "brewery_type": "micro",
    "address_1": "320 W 800 S",
    "address_2": null,
    "address_3": null,
    "city": "Salt Lake City",
    "state_province": "Utah",
    "postal_code": "84101-2610",
    "country": "United States",
    "longitude": -111.8817247,
    "latitude": 40.75187347,
    "phone": "8014872337",
    "website_url": "http://www.fisherbeer.com",
    "state": "Utah",
    "street": "320 W 800 S"
  },
  {
    "id": "51922063-32fd-458f-aa48-482f612c7cca",
    "name": "Fishtown Brewing Co",
    "brewery_type": "brewpub",
    "address_1": "1101 Frankford Ave",
    "address_2": null,
    "address_3": null,
    "city": "Philadelphia",
    "state_province": "Pennsylvania",
    "postal_code": "19125-4153",
    "country": "United States",
    "longitude": -75.0159588,
    "latitude": 40.0460129,
    "phone": "2159901396",
    "website_url": "http://fishtownbrewpub.com",
    "state": "Pennsylvania",
    "street": "1101 Frankford Ave"
  },
  {
    "id": "cf195575-212d-4245-93a1-0a65c3e310c6",
    "name": "Fitgers Brewhouse",
    "brewery_type": "brewpub",
    "address_1": "600 E Superior St",
    "address_2": null,
    "address_3": null,
    "city": "Duluth",
    "state_province": "Minnesota",
    "postal_code": "55802-2222",
    "country": "United States",
    "longitude": -92.09046481,
    "latitude": 46.79280161,
    "phone": "2187224825",
    "website_url": null,
    "state": "Minnesota",
    "street": "600 E Superior St"
  },
  {
    "id": "74e468e5-ce8e-4b96-a806-382853e33d6f",
    "name": "Five & 20 Spirits and Brewing",
    "brewery_type": "brewpub",
    "address_1": "8398 W Route 20",
    "address_2": null,
    "address_3": null,
    "city": "Westfield",
    "state_province": "New York",
    "postal_code": "14787-9748",
    "country": "United States",
    "longitude": null,
    "latitude": null,
    "phone": "7167939463",
    "website_url": "http://www.fiveand20.com",
    "state": "New York",
    "street": "8398 W Route 20"
  },
  {
    "id": "2e58d067-0e26-42d0-a3f1-818f6c5dd8c3",
    "name": "Five Boroughs Brewing Co",
    "brewery_type": "micro",
    "address_1": "215 47th St",
    "address_2": null,
    "address_3": null,
    "city": "Brooklyn",
    "state_province": "New York",
    "postal_code": "11220-1009",
    "country": "United States",
    "longitude": -74.0144263,
    "latitude": 40.6505216,
    "phone": "7183558575",
    "website_url": "http://www.fiveboroughs.com",
    "state": "New York",
    "street": "215 47th St"
  },
  {
    "id": "ad1ceef6-b564-422c-990a-8c98847adc0a",
    "name": "Five Churches Brewing",
    "brewery_type": "brewpub",
    "address_1": "193 Arch St",
    "address_2": null,
    "address_3": null,
    "city": "New Britain",
    "state_province": "Connecticut",
    "postal_code": "06051-2516",
    "country": "United States",
    "longitude": -72.782706,
    "latitude": 41.662994,
    "phone": "8602238080",
    "website_url": "http://www.facebook.com/FiveChurchesBrewing",
    "state": "Connecticut",
    "street": "193 Arch St"
  },
  {
    "id": "ef8eb443-f817-469a-8323-f3673a56b16e",
    "name": "Five Cities Brewing",
    "brewery_type": "micro",
    "address_1": "2255 Falcon Ave",
    "address_2": null,
    "address_3": null,
    "city": "Bettendorf",
    "state_province": "Iowa",
    "postal_code": "52722",
    "country": "United States",
    "longitude": -90.50126378,
    "latitude": 41.57430518,
    "phone": "5632326105",
    "website_url": "http://www.fivecitiesbrewing.com",
    "state": "Iowa",
    "street": "2255 Falcon Ave"
  },
  {
    "id": "b0b97e05-5db0-4825-b1c4-406e6b807bd0",
    "name": "Five Dolar Ranch Brewing",
    "brewery_type": "micro",
    "address_1": "1570 Beet Rd",
    "address_2": null,
    "address_3": null,
    "city": "Walla Walla",
    "state_province": "Washington",
    "postal_code": "99362",
    "country": "United States",
    "longitude": -118.4191129,
    "latitude": 46.0036876,
    "phone": "5095403989",
    "website_url": "https://fivedollarranchbeer.com/",
    "state": "Washington",
    "street": "1570 Beet Rd"
  },
  {
    "id": "d267fb22-568a-4037-83d0-2c2daf10a815",
    "name": "Five Dons Brewing Co",
    "brewery_type": "micro",
    "address_1": "1158 11th Ave",
    "address_2": null,
    "address_3": null,
    "city": "Longview",
    "state_province": "Washington",
    "postal_code": "98632-3110",
    "country": "United States",
    "longitude": -122.9326287,
    "latitude": 46.13418506,
    "phone": "3604306440",
    "website_url": "http://www.fivedonsbeer.com",
    "state": "Washington",
    "street": "1158 11th Ave"
  },
  {
    "id": "ede7c380-b556-4de8-b05b-8b81cc227915",
    "name": "Five Suns Brewing",
    "brewery_type": "micro",
    "address_1": "701 Escobar St Ste C",
    "address_2": null,
    "address_3": null,
    "city": "Martinez",
    "state_province": "California",
    "postal_code": "94553",
    "country": "United States",
    "longitude": -122.1370278,
    "latitude": 38.01851399,
    "phone": "9259576706",
    "website_url": "http://www.fivesunsbrewing.com",
    "state": "California",
    "street": "701 Escobar St Ste C"
  },
  {
    "id": "16d59447-30f9-4999-a8db-6d5773eb2d1b",
    "name": "Five Threads Brewing Company",
    "brewery_type": "micro",
    "address_1": "31133 Via Colinas Ste 109",
    "address_2": null,
    "address_3": null,
    "city": "Westlake Village",
    "state_province": "California",
    "postal_code": "91362-4525",
    "country": "United States",
    "longitude": -118.801724,
    "latitude": 34.1529112,
    "phone": null,
    "website_url": null,
    "state": "California",
    "street": "31133 Via Colinas Ste 109"
  },
  {
    "id": "d5090655-da65-4759-b130-60c5e256aa0e",
    "name": "Five Window Beer Co",
    "brewery_type": "micro",
    "address_1": "9 W Locust St",
    "address_2": null,
    "address_3": null,
    "city": "Lodi",
    "state_province": "California",
    "postal_code": "95240-2137",
    "country": "United States",
    "longitude": -121.29526,
    "latitude": 38.136971,
    "phone": "2097122336",
    "website_url": "http://www.fivewindow.com",
    "state": "California",
    "street": "9 W Locust St"
  },
  {
    "id": "90ab9e5b-da24-4624-aabf-4c7ffcb52f91",
    "name": "Five Wits Brewing Co.",
    "brewery_type": "planning",
    "address_1": null,
    "address_2": null,
    "address_3": null,
    "city": "Chattanooga",
    "state_province": "Tennessee",
    "postal_code": "37408",
    "country": "United States",
    "longitude": null,
    "latitude": null,
    "phone": "4237742991",
    "website_url": null,
    "state": "Tennessee",
    "street": null
  },
  {
    "id": "0a17cef1-8631-4534-8b87-03bdbb33d479",
    "name": "Flag City Brewing",
    "brewery_type": "micro",
    "address_1": "618 W 4th St",
    "address_2": null,
    "address_3": null,
    "city": "Webb City",
    "state_province": "Missouri",
    "postal_code": "64870",
    "country": "United States",
    "longitude": -94.467058,
    "latitude": 37.156896,
    "phone": null,
    "website_url": null,
    "state": "Missouri",
    "street": "618 W 4th St"
  },
  {
    "id": "dbbf580b-32d2-4f7b-bff4-e74669267a7e",
    "name": "Flagship Brewery, LLC.",
    "brewery_type": "micro",
    "address_1": "40 Minthorne St",
    "address_2": null,
    "address_3": null,
    "city": "Staten Island",
    "state_province": "New York",
    "postal_code": "10301-3241",
    "country": "United States",
    "longitude": -74.0756332,
    "latitude": 40.6372257,
    "phone": "7184485284",
    "website_url": "http://www.flagshipbrewery.nyc",
    "state": "New York",
    "street": "40 Minthorne St"
  },
  {
    "id": "4b9222e3-f231-4d53-8890-c5c26c8c05fd",
    "name": "Flagstaff Brewing Co",
    "brewery_type": "brewpub",
    "address_1": "16 E Route 66",
    "address_2": null,
    "address_3": null,
    "city": "Flagstaff",
    "state_province": "Arizona",
    "postal_code": "86001-5792",
    "country": "United States",
    "longitude": -111.523296,
    "latitude": 35.2109064,
    "phone": "9287731442",
    "website_url": "http://www.flagbrew.com",
    "state": "Arizona",
    "street": "16 E Route 66"
  },
  {
    "id": "5cd2ba74-2f89-4e9f-9fa4-edff3aed2cf9",
    "name": "Flapjack Brewery",
    "brewery_type": "brewpub",
    "address_1": "6833 Stanley Ave",
    "address_2": null,
    "address_3": null,
    "city": "Berwyn",
    "state_province": "Illinois",
    "postal_code": "60402-5289",
    "country": "United States",
    "longitude": -87.79436281,
    "latitude": 41.83342484,
    "phone": null,
    "website_url": "http://www.flapjackbrewery.com",
    "state": "Illinois",
    "street": "6833 Stanley Ave"
  },
  {
    "id": "25cc1e54-693a-45a3-827c-337684e1ced7",
    "name": "Flat 12 Bierwerks",
    "brewery_type": "micro",
    "address_1": "414 Dorman St",
    "address_2": null,
    "address_3": null,
    "city": "Indianapolis",
    "state_province": "Indiana",
    "postal_code": "46202-3648",
    "country": "United States",
    "longitude": -86.13847,
    "latitude": 39.77261486,
    "phone": "3174265851",
    "website_url": "http://www.flat12.me",
    "state": "Indiana",
    "street": "414 Dorman St"
  },
  {
    "id": "6037fc17-102b-4137-9197-446eb6fd511d",
    "name": "Flat Branch Pub and Brewing",
    "brewery_type": "brewpub",
    "address_1": "115 S 5th St",
    "address_2": null,
    "address_3": null,
    "city": "Columbia",
    "state_province": "Missouri",
    "postal_code": "65201-4230",
    "country": "United States",
    "longitude": -92.33196896,
    "latitude": 38.95030013,
    "phone": "5734990400",
    "website_url": "http://www.flatbranch.com",
    "state": "Missouri",
    "street": "115 S 5th St"
  },
  {
    "id": "9a0b7dcc-f027-4812-8c83-ede412316a89",
    "name": "Flat Earth Brewing Co",
    "brewery_type": "micro",
    "address_1": "688 Minnehaha Ave E",
    "address_2": null,
    "address_3": null,
    "city": "Saint Paul",
    "state_province": "Minnesota",
    "postal_code": "55106-4462",
    "country": "United States",
    "longitude": -93.07042082,
    "latitude": 44.96294245,
    "phone": "6516981945",
    "website_url": "http://www.flatearthbrewing.com",
    "state": "Minnesota",
    "street": "688 Minnehaha Ave E"
  },
  {
    "id": "d4094e29-6940-41de-af54-c63b9e6f69cc",
    "name": "Flat Fish Brewing",
    "brewery_type": "micro",
    "address_1": "126 N Wood Rd Ste 104",
    "address_2": null,
    "address_3": null,
    "city": "Camarillo",
    "state_province": "California",
    "postal_code": "93010-8334",
    "country": "United States",
    "longitude": -119.0954656,
    "latitude": 34.21805471,
    "phone": "8054849600",
    "website_url": "http://www.flatfishbrewing.com",
    "state": "California",
    "street": "126 N Wood Rd Ste 104"
  },
  {
    "id": "90ed6777-3f0f-43d0-80e4-0e9c6a6b62b4",
    "name": "Flat Tail Brewing Co",
    "brewery_type": "brewpub",
    "address_1": "202 SW 1st St",
    "address_2": null,
    "address_3": null,
    "city": "Corvallis",
    "state_province": "Oregon",
    "postal_code": "97333-4727",
    "country": "United States",
    "longitude": -123.2598775,
    "latitude": 44.56196237,
    "phone": "5417582229",
    "website_url": "http://www.flattailcorvallis.com",
    "state": "Oregon",
    "street": "202 SW 1st St"
  },
  {
    "id": "b5d72612-a3e3-414b-9242-170a6bccdbea",
    "name": "Flat Top Mountain Brewery",
    "brewery_type": "micro",
    "address_1": "567 Main St E",
    "address_2": null,
    "address_3": null,
    "city": "Banner Elk",
    "state_province": "North Carolina",
    "postal_code": "28604-8974",
    "country": "United States",
    "longitude": -81.86657602,
    "latitude": 36.16510256,
    "phone": "8288988677",
    "website_url": "http://www.flattopbrew.com",
    "state": "North Carolina",
    "street": "567 Main St E"
  },
  {
    "id": "b44fb73c-740e-4d66-bf6e-650b1c76d0c2",
    "name": "Flathead Lake Brewing Co",
    "brewery_type": "micro",
    "address_1": "116 Holt Dr Ste B",
    "address_2": null,
    "address_3": null,
    "city": "Bigfork",
    "state_province": "Montana",
    "postal_code": "59911-3707",
    "country": "United States",
    "longitude": null,
    "latitude": null,
    "phone": "4068370085",
    "website_url": "http://www.flatheadlakebrewing.com",
    "state": "Montana",
    "street": "116 Holt Dr Ste B"
  },
  {
    "id": "a1cc7311-aba0-4376-96e2-c46a8b82103e",
    "name": "Flathead Lake Brewing Co - Production Only",
    "brewery_type": "micro",
    "address_1": null,
    "address_2": null,
    "address_3": null,
    "city": "Bigfork",
    "state_province": "Montana",
    "postal_code": "59911-8484",
    "country": "United States",
    "longitude": null,
    "latitude": null,
    "phone": "4068370085",
    "website_url": "http://www.flatheadlakebrewing.com",
    "state": "Montana",
    "street": null
  },
  {
    "id": "0999dab4-ac44-4694-8acf-e9e50d95cb92",
    "name": "Flatland Brewery",
    "brewery_type": "closed",
    "address_1": "3140 Bluestem Dr, Ste 105",
    "address_2": null,
    "address_3": null,
    "city": "West Fargo",
    "state_province": "North Dakota",
    "postal_code": "58078-8009",
    "country": "United States",
    "longitude": -96.88473642,
    "latitude": 46.8342508,
    "phone": "7013531178",
    "website_url": "http://www.flatlandbrewery.com",
    "state": "North Dakota",
    "street": "3140 Bluestem Dr, Ste 105"
  },
  {
    "id": "408a9e62-ae9a-4082-8c05-35c250f5239a",
    "name": "Flatland Brewing Company",
    "brewery_type": "micro",
    "address_1": "9183 Survey Rd Ste 104",
    "address_2": null,
    "address_3": null,
    "city": "Elk Grove",
    "state_province": "California",
    "postal_code": "95624-9712",
    "country": "United States",
    "longitude": -121.3567686,
    "latitude": 38.37684711,
    "phone": "9167533116",
    "website_url": "http://www.flatlandbrewingco.com",
    "state": "California",
    "street": "9183 Survey Rd Ste 104"
  },
  {
    "id": "adf91e10-69dd-4901-b617-d915d4d24bbe",
    "name": "Flatrock Brewery",
    "brewery_type": "micro",
    "address_1": "621 N Perry St",
    "address_2": null,
    "address_3": null,
    "city": "Napoleon",
    "state_province": "Ohio",
    "postal_code": "43545-1701",
    "country": "United States",
    "longitude": -84.1245567,
    "latitude": 41.39090717,
    "phone": "4199661440",
    "website_url": "http://www.flatrockbrewery.com",
    "state": "Ohio",
    "street": "621 N Perry St"
  },
  {
    "id": "9521ea9c-c1db-445a-8d7e-5d2ea433608a",
    "name": "Flesk Brewing",
    "brewery_type": "micro",
    "address_1": "200 Applebee St Ste E",
    "address_2": null,
    "address_3": null,
    "city": "Barrington",
    "state_province": "Illinois",
    "postal_code": "60010-3063",
    "country": "United States",
    "longitude": null,
    "latitude": null,
    "phone": "2246557291",
    "website_url": "http://www.fleskbrewing.com",
    "state": "Illinois",
    "street": "200 Applebee St Ste E"
  },
  {
    "id": "df8780b1-b209-4209-a33f-ffbcaeab4cca",
    "name": "Fleur De Lis Brew Works",
    "brewery_type": "micro",
    "address_1": "3630 State Route 414",
    "address_2": null,
    "address_3": null,
    "city": "Seneca Falls",
    "state_province": "New York",
    "postal_code": "13148-9202",
    "country": "United States",
    "longitude": null,
    "latitude": null,
    "phone": "3156513260",
    "website_url": "http://www.fleurdelisbrewworks.com",
    "state": "New York",
    "street": "3630 State Route 414"
  },
  {
    "id": "ef4a200b-134c-422f-94c1-8564116b05b9",
    "name": "Flight Deck Brewing",
    "brewery_type": "micro",
    "address_1": "11 Atlantic Dr",
    "address_2": null,
    "address_3": null,
    "city": "Brunswick",
    "state_province": "Maine",
    "postal_code": "04011-4400",
    "country": "United States",
    "longitude": null,
    "latitude": null,
    "phone": "2075045133",
    "website_url": "http://www.flightdeckbrewing.com",
    "state": "Maine",
    "street": "11 Atlantic Dr"
  },
  {
    "id": "741bf3b8-3278-497f-a3f7-2efd0cc112f8",
    "name": "Flix Brewhouse",
    "brewery_type": "micro",
    "address_1": "2000 S Interstate 35 Ste B1",
    "address_2": null,
    "address_3": null,
    "city": "Round Rock",
    "state_province": "Texas",
    "postal_code": "78681-6900",
    "country": "United States",
    "longitude": null,
    "latitude": null,
    "phone": "5122442739",
    "website_url": "http://www.flixbrewhouse.com",
    "state": "Texas",
    "street": "2000 S Interstate 35 Ste B1"
  },
  {
    "id": "fe89aa40-9b5d-4cb2-a8e9-54de1ec11c15",
    "name": "Flix Brewhouse",
    "brewery_type": "brewpub",
    "address_1": "3236 La Orilla Rd NW",
    "address_2": null,
    "address_3": null,
    "city": "Albuquerque",
    "state_province": "New Mexico",
    "postal_code": "87120-2630",
    "country": "United States",
    "longitude": -106.6815896,
    "latitude": 35.15878955,
    "phone": "5054458500",
    "website_url": null,
    "state": "New Mexico",
    "street": "3236 La Orilla Rd NW"
  },
  {
    "id": "134bb873-9fc1-4065-b516-2598450f49e3",
    "name": "Flix Brewhouse",
    "brewery_type": "brewpub",
    "address_1": "3800 Merle Hay Rd",
    "address_2": null,
    "address_3": null,
    "city": "Des Moines",
    "state_province": "Iowa",
    "postal_code": "50310-1305",
    "country": "United States",
    "longitude": -93.6997831,
    "latitude": 41.6306427,
    "phone": "5122442739",
    "website_url": null,
    "state": "Iowa",
    "street": "3800 Merle Hay Rd"
  },
  {
    "id": "d339cf65-cab2-4797-9e89-0c2e8bf3e3fb",
    "name": "Flix Brewhouse",
    "brewery_type": "brewpub",
    "address_1": "2206 E 116th St",
    "address_2": null,
    "address_3": null,
    "city": "Carmel",
    "state_province": "Indiana",
    "postal_code": "46032-3215",
    "country": "United States",
    "longitude": -86.0897644,
    "latitude": 39.9567195,
    "phone": "5122442739",
    "website_url": null,
    "state": "Indiana",
    "street": "2206 E 116th St"
  },
  {
    "id": "4e40d1be-52b1-4e69-b6cb-cb6391b08d71",
    "name": "Flix Brewhouse - Frisco/Little Elm",
    "brewery_type": "micro",
    "address_1": null,
    "address_2": null,
    "address_3": null,
    "city": "Frisco",
    "state_province": "Texas",
    "postal_code": "75033",
    "country": "United States",
    "longitude": null,
    "latitude": null,
    "phone": "5122442739",
    "website_url": null,
    "state": "Texas",
    "street": null
  },
  {
    "id": "089aef1f-a14e-43bf-84c4-9df503dc637d",
    "name": "Flix Brewhouse - Madison",
    "brewery_type": "brewpub",
    "address_1": "85 East Towne Mall",
    "address_2": null,
    "address_3": null,
    "city": "Madison",
    "state_province": "Wisconsin",
    "postal_code": "53704",
    "country": "United States",
    "longitude": -89.3040968,
    "latitude": 43.1283021,
    "phone": "5122442739",
    "website_url": "https://www.flixbrewhouse.com",
    "state": "Wisconsin",
    "street": "85 East Towne Mall"
  },
  {
    "id": "73c24a7a-a78f-4958-93b0-ff937ab9bf37",
    "name": "Floating Bridge Brewing",
    "brewery_type": "micro",
    "address_1": "722 NE 45th St",
    "address_2": null,
    "address_3": null,
    "city": "Seattle",
    "state_province": "Washington",
    "postal_code": "98105-4719",
    "country": "United States",
    "longitude": -122.3198017,
    "latitude": 47.6615295,
    "phone": "2064664784",
    "website_url": "http://www.floatingbridgebrewing.com",
    "state": "Washington",
    "street": "722 NE 45th St"
  },
  {
    "id": "208f5a9e-de1f-4af8-a959-49ee229284d0",
    "name": "Floodland Brewing",
    "brewery_type": "micro",
    "address_1": "3806 Woodland Park Ave North Suite 100",
    "address_2": null,
    "address_3": null,
    "city": "Seattle",
    "state_province": "Washington",
    "postal_code": "98103",
    "country": "United States",
    "longitude": null,
    "latitude": null,
    "phone": "2064862854",
    "website_url": "http://www.floodlandbrewing.com",
    "state": "Washington",
    "street": "3806 Woodland Park Ave North Suite 100"
  },
  {
    "id": "40b4dc42-bfdc-42a7-b225-7046aa6e1648",
    "name": "Floodstage Ale Works",
    "brewery_type": "brewpub",
    "address_1": "170 S Main St",
    "address_2": null,
    "address_3": null,
    "city": "Brighton",
    "state_province": "Colorado",
    "postal_code": "80601-1611",
    "country": "United States",
    "longitude": -104.8221009,
    "latitude": 39.98456564,
    "phone": "3036547972",
    "website_url": "http://www.floodstagealeworks.com",
    "state": "Colorado",
    "street": "170 S Main St"
  },
  {
    "id": "919330f5-af85-4dee-9277-d0189c3cc480",
    "name": "Florence Brewing Company",
    "brewery_type": "micro",
    "address_1": "200 S Pikes Peak Ave",
    "address_2": null,
    "address_3": null,
    "city": "Florence",
    "state_province": "Colorado",
    "postal_code": "81226-1433",
    "country": "United States",
    "longitude": -105.1177755,
    "latitude": 38.3899222,
    "phone": "7197847441",
    "website_url": "http://www.florencebrewing.com",
    "state": "Colorado",
    "street": "200 S Pikes Peak Ave"
  },
  {
    "id": "fc1a8b7d-4870-408a-8810-3dd7720df531",
    "name": "Floribunda",
    "brewery_type": "nano",
    "address_1": "Via Aldo Moro 2",
    "address_2": null,
    "address_3": null,
    "city": "Salorno",
    "state_province": "Bolzano",
    "postal_code": "39040",
    "country": "Italy",
    "longitude": 46.243380019706,
    "latitude": 11.215853689067,
    "phone": "+39 334 1449 150",
    "website_url": "https://www.floribunda.it/",
    "state": "Bolzano",
    "street": "Via Aldo Moro 2"
  },
  {
    "id": "4748ee56-1199-47ee-87c2-2d9d9250885f",
    "name": "Florida Beer Co",
    "brewery_type": "regional",
    "address_1": "200 Imperial Blvd",
    "address_2": null,
    "address_3": null,
    "city": "Cape Canaveral",
    "state_province": "Florida",
    "postal_code": "32920-4245",
    "country": "United States",
    "longitude": -80.611259,
    "latitude": 28.398461,
    "phone": "3217284114",
    "website_url": "http://www.floridabeer.com",
    "state": "Florida",
    "street": "200 Imperial Blvd"
  },
  {
    "id": "3f4ffaca-b98e-4ebf-b3f2-35b218ad9f51",
    "name": "Florida Keys Brewing Co.",
    "brewery_type": "micro",
    "address_1": null,
    "address_2": null,
    "address_3": null,
    "city": "Islamorada",
    "state_province": "Florida",
    "postal_code": "33036",
    "country": "United States",
    "longitude": null,
    "latitude": null,
    "phone": null,
    "website_url": "http://www.floridakeysbrewingco.com",
    "state": "Florida",
    "street": null
  },
  {
    "id": "01018209-3f1d-45f1-8848-a8d116f6884d",
    "name": "Flossmoor Station Brewing Co",
    "brewery_type": "brewpub",
    "address_1": "1035 Sterling Ave",
    "address_2": null,
    "address_3": null,
    "city": "Flossmoor",
    "state_province": "Illinois",
    "postal_code": "60422-1252",
    "country": "United States",
    "longitude": -87.67869465,
    "latitude": 41.54338855,
    "phone": "7089572739",
    "website_url": "http://www.flossmoorstation.com",
    "state": "Illinois",
    "street": "1035 Sterling Ave"
  },
  {
    "id": "27954ed4-72d5-47b8-8a2e-c88cc428cc6f",
    "name": "Flounder Brewing Co",
    "brewery_type": "micro",
    "address_1": "1 Ilene Ct Ste 8 Ste 16",
    "address_2": null,
    "address_3": null,
    "city": "Hillsborough",
    "state_province": "New Jersey",
    "postal_code": "08844-1916",
    "country": "United States",
    "longitude": null,
    "latitude": null,
    "phone": "9083966166",
    "website_url": "http://www.flounderbrewing.com",
    "state": "New Jersey",
    "street": "1 Ilene Ct Ste 8 Ste 16"
  },
  {
    "id": "524c2b94-6f03-405e-86e8-6331c55b2775",
    "name": "Floyd County Brewing Company",
    "brewery_type": "brewpub",
    "address_1": "129 W Main St",
    "address_2": null,
    "address_3": null,
    "city": "New Albany",
    "state_province": "Indiana",
    "postal_code": "47150-5958",
    "country": "United States",
    "longitude": -85.82429754,
    "latitude": 38.28289885,
    "phone": "4705882337",
    "website_url": "http://www.floydcountybrewing.com",
    "state": "Indiana",
    "street": "129 W Main St"
  }
]