[
  {
    "id": "95a61dd8-6e66-4fec-994f-f239441ea385",
    "name": "Hoops Brewing",
    "brewery_type": "micro",
    "address_1": "325 S Lake Ave # 110",
    "address_2": null,
    "address_3": null,
    "city": "Duluth",
    "state_province": "Minnesota",
    "postal_code": "55802-2305",
    "country": "United States",
    "longitude": -92.0960811,
    "latitude": 46.78348776,
    "phone": "2186061666",
    "website_url": "http://www.hoopsbrewing.com",
    "state": "Minnesota",
    "street": "325 S Lake Ave # 110"
  },
  {
    "id": "c4ce5349-c572-4c37-99a6-e670199d46bf",
    "name": "HOOTS Beer Co.",
    "brewery_type": "micro",
    "address_1": "840 Mill Works St",
    "address_2": null,
    "address_3": null,
    "city": "Winston Salem",
    "state_province": "North Carolina",
    "postal_code": "27101-1243",
    "country": "United States",
    "longitude": null,
    "latitude": null,
    "phone": "3366086026",
    "website_url": "http://www.hootspublic.com",
    "state": "North Carolina",
    "street": "840 Mill Works St"
  },
  {
    "id": "57f24b40-a0cc-4a68-b82f-97b0767f6aa7",
    "name": "Hop & Barrel Brewing Company LLC",
    "brewery_type": "micro",
    "address_1": "310 2nd St",
    "address_2": null,
    "address_3": null,
    "city": "Hudson",
    "state_province": "Wisconsin",
    "postal_code": "54016-1508",
    "country": "United States",
    "longitude": -92.75667116,
    "latitude": 44.97329671,
    "phone": "6517959439",
    "website_url": "http://www.hopandbarrelbrewing.com",
    "state": "Wisconsin",
    "street": "310 2nd St"
  },
  {
    "id": "49af830b-8e3c-456a-8557-504c1ccea48b",
    "name": "Hop And Sting Brewing Company",
    "brewery_type": "micro",
    "address_1": "2405 Squire Pl Ste 200",
    "address_2": null,
    "address_3": null,
    "city": "Farmers Branch",
    "state_province": "Texas",
    "postal_code": "75234-4714",
    "country": "United States",
    "longitude": -96.89883128,
    "latitude": 32.93044336,
    "phone": "6828889614",
    "website_url": "http://www.hopandsting.com",
    "state": "Texas",
    "street": "2405 Squire Pl Ste 200"
  },
  {
    "id": "b7d9a7e5-45c2-481f-a606-d0e3d579fb50",
    "name": "Hop Barn Brewing",
    "brewery_type": "micro",
    "address_1": "94 Maple Ave",
    "address_2": null,
    "address_3": null,
    "city": "Greenville",
    "state_province": "New York",
    "postal_code": "12083-3311",
    "country": "United States",
    "longitude": -74.05510817,
    "latitude": 42.42134333,
    "phone": "5189564762",
    "website_url": "http://hopbarnbrewing.com",
    "state": "New York",
    "street": "94 Maple Ave"
  },
  {
    "id": "23fe0267-5f98-4f0e-b86e-cfb9740ce9b3",
    "name": "Hop Butcher For the World",
    "brewery_type": "micro",
    "address_1": "1000 N Frontage Rd Ste C",
    "address_2": null,
    "address_3": null,
    "city": "Darien",
    "state_province": "Illinois",
    "postal_code": "60561-6448",
    "country": "United States",
    "longitude": null,
    "latitude": null,
    "phone": null,
    "website_url": "http://www.hopbutcher.com",
    "state": "Illinois",
    "street": "1000 N Frontage Rd Ste C"
  },
  {
    "id": "8e9415ac-0125-48ab-a575-0323b0e8c0f1",
    "name": "HOP Central Brewery and Taproom",
    "brewery_type": "micro",
    "address_1": "5055 W Ray Rd Ste 2",
    "address_2": null,
    "address_3": null,
    "city": "Chandler",
    "state_province": "Arizona",
    "postal_code": "85226-6111",
    "country": "United States",
    "longitude": null,
    "latitude": null,
    "phone": "6026971494",
    "website_url": "http://www.hopcentraltaproom.com",
    "state": "Arizona",
    "street": "5055 W Ray Rd Ste 2"
  },
  {
    "id": "8b907fd1-b55f-44e8-a9c0-04563f809a81",
    "name": "Hop Creek Pub",
    "brewery_type": "brewpub",
    "address_1": "3253 Browns Valley Rd",
    "address_2": null,
    "address_3": null,
    "city": "Napa",
    "state_province": "California",
    "postal_code": "94558-5424",
    "country": "United States",
    "longitude": -122.328868,
    "latitude": 38.3041333,
    "phone": "7072577708",
    "website_url": "http://www.hopcreekpub.com",
    "state": "California",
    "street": "3253 Browns Valley Rd"
  },
  {
    "id": "b1d29f8f-ee48-4a51-9460-01bdd6485e48",
    "name": "Hop Cycle Brewing Company",
    "brewery_type": "brewpub",
    "address_1": "13965 NW Main St",
    "address_2": null,
    "address_3": null,
    "city": "Banks",
    "state_province": "Oregon",
    "postal_code": "97106-9213",
    "country": "United States",
    "longitude": -123.1145847,
    "latitude": 45.62137327,
    "phone": "5032770997",
    "website_url": "http://www.hopcyclebrewing.com",
    "state": "Oregon",
    "street": "13965 NW Main St"
  },
  {
    "id": "36b10736-7d32-4ff4-bb48-93297fb2603d",
    "name": "Hop Dogma Brewing Company",
    "brewery_type": "micro",
    "address_1": "270 Capistrano Rd #22",
    "address_2": null,
    "address_3": null,
    "city": "Half Moon Bay",
    "state_province": "California",
    "postal_code": "94019",
    "country": "United States",
    "longitude": -122.4831514,
    "latitude": 37.50465917,
    "phone": "6505608729",
    "website_url": "http://www.hopdogma.com",
    "state": "California",
    "street": "270 Capistrano Rd #22"
  },
  {
    "id": "585ef4d8-012b-40ce-b5a9-b1573984d629",
    "name": "Hop Farm Brewing Co",
    "brewery_type": "micro",
    "address_1": "5601 Butler St",
    "address_2": null,
    "address_3": null,
    "city": "Pittsburgh",
    "state_province": "Pennsylvania",
    "postal_code": "15201-2326",
    "country": "United States",
    "longitude": -79.9224894,
    "latitude": 40.4884044,
    "phone": null,
    "website_url": null,
    "state": "Pennsylvania",
    "street": "5601 Butler St"
  },
  {
    "id": "0971ac37-3c31-494d-816b-14c1b503d649",
    "name": "Hop Garden Brewing",
    "brewery_type": "contract",
    "address_1": "N8668 County Road D",
    "address_2": null,
    "address_3": null,
    "city": "Belleville",
    "state_province": "Wisconsin",
    "postal_code": "53508-9626",
    "country": "United States",
    "longitude": null,
    "latitude": null,
    "phone": "6085169649",
    "website_url": "http://www.thehopgarden.net",
    "state": "Wisconsin",
    "street": "N8668 County Road D"
  },
  {
    "id": "c18babf8-a7fa-48d1-97eb-d78671e0284e",
    "name": "Hop Haus Brewing Co",
    "brewery_type": "brewpub",
    "address_1": "231 S Main St",
    "address_2": null,
    "address_3": null,
    "city": "Verona",
    "state_province": "Wisconsin",
    "postal_code": "53593-1470",
    "country": "United States",
    "longitude": -89.53353021,
    "latitude": 42.98803486,
    "phone": "6084973165",
    "website_url": "http://www.hophausbrewing.com",
    "state": "Wisconsin",
    "street": "231 S Main St"
  },
  {
    "id": "ff207d8f-3e3f-4e00-b29e-316b89314d2c",
    "name": "Hop Head Farms Brewing, LLC",
    "brewery_type": "planning",
    "address_1": null,
    "address_2": null,
    "address_3": null,
    "city": "Baroda",
    "state_province": "Michigan",
    "postal_code": "49101-9351",
    "country": "United States",
    "longitude": null,
    "latitude": null,
    "phone": null,
    "website_url": null,
    "state": "Michigan",
    "street": null
  },
  {
    "id": "f19a1d1c-5c2b-4da1-91c4-7a5a3a816e9f",
    "name": "Hop Hill Brewing Company",
    "brewery_type": "micro",
    "address_1": "1988 Blair Ave",
    "address_2": null,
    "address_3": null,
    "city": "Bethlehem",
    "state_province": "Pennsylvania",
    "postal_code": "18015-5307",
    "country": "United States",
    "longitude": null,
    "latitude": null,
    "phone": "4848930767",
    "website_url": "http://www.hophillbeer.com",
    "state": "Pennsylvania",
    "street": "1988 Blair Ave"
  },
  {
    "id": "afc8e516-fcfa-4911-918b-176ff208914e",
    "name": "Hop Lot Brewing Co.",
    "brewery_type": "brewpub",
    "address_1": "658 S West Bay Shore Dr",
    "address_2": null,
    "address_3": null,
    "city": "Suttons Bay",
    "state_province": "Michigan",
    "postal_code": "49682-9587",
    "country": "United States",
    "longitude": null,
    "latitude": null,
    "phone": "2318664445",
    "website_url": "http://www.hoplotbrewing.com",
    "state": "Michigan",
    "street": "658 S West Bay Shore Dr"
  },
  {
    "id": "52ff8b56-bde5-4647-b678-0337dd27f070",
    "name": "Hop N' Keg Brewery / The Quarry Steakhouse and Brewpub",
    "brewery_type": "brewpub",
    "address_1": "29 S Vernal Ave",
    "address_2": null,
    "address_3": null,
    "city": "Vernal",
    "state_province": "Utah",
    "postal_code": "84078-2627",
    "country": "United States",
    "longitude": -109.5281478,
    "latitude": 40.4552593,
    "phone": "4357892337",
    "website_url": null,
    "state": "Utah",
    "street": "29 S Vernal Ave"
  },
  {
    "id": "db9c3f9b-48fb-43c2-9a29-26624d6c8ec4",
    "name": "Hop Nation Brewing Company",
    "brewery_type": "micro",
    "address_1": "31 N 1st Ave",
    "address_2": null,
    "address_3": null,
    "city": "Yakima",
    "state_province": "Washington",
    "postal_code": "98902-2663",
    "country": "United States",
    "longitude": -120.5097321,
    "latitude": 46.6018934,
    "phone": "5099856449",
    "website_url": "http://www.hopnation.us",
    "state": "Washington",
    "street": "31 N 1st Ave"
  },
  {
    "id": "ab9479f2-8245-4847-880a-f7d72512d60a",
    "name": "Hop Nuts Brewing",
    "brewery_type": "micro",
    "address_1": "1120 S Main St Ste 150",
    "address_2": null,
    "address_3": null,
    "city": "Las Vegas",
    "state_province": "Nevada",
    "postal_code": "89104-1080",
    "country": "United States",
    "longitude": null,
    "latitude": null,
    "phone": "7028165371",
    "website_url": "http://www.hopnutsbrewing.com",
    "state": "Nevada",
    "street": "1120 S Main St Ste 150"
  },
  {
    "id": "6c7c38ab-4ed5-4939-8506-36b430a24df5",
    "name": "Hop Quest Brewing Company",
    "brewery_type": "planning",
    "address_1": null,
    "address_2": null,
    "address_3": null,
    "city": "Wheatfield",
    "state_province": "Indiana",
    "postal_code": "46392",
    "country": "United States",
    "longitude": null,
    "latitude": null,
    "phone": "2198636393",
    "website_url": null,
    "state": "Indiana",
    "street": null
  },
  {
    "id": "e24e5a6e-9ca9-4d47-84b8-9c8592f432b1",
    "name": "Hop River Brewing Company",
    "brewery_type": "micro",
    "address_1": "1515 N Harrison St",
    "address_2": null,
    "address_3": null,
    "city": "Fort Wayne",
    "state_province": "Indiana",
    "postal_code": "46808-2729",
    "country": "United States",
    "longitude": -85.1434574,
    "latitude": 41.0882767,
    "phone": null,
    "website_url": "http://www.hopriverbrewing.com",
    "state": "Indiana",
    "street": "1515 N Harrison St"
  },
  {
    "id": "6a848ef1-0920-4bf6-b521-a9fcf277c8ca",
    "name": "Hop Secret Brewing Co",
    "brewery_type": "micro",
    "address_1": "162 W Pomona Ave",
    "address_2": null,
    "address_3": null,
    "city": "Monrovia",
    "state_province": "California",
    "postal_code": "91016-4558",
    "country": "United States",
    "longitude": -118.001973,
    "latitude": 34.134155,
    "phone": null,
    "website_url": "http://www.hopsecretbrewing.com",
    "state": "California",
    "street": "162 W Pomona Ave"
  },
  {
    "id": "393fa5cb-5e38-4984-b411-f76bc6865356",
    "name": "Hop Soul Brewery",
    "brewery_type": "planning",
    "address_1": null,
    "address_2": null,
    "address_3": null,
    "city": "Brunswick",
    "state_province": "Georgia",
    "postal_code": "31520",
    "country": "United States",
    "longitude": null,
    "latitude": null,
    "phone": null,
    "website_url": "http://www.hopsoulbrewery.com",
    "state": "Georgia",
    "street": null
  },
  {
    "id": "75dc420d-0a24-4537-b29b-07b09f168bce",
    "name": "Hop Tree Brewing Company Ltd",
    "brewery_type": "brewpub",
    "address_1": "1297 Hudson Gate Dr",
    "address_2": null,
    "address_3": null,
    "city": "Hudson",
    "state_province": "Ohio",
    "postal_code": "44236-3764",
    "country": "United States",
    "longitude": -81.44518205,
    "latitude": 41.20893905,
    "phone": "3303420060",
    "website_url": "http://www.hoptreebrewing.com",
    "state": "Ohio",
    "street": "1297 Hudson Gate Dr"
  },
  {
    "id": "cba10f55-3b05-43ef-86d6-6dba4cb4b7af",
    "name": "Hop Valley Brewing Co",
    "brewery_type": "large",
    "address_1": "990 W 1st Ave",
    "address_2": null,
    "address_3": null,
    "city": "Eugene",
    "state_province": "Oregon",
    "postal_code": "97402-4904",
    "country": "United States",
    "longitude": -123.1074506,
    "latitude": 44.05820645,
    "phone": null,
    "website_url": null,
    "state": "Oregon",
    "street": "990 W 1st Ave"
  },
  {
    "id": "5dcaadf3-ae3f-408a-9d52-fdfaf428c747",
    "name": "Hop Valley Brewing Co",
    "brewery_type": "large",
    "address_1": "980 Kruse Way",
    "address_2": null,
    "address_3": null,
    "city": "Springfield",
    "state_province": "Oregon",
    "postal_code": "97477-1073",
    "country": "United States",
    "longitude": -123.0399796,
    "latitude": 44.08270624,
    "phone": "5417443330",
    "website_url": "http://www.hopvalleybrewing.com",
    "state": "Oregon",
    "street": "980 Kruse Way"
  },
  {
    "id": "5d061fd0-cdd3-4dc6-8631-9bbb35aed139",
    "name": "Hop'n Moose Brewing Company",
    "brewery_type": "brewpub",
    "address_1": "41 Center St",
    "address_2": null,
    "address_3": null,
    "city": "Rutland",
    "state_province": "Vermont",
    "postal_code": "05701-4016",
    "country": "United States",
    "longitude": -72.97743,
    "latitude": 43.606783,
    "phone": "8027757063",
    "website_url": "http://www.hopnmoose.com",
    "state": "Vermont",
    "street": "41 Center St"
  },
  {
    "id": "d9bc1bbe-06ea-42a8-bf8c-9b0f44e0a4a3",
    "name": "Hoparazzi Brewing Co",
    "brewery_type": "closed",
    "address_1": "2910 E La Palma Ave Ste D",
    "address_2": null,
    "address_3": null,
    "city": "Anaheim",
    "state_province": "California",
    "postal_code": "92806-2618",
    "country": "United States",
    "longitude": -117.8636661,
    "latitude": 33.84931338,
    "phone": null,
    "website_url": null,
    "state": "California",
    "street": "2910 E La Palma Ave Ste D"
  },
  {
    "id": "6b30dd4f-8617-411a-87c7-d6feb2239201",
    "name": "Hopcat",
    "brewery_type": "brewpub",
    "address_1": "25 Ionia Ave SW Ste 100",
    "address_2": null,
    "address_3": null,
    "city": "Grand Rapids",
    "state_province": "Michigan",
    "postal_code": "49503-4179",
    "country": "United States",
    "longitude": null,
    "latitude": null,
    "phone": "6164514677",
    "website_url": "http://www.hopcat.com",
    "state": "Michigan",
    "street": "25 Ionia Ave SW Ste 100"
  },
  {
    "id": "80000ed5-15a3-4fe0-819b-c0304647ea54",
    "name": "Hopcat - Louisville",
    "brewery_type": "brewpub",
    "address_1": "1064 Bardstown Rd.",
    "address_2": null,
    "address_3": null,
    "city": "Louisville",
    "state_province": "Kentucky",
    "postal_code": "40204",
    "country": "United States",
    "longitude": -85.7217319,
    "latitude": 38.2385242,
    "phone": "5028908676",
    "website_url": null,
    "state": "Kentucky",
    "street": "1064 Bardstown Rd."
  },
  {
    "id": "d79cd8ec-6144-4b10-b096-6ad985063cde",
    "name": "Hope Craft Brewery",
    "brewery_type": "micro",
    "address_1": "Unit 1 Howth Junction Business Park",
    "address_2": "Kilbarrack Road",
    "address_3": "Kilbarrack",
    "city": "Dublin",
    "state_province": "Dublin",
    "postal_code": "D05 H2K2",
    "country": "Ireland",
    "longitude": -6.1569422,
    "latitude": 53.3902607,
    "phone": "353874562669",
    "website_url": "https://hopebeer.ie/",
    "state": "Dublin",
    "street": "Unit 1 Howth Junction Business Park"
  },
  {
    "id": "0e74966f-2dd7-422f-92b1-e04e71ea842d",
    "name": "Hopewell Brewing Co",
    "brewery_type": "micro",
    "address_1": "2760 N Milwaukee Ave",
    "address_2": null,
    "address_3": null,
    "city": "Chicago",
    "state_province": "Illinois",
    "postal_code": "60647-1337",
    "country": "United States",
    "longitude": -87.7878762,
    "latitude": 41.9973481,
    "phone": "7736986178",
    "website_url": "http://www.hopewellbrewing.com",
    "state": "Illinois",
    "street": "2760 N Milwaukee Ave"
  },
  {
    "id": "3a149c58-99fe-45f5-a1ac-9e0aeb9723fa",
    "name": "HopFly Brewing Company",
    "brewery_type": "micro",
    "address_1": "1147 Falls Rd Suite 121",
    "address_2": null,
    "address_3": null,
    "city": "Rocky Mount",
    "state_province": "North Carolina",
    "postal_code": "27804",
    "country": "United States",
    "longitude": null,
    "latitude": null,
    "phone": null,
    "website_url": null,
    "state": "North Carolina",
    "street": "1147 Falls Rd Suite 121"
  },
  {
    "id": "82f24897-257c-4df6-a629-cea41dce160b",
    "name": "Hopfusion Ale Works",
    "brewery_type": "micro",
    "address_1": "200 E Broadway Ave",
    "address_2": null,
    "address_3": null,
    "city": "Fort Worth",
    "state_province": "Texas",
    "postal_code": "76104-1302",
    "country": "United States",
    "longitude": -97.324895,
    "latitude": 32.741719,
    "phone": "6828411721",
    "website_url": "http://www.hopfusionaleworks.com",
    "state": "Texas",
    "street": "200 E Broadway Ave"
  },
  {
    "id": "b7a5691c-56ec-4011-8bec-2f121a7be1ae",
    "name": "Hopkins Brewing Company",
    "brewery_type": "brewpub",
    "address_1": "1048 E 2100 S",
    "address_2": null,
    "address_3": null,
    "city": "Salt Lake City",
    "state_province": "Utah",
    "postal_code": "84106",
    "country": "United States",
    "longitude": -111.8609503,
    "latitude": 40.7250545,
    "phone": "3855283275",
    "website_url": "https://www.hopkinsbrewingcompany.com",
    "state": "Utah",
    "street": "1048 E 2100 S"
  },
  {
    "id": "14337c32-53a0-4266-b7c1-461c51261dab",
    "name": "Hopkins Ordinary Ale Works",
    "brewery_type": "micro",
    "address_1": "47 Main St",
    "address_2": null,
    "address_3": null,
    "city": "Sperryville",
    "state_province": "Virginia",
    "postal_code": "22740-",
    "country": "United States",
    "longitude": -78.227195,
    "latitude": 38.65781167,
    "phone": "5409873383",
    "website_url": "http://www.hopkinsordinary.com",
    "state": "Virginia",
    "street": "47 Main St"
  },
  {
    "id": "0391fc81-48a4-445a-bf49-ad447172bc0a",
    "name": "Hopkinsville Brewing Company",
    "brewery_type": "micro",
    "address_1": "102 E 5th St",
    "address_2": null,
    "address_3": null,
    "city": "Hopkinsville",
    "state_province": "Kentucky",
    "postal_code": "42240-3306",
    "country": "United States",
    "longitude": -87.48735745,
    "latitude": 36.86749436,
    "phone": "2703483927",
    "website_url": "http://www.hopkinsvillebrewingcompany.com",
    "state": "Kentucky",
    "street": "102 E 5th St"
  },
  {
    "id": "98818832-60ab-466d-b0b9-578677d6fc5e",
    "name": "HopLife Brewing Company",
    "brewery_type": "micro",
    "address_1": "679 NW Enterprise Dr",
    "address_2": null,
    "address_3": null,
    "city": "Port Saint Lucie",
    "state_province": "Florida",
    "postal_code": "34986-2253",
    "country": "United States",
    "longitude": -80.40865001,
    "latitude": 27.3298823,
    "phone": "7725280037",
    "website_url": null,
    "state": "Florida",
    "street": "679 NW Enterprise Dr"
  },
  {
    "id": "d357d621-bbbc-4007-a5a3-b9bf6fb5f176",
    "name": "Hopped And Brewed",
    "brewery_type": "planning",
    "address_1": null,
    "address_2": null,
    "address_3": null,
    "city": "Austin",
    "state_province": "Texas",
    "postal_code": "78681-7333",
    "country": "United States",
    "longitude": null,
    "latitude": null,
    "phone": "5129225879",
    "website_url": "http://Hoppedandbrewed@gmail.com",
    "state": "Texas",
    "street": null
  },
  {
    "id": "f8ac7038-8f93-4496-af76-5bb647c3bfb7",
    "name": "Hopped Up Brewing Company",
    "brewery_type": "closed",
    "address_1": "10421 E Sprague Ave",
    "address_2": null,
    "address_3": null,
    "city": "Spokane",
    "state_province": "Washington",
    "postal_code": "99206-3629",
    "country": "United States",
    "longitude": -117.2178526,
    "latitude": 47.6571208,
    "phone": "5094132488",
    "website_url": "http://www.hoppedupbrew.com",
    "state": "Washington",
    "street": "10421 E Sprague Ave"
  },
  {
    "id": "09487d47-0218-4742-8172-a9f44a9c6f01",
    "name": "Hoppers Grill and Brewing Co",
    "brewery_type": "brewpub",
    "address_1": "890 E Fort Union Blvd",
    "address_2": null,
    "address_3": null,
    "city": "Midvale",
    "state_province": "Utah",
    "postal_code": "84047-1745",
    "country": "United States",
    "longitude": -111.8663362,
    "latitude": 40.62210005,
    "phone": "8015660424",
    "website_url": "http://www.hoppersbrewpub.com",
    "state": "Utah",
    "street": "890 E Fort Union Blvd"
  },
  {
    "id": "053d96fd-337c-4d7d-9a18-2ed997b4f6b5",
    "name": "Hoppin' Frog Brewing Co",
    "brewery_type": "micro",
    "address_1": "1680 E Waterloo Rd Ste F",
    "address_2": null,
    "address_3": null,
    "city": "Akron",
    "state_province": "Ohio",
    "postal_code": "44306-4523",
    "country": "United States",
    "longitude": null,
    "latitude": null,
    "phone": null,
    "website_url": "http://www.hoppinfrog.com",
    "state": "Ohio",
    "street": "1680 E Waterloo Rd Ste F"
  },
  {
    "id": "b11b2594-f5ba-4586-9b45-fe81be3af157",
    "name": "Hopping Gnome Brewing Company",
    "brewery_type": "micro",
    "address_1": "1710 E Douglas Ave",
    "address_2": null,
    "address_3": null,
    "city": "Wichita",
    "state_province": "Kansas",
    "postal_code": "67214-4212",
    "country": "United States",
    "longitude": -97.3335112,
    "latitude": 37.6860464,
    "phone": null,
    "website_url": "http://www.hoppinggnome.com",
    "state": "Kansas",
    "street": "1710 E Douglas Ave"
  },
  {
    "id": "19f2790e-12d0-4ff1-aa5b-e029111e1541",
    "name": "Hoppy Brewing Co",
    "brewery_type": "brewpub",
    "address_1": "2425 24th St",
    "address_2": null,
    "address_3": null,
    "city": "Sacramento",
    "state_province": "California",
    "postal_code": "95819-4619",
    "country": "United States",
    "longitude": -121.4812078,
    "latitude": 38.55962229,
    "phone": "9164514677",
    "website_url": "http://www.hoppy.com",
    "state": "California",
    "street": "2425 24th St"
  },
  {
    "id": "9724e0dd-bda2-4375-8baa-c2a83e33eca0",
    "name": "Hoppy Trout Brewing Company",
    "brewery_type": "brewpub",
    "address_1": "911 Main St",
    "address_2": null,
    "address_3": null,
    "city": "Andrews",
    "state_province": "North Carolina",
    "postal_code": "28901-7087",
    "country": "United States",
    "longitude": -83.8165709,
    "latitude": 35.2016188,
    "phone": "8288352111",
    "website_url": "http://www.hoppytroutbrewing.com",
    "state": "North Carolina",
    "street": "911 Main St"
  },
  {
    "id": "de52f2b1-2821-4958-937c-37296e25fcf2",
    "name": "Hops & Grain Brewing",
    "brewery_type": "micro",
    "address_1": "507 Calles St Ste 101",
    "address_2": null,
    "address_3": null,
    "city": "Austin",
    "state_province": "Texas",
    "postal_code": "78702-3954",
    "country": "United States",
    "longitude": null,
    "latitude": null,
    "phone": "5129142467",
    "website_url": "http://www.hopsandgrain.com",
    "state": "Texas",
    "street": "507 Calles St Ste 101"
  },
  {
    "id": "ca201290-5cfa-4b87-8231-e7cc86672895",
    "name": "Hops and Growlers",
    "brewery_type": "micro",
    "address_1": "2339 Government St",
    "address_2": null,
    "address_3": null,
    "city": "Ocean Springs",
    "state_province": "Mississippi",
    "postal_code": "39564",
    "country": "United States",
    "longitude": -88.8090062,
    "latitude": 30.41364785,
    "phone": "2283345585",
    "website_url": "http://www.hopsandgrowlers.com",
    "state": "Mississippi",
    "street": "2339 Government St"
  },
  {
    "id": "5e1386c5-7e61-4b0c-b169-1cab682478c6",
    "name": "Hops and Leisure",
    "brewery_type": "contract",
    "address_1": "1225 Robruck Dr # A",
    "address_2": null,
    "address_3": null,
    "city": "Oconomowoc",
    "state_province": "Wisconsin",
    "postal_code": "53066-4446",
    "country": "United States",
    "longitude": -88.4785191,
    "latitude": 43.09224436,
    "phone": "2625678536",
    "website_url": "http://www.hopsandleisure.com",
    "state": "Wisconsin",
    "street": "1225 Robruck Dr # A"
  },
  {
    "id": "2f0b4ff8-1d26-4449-b278-e34df9e7aecb",
    "name": "Hops and Pops",
    "brewery_type": "planning",
    "address_1": null,
    "address_2": null,
    "address_3": null,
    "city": "Middleburg",
    "state_province": "Virginia",
    "postal_code": "20117",
    "country": "United States",
    "longitude": null,
    "latitude": null,
    "phone": "5406876539",
    "website_url": null,
    "state": "Virginia",
    "street": null
  },
  {
    "id": "b7b10f9b-f5e3-444b-94b3-05d9357ac15d",
    "name": "Hops Brewery",
    "brewery_type": "brewpub",
    "address_1": "3507 Central Ave NE",
    "address_2": null,
    "address_3": null,
    "city": "Albuquerque",
    "state_province": "New Mexico",
    "postal_code": "87106",
    "country": "United States",
    "longitude": -106.6053016,
    "latitude": 35.0800564,
    "phone": "5053691378",
    "website_url": null,
    "state": "New Mexico",
    "street": "3507 Central Ave NE"
  }
]