[
  {
    "id": "07411ff4-acb5-43d5-a079-9541b41d9793",
    "name": "Ravenna Brewing Company",
    "brewery_type": "micro",
    "address_1": "5408 26th Ave NE",
    "address_2": null,
    "address_3": null,
    "city": "Seattle",
    "state_province": "Washington",
    "postal_code": "98105-3137",
    "country": "United States",
    "longitude": -122.299162,
    "latitude": 47.6682272,
    "phone": "2067438450",
    "website_url": "http://www.ravennabrewing.com",
    "state": "Washington",
    "street": "5408 26th Ave NE"
  },
  {
    "id": "f1f6a6cd-33f5-4675-9d9d-21ed6c823eab",
    "name": "Ravenous Brewing Company",
    "brewery_type": "micro",
    "address_1": "10 Industrial Rd",
    "address_2": null,
    "address_3": null,
    "city": "Cumberland",
    "state_province": "Rhode Island",
    "postal_code": "02864",
    "country": "United States",
    "longitude": -71.401044,
    "latitude": 41.953531,
    "phone": "4012165331",
    "website_url": "http://www.ravenousbrew.com",
    "state": "Rhode Island",
    "street": "10 Industrial Rd"
  },
  {
    "id": "1ffcb6b0-1702-4b14-ad9a-6d1342719fd7",
    "name": "Ravinia Brewing Company",
    "brewery_type": "proprietor",
    "address_1": "957 Judson Ave",
    "address_2": null,
    "address_3": null,
    "city": "Highland Park",
    "state_province": "Illinois",
    "postal_code": "60035-4728",
    "country": "United States",
    "longitude": -87.784735,
    "latitude": 42.169955,
    "phone": "8472178403",
    "website_url": "http://www.raviniabrewing.com",
    "state": "Illinois",
    "street": "957 Judson Ave"
  },
  {
    "id": "e7e2bd8c-995b-4268-bb5b-4b733127b9f0",
    "name": "Raw Deal",
    "brewery_type": "brewpub",
    "address_1": "603 Broadway St S",
    "address_2": null,
    "address_3": null,
    "city": "Menomonie",
    "state_province": "Wisconsin",
    "postal_code": "54751-2457",
    "country": "United States",
    "longitude": -91.9298545,
    "latitude": 44.8773142,
    "phone": "7152313255",
    "website_url": "http://www.rawdealwi.weebly.com",
    "state": "Wisconsin",
    "street": "603 Broadway St S"
  },
  {
    "id": "471962d2-01aa-46e4-aea7-fa635a2ae107",
    "name": "Reach Break Brewing",
    "brewery_type": "micro",
    "address_1": "1343 Duane St",
    "address_2": null,
    "address_3": null,
    "city": "Astoria",
    "state_province": "Oregon",
    "postal_code": "97103-3917",
    "country": "United States",
    "longitude": -123.8289931,
    "latitude": 46.18836741,
    "phone": "5034680743",
    "website_url": null,
    "state": "Oregon",
    "street": "1343 Duane St"
  },
  {
    "id": "c960bed4-d36d-4f6c-b41b-c7483f70cece",
    "name": "Reads Landing Brewing Co",
    "brewery_type": "brewpub",
    "address_1": "70555 202nd Ave",
    "address_2": null,
    "address_3": null,
    "city": "Reads Landing",
    "state_province": "Minnesota",
    "postal_code": "55968-6842",
    "country": "United States",
    "longitude": null,
    "latitude": null,
    "phone": "6515604777",
    "website_url": "http://www.rlbrewingco.com",
    "state": "Minnesota",
    "street": "70555 202nd Ave"
  },
  {
    "id": "1f8b4200-5b3d-4b9f-b6a9-e10f29aec438",
    "name": "Real Ale Brewing Co",
    "brewery_type": "regional",
    "address_1": "231 San Saba Ct",
    "address_2": null,
    "address_3": null,
    "city": "Blanco",
    "state_province": "Texas",
    "postal_code": "78606-4810",
    "country": "United States",
    "longitude": -98.4128525,
    "latitude": 30.113319,
    "phone": "8308332534",
    "website_url": "http://www.realalebrewing.com",
    "state": "Texas",
    "street": "231 San Saba Ct"
  },
  {
    "id": "35abe7a1-e899-427e-9aef-57ac4438a30b",
    "name": "Real McCoy Beer Co.",
    "brewery_type": "micro",
    "address_1": "20 Hallwood Rd Unit C",
    "address_2": null,
    "address_3": null,
    "city": "Delmar",
    "state_province": "New York",
    "postal_code": "12054-1925",
    "country": "United States",
    "longitude": null,
    "latitude": null,
    "phone": "5186989082",
    "website_url": "http://www.therealmccoybeerco.com",
    "state": "New York",
    "street": "20 Hallwood Rd Unit C"
  },
  {
    "id": "ad7033af-1756-451e-a858-e5d5f19e701f",
    "name": "Reason Beer",
    "brewery_type": "micro",
    "address_1": "1180 Seminole Trl Ste 290",
    "address_2": null,
    "address_3": null,
    "city": "Charlottesville",
    "state_province": "Virginia",
    "postal_code": "22901-5713",
    "country": "United States",
    "longitude": -78.486033,
    "latitude": 38.06792831,
    "phone": "4342494572",
    "website_url": "http://www.reasonbeer.com",
    "state": "Virginia",
    "street": "1180 Seminole Trl Ste 290"
  },
  {
    "id": "b5a6d620-d22d-4e5a-ab9e-33cc7d66b5a8",
    "name": "Reaver Beach Brewing Co",
    "brewery_type": "micro",
    "address_1": "1505 Taylor Farm Rd",
    "address_2": null,
    "address_3": null,
    "city": "Virginia Beach",
    "state_province": "Virginia",
    "postal_code": "23453-3099",
    "country": "United States",
    "longitude": null,
    "latitude": null,
    "phone": "7575632337",
    "website_url": "http://www.reaverbeach.com",
    "state": "Virginia",
    "street": "1505 Taylor Farm Rd"
  },
  {
    "id": "02ce2fc9-5898-4c7e-a1df-a91100842068",
    "name": "Rebel Kettle Brewing Company",
    "brewery_type": "brewpub",
    "address_1": "822 E 6th St",
    "address_2": null,
    "address_3": null,
    "city": "Little Rock",
    "state_province": "Arkansas",
    "postal_code": "72202-2606",
    "country": "United States",
    "longitude": -92.26209196,
    "latitude": 34.74211127,
    "phone": "5013742791",
    "website_url": "http://www.rebelkettle.com",
    "state": "Arkansas",
    "street": "822 E 6th St"
  },
  {
    "id": "a4e94650-bbd6-45f5-ba67-b59f9ac661d8",
    "name": "Rebel Toad Brewing Co",
    "brewery_type": "micro",
    "address_1": "425 William St",
    "address_2": null,
    "address_3": null,
    "city": "Corpus Christi",
    "state_province": "Texas",
    "postal_code": "78401-2538",
    "country": "United States",
    "longitude": -97.3960541,
    "latitude": 27.7946329,
    "phone": "5122211267",
    "website_url": "http://www.rebeltoadbrewing.com",
    "state": "Texas",
    "street": "425 William St"
  },
  {
    "id": "03fb287c-df2c-4d22-8e9f-2ab34dd74219",
    "name": "Rebelle Brewing",
    "brewery_type": "planning",
    "address_1": null,
    "address_2": null,
    "address_3": null,
    "city": "Noblesville",
    "state_province": "Indiana",
    "postal_code": "46060",
    "country": "United States",
    "longitude": null,
    "latitude": null,
    "phone": null,
    "website_url": null,
    "state": "Indiana",
    "street": null
  },
  {
    "id": "37b81531-269f-4642-b251-ad9bb9d8f441",
    "name": "Recess Brewing",
    "brewery_type": "micro",
    "address_1": "307 N Main St",
    "address_2": null,
    "address_3": null,
    "city": "Edwardsville",
    "state_province": "Illinois",
    "postal_code": "62025-1615",
    "country": "United States",
    "longitude": -89.9590501,
    "latitude": 38.81422443,
    "phone": "6186925101",
    "website_url": "http://www.recessbrewing.com",
    "state": "Illinois",
    "street": "307 N Main St"
  },
  {
    "id": "f0adad3f-a28d-403c-ac19-e4e6cb2bcaa0",
    "name": "Reclaimed Rails Brewing Company",
    "brewery_type": "micro",
    "address_1": "101 Main St. SE",
    "address_2": null,
    "address_3": null,
    "city": "Bondurant",
    "state_province": "Iowa",
    "postal_code": "50035-7722",
    "country": "United States",
    "longitude": -93.461872,
    "latitude": 41.699717,
    "phone": null,
    "website_url": "http://www.reclaimedrailsbrewing.com",
    "state": "Iowa",
    "street": "101 Main St. SE"
  },
  {
    "id": "7e8e9910-3454-4905-a1c2-0b2e5702f195",
    "name": "Reclamation Brewing Company",
    "brewery_type": "brewpub",
    "address_1": "221 S Main St",
    "address_2": null,
    "address_3": null,
    "city": "Butler",
    "state_province": "Pennsylvania",
    "postal_code": "16001-5908",
    "country": "United States",
    "longitude": -79.89543627,
    "latitude": 40.85876516,
    "phone": "7242820831",
    "website_url": "http://www.reclamationbrewing.com",
    "state": "Pennsylvania",
    "street": "221 S Main St"
  },
  {
    "id": "2d146fa4-968d-452b-b925-a4684094d2e8",
    "name": "Recon Brewing",
    "brewery_type": "brewpub",
    "address_1": "1747 N Main St Ext",
    "address_2": null,
    "address_3": null,
    "city": "Butler",
    "state_province": "Pennsylvania",
    "postal_code": "16001-1327",
    "country": "United States",
    "longitude": null,
    "latitude": null,
    "phone": "7242568747",
    "website_url": "http://www.reconbrewing.com",
    "state": "Pennsylvania",
    "street": "1747 N Main St Ext"
  },
  {
    "id": "b4440f12-2d59-4dc7-bdec-19df793f27b4",
    "name": "Rectory Ales Ltd",
    "brewery_type": "micro",
    "address_1": "Streat Hill",
    "address_2": null,
    "address_3": null,
    "city": "Hassocks",
    "state_province": "West Sussex",
    "postal_code": "BN6 8RP",
    "country": "England",
    "longitude": -0.080361,
    "latitude": 50.895782,
    "phone": "1273890570",
    "website_url": null,
    "state": "West Sussex",
    "street": "Streat Hill"
  },
  {
    "id": "ce8288fb-5db6-443d-a55c-4a22d5c9cb2d",
    "name": "Red Barn Brewing",
    "brewery_type": "micro",
    "address_1": "2170 Oneida Rd",
    "address_2": null,
    "address_3": null,
    "city": "Danville",
    "state_province": "Vermont",
    "postal_code": "05828-",
    "country": "United States",
    "longitude": -72.17748576,
    "latitude": 44.39460429,
    "phone": "8026849749",
    "website_url": "http://www.redbarnbrewingvt.com",
    "state": "Vermont",
    "street": "2170 Oneida Rd"
  },
  {
    "id": "80ebf698-3075-4896-b205-cde24a5a2b91",
    "name": "Red Bear Brewing Co",
    "brewery_type": "planning",
    "address_1": null,
    "address_2": null,
    "address_3": null,
    "city": "Washington",
    "state_province": "District of Columbia",
    "postal_code": "20002-3406",
    "country": "United States",
    "longitude": null,
    "latitude": null,
    "phone": "2062997485",
    "website_url": "http://www.redbear.beer",
    "state": "District of Columbia",
    "street": null
  },
  {
    "id": "f8dad557-f4a4-4ca0-ae18-b8b4411ca6ff",
    "name": "Red Bird",
    "brewery_type": "planning",
    "address_1": null,
    "address_2": null,
    "address_3": null,
    "city": "Waltham",
    "state_province": "Massachusetts",
    "postal_code": "02453-5208",
    "country": "United States",
    "longitude": null,
    "latitude": null,
    "phone": "7818915486",
    "website_url": "http://www.redbirdwaltham.com",
    "state": "Massachusetts",
    "street": null
  },
  {
    "id": "cc45c9bd-f7ff-43c4-bb2c-abc7cda31aec",
    "name": "Red Branch Brewing Company / Rabbits Foot Meadery",
    "brewery_type": "micro",
    "address_1": "1246 Birchwood Dr",
    "address_2": null,
    "address_3": null,
    "city": "Sunnyvale",
    "state_province": "California",
    "postal_code": "94089-2205",
    "country": "United States",
    "longitude": -121.9920827,
    "latitude": 37.40446295,
    "phone": "4087470770",
    "website_url": "http://www.redbranchcider.com",
    "state": "California",
    "street": "1246 Birchwood Dr"
  },
  {
    "id": "d658726b-aedc-4e15-be17-ebaec8b162b9",
    "name": "Red Brick Brewing Co / Atlanta Brewing Co",
    "brewery_type": "micro",
    "address_1": "2323 Defoor Hills Rd NW",
    "address_2": null,
    "address_3": null,
    "city": "Atlanta",
    "state_province": "Georgia",
    "postal_code": "30318-2207",
    "country": "United States",
    "longitude": -84.43454138,
    "latitude": 33.81830375,
    "phone": "4043555558",
    "website_url": "http://www.atlantabrewing.com",
    "state": "Georgia",
    "street": "2323 Defoor Hills Rd NW"
  },
  {
    "id": "5379e6e8-6ea8-42eb-83d8-31a290e1420d",
    "name": "Red Bus Brewing Company",
    "brewery_type": "micro",
    "address_1": "802 Reading St Ste A",
    "address_2": null,
    "address_3": null,
    "city": "Folsom",
    "state_province": "California",
    "postal_code": "95630-3061",
    "country": "United States",
    "longitude": -121.1760242,
    "latitude": 38.67092319,
    "phone": "9169857299",
    "website_url": "http://www.redbusbrew.com",
    "state": "California",
    "street": "802 Reading St Ste A"
  },
  {
    "id": "f151a98d-1f85-4cc8-93c1-d58ffaa3f1d0",
    "name": "Red Car Brewery and Restaurant",
    "brewery_type": "brewpub",
    "address_1": "1266 Sartori Ave",
    "address_2": null,
    "address_3": null,
    "city": "Torrance",
    "state_province": "California",
    "postal_code": "90501-2717",
    "country": "United States",
    "longitude": -118.3161274,
    "latitude": 33.83534411,
    "phone": "3107820222",
    "website_url": "http://www.redcarbrewery.com",
    "state": "California",
    "street": "1266 Sartori Ave"
  },
  {
    "id": "2f29e159-a768-4404-a2b7-63ef157397bc",
    "name": "Red Clay Brewing Company",
    "brewery_type": "micro",
    "address_1": "704 N Railroad Ave",
    "address_2": null,
    "address_3": null,
    "city": "Opelika",
    "state_province": "Alabama",
    "postal_code": "36801-4344",
    "country": "United States",
    "longitude": -85.37875418,
    "latitude": 32.64939542,
    "phone": "3347375409",
    "website_url": "http://www.redclaybrewingcompany.com",
    "state": "Alabama",
    "street": "704 N Railroad Ave"
  },
  {
    "id": "91b1bfea-a4e2-487f-b290-b234c582ee0c",
    "name": "Red Crow Brewing Company",
    "brewery_type": "micro",
    "address_1": null,
    "address_2": null,
    "address_3": null,
    "city": "Olathe",
    "state_province": "Kansas",
    "postal_code": "66062",
    "country": "United States",
    "longitude": null,
    "latitude": null,
    "phone": "9132473641",
    "website_url": "http://www.redcrowbrew.com",
    "state": "Kansas",
    "street": null
  },
  {
    "id": "eb2a453b-7104-4863-8631-6aa540f1f27e",
    "name": "Red Cypress Brewery",
    "brewery_type": "micro",
    "address_1": "855 E SR 434",
    "address_2": null,
    "address_3": null,
    "city": "Winter Springs",
    "state_province": "Florida",
    "postal_code": "32708-2704",
    "country": "United States",
    "longitude": null,
    "latitude": null,
    "phone": null,
    "website_url": "http://www.redcypressbrewery.com",
    "state": "Florida",
    "street": "855 E SR 434"
  },
  {
    "id": "92cd0320-bce3-42e4-babb-1192bd8bf678",
    "name": "Red Dirt Brewing Co",
    "brewery_type": "planning",
    "address_1": null,
    "address_2": null,
    "address_3": null,
    "city": "Oklahoma City",
    "state_province": "Oklahoma",
    "postal_code": "73120-5133",
    "country": "United States",
    "longitude": null,
    "latitude": null,
    "phone": "4058231632",
    "website_url": null,
    "state": "Oklahoma",
    "street": null
  },
  {
    "id": "a1daf057-072c-4295-ab5c-ea8a668d0bc6",
    "name": "Red Door Brewing Co",
    "brewery_type": "micro",
    "address_1": "1001 Candelaria Rd NE",
    "address_2": null,
    "address_3": null,
    "city": "Albuquerque",
    "state_province": "New Mexico",
    "postal_code": "87107-2115",
    "country": "United States",
    "longitude": -106.5864617,
    "latitude": 35.1165072,
    "phone": "5056336675",
    "website_url": "http://www.reddoorbrewing.com",
    "state": "New Mexico",
    "street": "1001 Candelaria Rd NE"
  },
  {
    "id": "9bde954f-21f8-4382-960b-302b52411dbb",
    "name": "Red Dragon Brewery",
    "brewery_type": "micro",
    "address_1": "1419 Princess Anne St",
    "address_2": null,
    "address_3": null,
    "city": "Fredericksburg",
    "state_province": "Virginia",
    "postal_code": "22401-3638",
    "country": "United States",
    "longitude": -77.46312137,
    "latitude": 38.30737927,
    "phone": null,
    "website_url": "http://www.reddragonbrewery.com",
    "state": "Virginia",
    "street": "1419 Princess Anne St"
  },
  {
    "id": "c4f46e22-5527-4998-8e4c-639b0c8dd51e",
    "name": "Red Eye Brewing Co",
    "brewery_type": "brewpub",
    "address_1": "612 Washington St",
    "address_2": null,
    "address_3": null,
    "city": "Wausau",
    "state_province": "Wisconsin",
    "postal_code": "54403-5439",
    "country": "United States",
    "longitude": -89.6228425,
    "latitude": 44.9588496,
    "phone": "7158437334",
    "website_url": "http://www.redeyebrewing.com",
    "state": "Wisconsin",
    "street": "612 Washington St"
  },
  {
    "id": "f844c251-07b6-48ee-935e-b30c36f12d88",
    "name": "Red Gap Brewing",
    "brewery_type": "micro",
    "address_1": "712 Conrad Hilton Blvd",
    "address_2": null,
    "address_3": null,
    "city": "Cisco",
    "state_province": "Texas",
    "postal_code": "76437-3140",
    "country": "United States",
    "longitude": -98.97952884,
    "latitude": 32.38826259,
    "phone": "2544334993",
    "website_url": "http://redgapbrewing.com",
    "state": "Texas",
    "street": "712 Conrad Hilton Blvd"
  },
  {
    "id": "9e5331e9-d870-4e23-b41d-d2c18f2228f7",
    "name": "Red Hare Brewing Company",
    "brewery_type": "micro",
    "address_1": "1998 Delk Industrial Blvd SE",
    "address_2": null,
    "address_3": null,
    "city": "Marietta",
    "state_province": "Georgia",
    "postal_code": "30067-8904",
    "country": "United States",
    "longitude": -84.4957563,
    "latitude": 33.92440825,
    "phone": "6784010600",
    "website_url": "http://www.redharebrewing.com",
    "state": "Georgia",
    "street": "1998 Delk Industrial Blvd SE"
  },
  {
    "id": "df013da2-85d9-44ad-a6ae-1ba6273caa65",
    "name": "Red Hawk Brewing",
    "brewery_type": "micro",
    "address_1": "4504 Bussey Rd",
    "address_2": null,
    "address_3": null,
    "city": "Syracuse",
    "state_province": "New York",
    "postal_code": "13215-8783",
    "country": "United States",
    "longitude": null,
    "latitude": null,
    "phone": "3154915158",
    "website_url": "http://www.redhawkbrewing.com",
    "state": "New York",
    "street": "4504 Bussey Rd"
  },
  {
    "id": "0ea7eb38-71d2-4166-98e3-827be3878d92",
    "name": "Red Hill Brewing Co",
    "brewery_type": "micro",
    "address_1": "21 Union St S",
    "address_2": null,
    "address_3": null,
    "city": "Concord",
    "state_province": "North Carolina",
    "postal_code": "28025-5009",
    "country": "United States",
    "longitude": -80.5806658,
    "latitude": 35.41030435,
    "phone": "7047842337",
    "website_url": "http://www.redhillbrewing.com",
    "state": "North Carolina",
    "street": "21 Union St S"
  },
  {
    "id": "38944523-1c18-43bd-85fe-176d06f9dd5b",
    "name": "Red Hills Brewing Co",
    "brewery_type": "micro",
    "address_1": "2823 Central Ave Ste 107",
    "address_2": null,
    "address_3": null,
    "city": "Birmingham",
    "state_province": "Alabama",
    "postal_code": "35209-2581",
    "country": "United States",
    "longitude": null,
    "latitude": null,
    "phone": "2055822897",
    "website_url": "http://www.redhillsbrew.com",
    "state": "Alabama",
    "street": "2823 Central Ave Ste 107"
  },
  {
    "id": "363cbc24-65e7-4124-9885-4aeb6e40a67f",
    "name": "Red Horn Brewing Co.",
    "brewery_type": "brewpub",
    "address_1": "13010 W Parmer Ln Ste 800",
    "address_2": null,
    "address_3": null,
    "city": "Cedar Park",
    "state_province": "Texas",
    "postal_code": "78613-7369",
    "country": "United States",
    "longitude": null,
    "latitude": null,
    "phone": "5125896152",
    "website_url": "http://www.redhornbrew.com",
    "state": "Texas",
    "street": "13010 W Parmer Ln Ste 800"
  },
  {
    "id": "c0a352b5-37a4-4131-9e41-dc49df52747f",
    "name": "Red Iron Brewing Company",
    "brewery_type": "planning",
    "address_1": null,
    "address_2": null,
    "address_3": null,
    "city": "Lincoln",
    "state_province": "Nebraska",
    "postal_code": "68501",
    "country": "United States",
    "longitude": null,
    "latitude": null,
    "phone": "4028126242",
    "website_url": "http://redironbrewing.com",
    "state": "Nebraska",
    "street": null
  },
  {
    "id": "153f0d04-5f71-4096-ab07-6255c3563b4e",
    "name": "Red Jacket Brewing at Michigan House Cafe",
    "brewery_type": "brewpub",
    "address_1": "300 6th St",
    "address_2": null,
    "address_3": null,
    "city": "Calumet",
    "state_province": "Michigan",
    "postal_code": "49913-1508",
    "country": "United States",
    "longitude": -88.4535254,
    "latitude": 47.2464521,
    "phone": "9063371910",
    "website_url": "http://www.michiganhousecafe.com/brewpub.html",
    "state": "Michigan",
    "street": "300 6th St"
  },
  {
    "id": "cec54270-d377-44b4-8ca8-d847c204b637",
    "name": "Red Leg Brewing Company",
    "brewery_type": "micro",
    "address_1": "4630 Forge Rd Ste B",
    "address_2": null,
    "address_3": null,
    "city": "Colorado Springs",
    "state_province": "Colorado",
    "postal_code": "80907-3556",
    "country": "United States",
    "longitude": null,
    "latitude": null,
    "phone": "7195983776",
    "website_url": "http://www.redlegbrewingco.com",
    "state": "Colorado",
    "street": "4630 Forge Rd Ste B"
  },
  {
    "id": "4f92d7f1-e3da-4f0d-b4e6-c87c58ba37ea",
    "name": "Red Lodge Ales Brewing Co",
    "brewery_type": "micro",
    "address_1": "1445 N Broadway Ave",
    "address_2": null,
    "address_3": null,
    "city": "Red Lodge",
    "state_province": "Montana",
    "postal_code": "59068-9383",
    "country": "United States",
    "longitude": -109.2465393,
    "latitude": 45.19727053,
    "phone": "4064464607",
    "website_url": "http://www.redlodgeales.net",
    "state": "Montana",
    "street": "1445 N Broadway Ave"
  },
  {
    "id": "3cc2a24c-bf59-42c0-8f83-371c19d049e9",
    "name": "Red Mountain Brewing",
    "brewery_type": "brewpub",
    "address_1": "400 Main St",
    "address_2": null,
    "address_3": null,
    "city": "Ouray",
    "state_province": "Colorado",
    "postal_code": "81427",
    "country": "United States",
    "longitude": -107.671615,
    "latitude": 38.020713,
    "phone": "9703259858",
    "website_url": "http://www.redmountainbrewingouray.com",
    "state": "Colorado",
    "street": "400 Main St"
  },
  {
    "id": "1b22d595-585c-4818-8e8d-6e62b5ca1d2c",
    "name": "Red Oak Brewing Co",
    "brewery_type": "regional",
    "address_1": "6901 Konica Dr",
    "address_2": null,
    "address_3": null,
    "city": "Whitsett",
    "state_province": "North Carolina",
    "postal_code": "27377-9787",
    "country": "United States",
    "longitude": null,
    "latitude": null,
    "phone": "3362993649",
    "website_url": "http://www.redoakbrewery.com",
    "state": "North Carolina",
    "street": "6901 Konica Dr"
  },
  {
    "id": "76487dbc-aa7e-45d0-b20a-f8f8642f49f9",
    "name": "Red River Brewing Co",
    "brewery_type": "micro",
    "address_1": "1200 Marshall St Ste 500",
    "address_2": null,
    "address_3": null,
    "city": "Shreveport",
    "state_province": "Louisiana",
    "postal_code": "71101-3936",
    "country": "United States",
    "longitude": null,
    "latitude": null,
    "phone": "3183174110",
    "website_url": "http://www.redriverbeer.com",
    "state": "Louisiana",
    "street": "1200 Marshall St Ste 500"
  },
  {
    "id": "98ed229d-aac1-48b0-a562-d954e5f742ec",
    "name": "Red River Brewing Company",
    "brewery_type": "brewpub",
    "address_1": "217 W Main St",
    "address_2": null,
    "address_3": null,
    "city": "Red River",
    "state_province": "New Mexico",
    "postal_code": "87558",
    "country": "United States",
    "longitude": null,
    "latitude": null,
    "phone": "5757702519",
    "website_url": "http://www.redriverbrewing.com",
    "state": "New Mexico",
    "street": "217 W Main St"
  },
  {
    "id": "b83a91e0-b33b-40df-97cc-1c1df6da08aa",
    "name": "Red Rock Brewing Co",
    "brewery_type": "brewpub",
    "address_1": "254 S 200 W",
    "address_2": null,
    "address_3": null,
    "city": "Salt Lake City",
    "state_province": "Utah",
    "postal_code": "84101-1801",
    "country": "United States",
    "longitude": -111.89671,
    "latitude": 40.77487847,
    "phone": "8015217446",
    "website_url": "http://www.redrockbrewing.com",
    "state": "Utah",
    "street": "254 S 200 W"
  },
  {
    "id": "ded0fdf2-f42b-4aa8-b807-83c9f6fa1b58",
    "name": "Red Rock Brewing Co - Production",
    "brewery_type": "micro",
    "address_1": "443 N 400 W",
    "address_2": null,
    "address_3": null,
    "city": "Salt Lake City",
    "state_province": "Utah",
    "postal_code": "84103-1230",
    "country": "United States",
    "longitude": -111.9029539,
    "latitude": 40.77956659,
    "phone": "8015217446",
    "website_url": null,
    "state": "Utah",
    "street": "443 N 400 W"
  },
  {
    "id": "491bbd2f-da16-42f3-a4a3-b422d5b324b6",
    "name": "Red Shed Brewing Company",
    "brewery_type": "micro",
    "address_1": "817 Butter Bowl Rd",
    "address_2": null,
    "address_3": null,
    "city": "Cherry Valley",
    "state_province": "New York",
    "postal_code": "13320-3106",
    "country": "United States",
    "longitude": null,
    "latitude": null,
    "phone": "6077316454",
    "website_url": "http://www.redshedbrewing.com",
    "state": "New York",
    "street": "817 Butter Bowl Rd"
  },
  {
    "id": "82f5632c-93f4-43b4-b98b-b33462688c31",
    "name": "Red Shedman Farm Brewery",
    "brewery_type": "micro",
    "address_1": "13601 Glissans Mill Rd",
    "address_2": null,
    "address_3": null,
    "city": "Mount Airy",
    "state_province": "Maryland",
    "postal_code": "21771-8507",
    "country": "United States",
    "longitude": null,
    "latitude": null,
    "phone": "3018315889",
    "website_url": "http://www.redshedman.com",
    "state": "Maryland",
    "street": "13601 Glissans Mill Rd"
  }
]