[
  {
    "id": "611f8c45-a929-433d-b1a1-a590f85c456f",
    "name": "Uinta Brewing Co",
    "brewery_type": "regional",
    "address_1": "1722 S Fremont Dr",
    "address_2": null,
    "address_3": null,
    "city": "Salt Lake City",
    "state_province": "Utah",
    "postal_code": "84104-4215",
    "country": "United States",
    "longitude": -111.954182,
    "latitude": 40.732607,
    "phone": "8014670909",
    "website_url": "http://www.uintabrewing.com",
    "state": "Utah",
    "street": "1722 S Fremont Dr"
  },
  {
    "id": "591996cc-7431-45a1-b7f4-3b1f9c506cd5",
    "name": "Ukiah Brewing Co",
    "brewery_type": "brewpub",
    "address_1": "102 S State St",
    "address_2": null,
    "address_3": null,
    "city": "Ukiah",
    "state_province": "California",
    "postal_code": "95482-4903",
    "country": "United States",
    "longitude": -123.2076383,
    "latitude": 39.14945851,
    "phone": "7074685898",
    "website_url": "http://www.ukiahbrewingco.com",
    "state": "California",
    "street": "102 S State St"
  },
  {
    "id": "f3e74162-e002-43ad-acc8-2e55d563cd4a",
    "name": "Ulele Spring Brewery",
    "brewery_type": "brewpub",
    "address_1": "1810 N Highland Ave",
    "address_2": null,
    "address_3": null,
    "city": "Tampa",
    "state_province": "Florida",
    "postal_code": "33602-2605",
    "country": "United States",
    "longitude": -82.46281904,
    "latitude": 27.9599097,
    "phone": null,
    "website_url": null,
    "state": "Florida",
    "street": "1810 N Highland Ave"
  },
  {
    "id": "637f25db-22ec-4376-ac90-c723340287c1",
    "name": "UnBarred Brewery",
    "brewery_type": "taproom",
    "address_1": "Elder Place",
    "address_2": null,
    "address_3": null,
    "city": "Brighton",
    "state_province": "East Sussex",
    "postal_code": "BN1 4GF",
    "country": "England",
    "longitude": -0.138599,
    "latitude": 50.832867,
    "phone": "1273894563",
    "website_url": "https://www.unbarredbrewery.com/",
    "state": "East Sussex",
    "street": "Elder Place"
  },
  {
    "id": "c339e1ba-09e5-4f0e-933a-b18fff765eba",
    "name": "Uncle Bear's Brewery",
    "brewery_type": "brewpub",
    "address_1": "4921 E Ray Rd Ste 103",
    "address_2": null,
    "address_3": null,
    "city": "Phoenix",
    "state_province": "Arizona",
    "postal_code": "85044-6495",
    "country": "United States",
    "longitude": null,
    "latitude": null,
    "phone": "4802770765",
    "website_url": "http://www.unclebearsaz.com",
    "state": "Arizona",
    "street": "4921 E Ray Rd Ste 103"
  },
  {
    "id": "d9a65f61-f901-40fe-85d1-620af49e72fb",
    "name": "Uncle Billy's Brewery",
    "brewery_type": "micro",
    "address_1": "1530 Barton Springs Rd",
    "address_2": null,
    "address_3": null,
    "city": "Austin",
    "state_province": "Texas",
    "postal_code": "78704-1013",
    "country": "United States",
    "longitude": -97.76126939,
    "latitude": 30.262109,
    "phone": "5124760100",
    "website_url": "http://www.unclebillys.com",
    "state": "Texas",
    "street": "1530 Barton Springs Rd"
  },
  {
    "id": "a980eb42-934a-4bca-8044-43fc23b43eb9",
    "name": "Uncle Buck's Brewery And Steakhouse",
    "brewery_type": "brewpub",
    "address_1": "2501 Bass Pro Dr",
    "address_2": null,
    "address_3": null,
    "city": "Grapevine",
    "state_province": "Texas",
    "postal_code": "76051-2009",
    "country": "United States",
    "longitude": null,
    "latitude": null,
    "phone": "9726915100",
    "website_url": "http://restaurants.basspro.com/UncleBucksSteakhouse/",
    "state": "Texas",
    "street": "2501 Bass Pro Dr"
  },
  {
    "id": "684dfd0e-c132-413a-bb46-9daf08ed35e7",
    "name": "Uncle Ernies Bayfront Grill & Brew House",
    "brewery_type": "contract",
    "address_1": "1151 Bayview Ave",
    "address_2": null,
    "address_3": null,
    "city": "Panama City",
    "state_province": "Florida",
    "postal_code": "32401-1452",
    "country": "United States",
    "longitude": -85.702765,
    "latitude": 30.1698125,
    "phone": "8507638427",
    "website_url": "http://uncleerniesbayfrontgrill.com/welcome/",
    "state": "Florida",
    "street": "1151 Bayview Ave"
  },
  {
    "id": "45e1a706-1fb7-4a98-8007-817f9ffce1c8",
    "name": "Uncommon Brewers",
    "brewery_type": "closed",
    "address_1": "303 Potrero St Ste 40H",
    "address_2": null,
    "address_3": null,
    "city": "Santa Cruz",
    "state_province": "California",
    "postal_code": "95060-2778",
    "country": "United States",
    "longitude": -122.0310356,
    "latitude": 36.98208037,
    "phone": "8316216270",
    "website_url": "http://www.uncommonbrewers.com",
    "state": "California",
    "street": "303 Potrero St Ste 40H"
  },
  {
    "id": "8d0e0a59-2799-4825-a275-bb109dc0fc10",
    "name": "Uncrafted Territory Brewing Company",
    "brewery_type": "planning",
    "address_1": null,
    "address_2": null,
    "address_3": null,
    "city": "Beaver Dam",
    "state_province": "Kentucky",
    "postal_code": "42320-1915",
    "country": "United States",
    "longitude": null,
    "latitude": null,
    "phone": "2707753131",
    "website_url": null,
    "state": "Kentucky",
    "street": null
  },
  {
    "id": "bb57eee2-6d46-4318-a503-e3b003f9a5b6",
    "name": "Under Pressure Brewing Company",
    "brewery_type": "planning",
    "address_1": null,
    "address_2": null,
    "address_3": null,
    "city": "Plymouth",
    "state_province": "Minnesota",
    "postal_code": "55442-3211",
    "country": "United States",
    "longitude": null,
    "latitude": null,
    "phone": "6128509779",
    "website_url": "http://www.underpressurebrewing.com",
    "state": "Minnesota",
    "street": null
  },
  {
    "id": "b212b659-6819-42c5-b5f2-93e735486d10",
    "name": "Under The Radar Brewery",
    "brewery_type": "micro",
    "address_1": "1506 Truxillo St",
    "address_2": null,
    "address_3": null,
    "city": "Houston",
    "state_province": "Texas",
    "postal_code": "77004-3960",
    "country": "United States",
    "longitude": -95.3759411,
    "latitude": 29.7342113,
    "phone": "7133202766",
    "website_url": "http://www.undertheradarbrewery.com",
    "state": "Texas",
    "street": "1506 Truxillo St"
  },
  {
    "id": "2a549416-59b9-4ed0-9b76-4a649f29ee80",
    "name": "Under the Rose Brewing Company",
    "brewery_type": "micro",
    "address_1": "559 E 4th St",
    "address_2": null,
    "address_3": null,
    "city": "Reno",
    "state_province": "Nevada",
    "postal_code": "89512-3317",
    "country": "United States",
    "longitude": -119.8063947,
    "latitude": 39.5315258,
    "phone": "7756576619",
    "website_url": null,
    "state": "Nevada",
    "street": "559 E 4th St"
  },
  {
    "id": "2dbbcfbc-636d-4cd8-9a57-7ae324adb66c",
    "name": "Under the Rose Brewing Company MidTown Location",
    "brewery_type": "brewpub",
    "address_1": "1041 S Virginia St",
    "address_2": null,
    "address_3": null,
    "city": "Reno",
    "state_province": "Nevada",
    "postal_code": "89502",
    "country": "United States",
    "longitude": -119.8072604,
    "latitude": 39.51387478,
    "phone": null,
    "website_url": null,
    "state": "Nevada",
    "street": "1041 S Virginia St"
  },
  {
    "id": "6cb41bae-ffe9-4d38-b89c-b272be7070aa",
    "name": "Underbite Brewing",
    "brewery_type": "planning",
    "address_1": null,
    "address_2": null,
    "address_3": null,
    "city": "Knoxville",
    "state_province": "Tennessee",
    "postal_code": "37909-1079",
    "country": "United States",
    "longitude": null,
    "latitude": null,
    "phone": null,
    "website_url": null,
    "state": "Tennessee",
    "street": null
  },
  {
    "id": "c7e27537-ec4b-4e6c-9e3e-6d93ce2f3127",
    "name": "Underground Brewing",
    "brewery_type": "nano",
    "address_1": null,
    "address_2": null,
    "address_3": null,
    "city": "Woodinville",
    "state_province": "Washington",
    "postal_code": "98072",
    "country": "United States",
    "longitude": null,
    "latitude": null,
    "phone": null,
    "website_url": "http://www.underground-brewing.com",
    "state": "Washington",
    "street": null
  },
  {
    "id": "43cbe517-bf1b-4a4d-b20b-b13ec74fff4d",
    "name": "Underground Brewing Co.",
    "brewery_type": "brewpub",
    "address_1": "3940 Broad St # 7415",
    "address_2": null,
    "address_3": null,
    "city": "San Luis Obispo",
    "state_province": "California",
    "postal_code": "93401-7017",
    "country": "United States",
    "longitude": -120.6420324,
    "latitude": 35.2493387,
    "phone": null,
    "website_url": null,
    "state": "California",
    "street": "3940 Broad St # 7415"
  },
  {
    "id": "4292bd71-a7f6-4cb8-88af-f1f1b60f2272",
    "name": "Une Annee Brewery",
    "brewery_type": "micro",
    "address_1": "9082 W Golf Rd",
    "address_2": null,
    "address_3": null,
    "city": "Niles",
    "state_province": "Illinois",
    "postal_code": "60714-5805",
    "country": "United States",
    "longitude": null,
    "latitude": null,
    "phone": "8476350655",
    "website_url": "http://uneannee.com",
    "state": "Illinois",
    "street": "9082 W Golf Rd"
  },
  {
    "id": "a645a825-1f6a-4b58-884b-cc3b88276a73",
    "name": "Unified Beerworks",
    "brewery_type": "planning",
    "address_1": null,
    "address_2": null,
    "address_3": null,
    "city": "Ballston Lake",
    "state_province": "New York",
    "postal_code": "12019-1734",
    "country": "United States",
    "longitude": null,
    "latitude": null,
    "phone": "5184284185",
    "website_url": "http://unified-beerworks.com",
    "state": "New York",
    "street": null
  },
  {
    "id": "83e8ad76-de1e-4d1d-9b78-05acc55b343c",
    "name": "Unify Brewing Company",
    "brewery_type": "planning",
    "address_1": null,
    "address_2": null,
    "address_3": null,
    "city": "Glenwood Springs",
    "state_province": "Colorado",
    "postal_code": "81601-3215",
    "country": "United States",
    "longitude": null,
    "latitude": null,
    "phone": "8164566374",
    "website_url": "http://www.UnifyBrewing.com",
    "state": "Colorado",
    "street": null
  },
  {
    "id": "03f236ab-d400-4a43-b4b9-e91adf9dc13f",
    "name": "Union 32 Crafthouse",
    "brewery_type": "micro",
    "address_1": "2864 Highway 55 Ste 200",
    "address_2": null,
    "address_3": null,
    "city": "Eagan",
    "state_province": "Minnesota",
    "postal_code": "55121-1455",
    "country": "United States",
    "longitude": null,
    "latitude": null,
    "phone": "9528079777",
    "website_url": "http://www.union32crafthouse.com",
    "state": "Minnesota",
    "street": "2864 Highway 55 Ste 200"
  },
  {
    "id": "378ffe8e-5cb8-4749-b5d6-797064394436",
    "name": "Union Barrel Works",
    "brewery_type": "brewpub",
    "address_1": "6 N Reamstown Rd",
    "address_2": null,
    "address_3": null,
    "city": "Stevens",
    "state_province": "Pennsylvania",
    "postal_code": "17578",
    "country": "United States",
    "longitude": null,
    "latitude": null,
    "phone": "7173357837",
    "website_url": null,
    "state": "Pennsylvania",
    "street": "6 N Reamstown Rd"
  },
  {
    "id": "e8bb776f-eaeb-4132-ac76-54d9c5f4c8ec",
    "name": "Union Bear Brewing Co.",
    "brewery_type": "brewpub",
    "address_1": "5880 State Highway 121 Ste 101",
    "address_2": null,
    "address_3": null,
    "city": "Plano",
    "state_province": "Texas",
    "postal_code": "75024",
    "country": "United States",
    "longitude": -96.8494045,
    "latitude": 33.083072,
    "phone": "2142972337",
    "website_url": "http://www.unionbear.com",
    "state": "Texas",
    "street": "5880 State Highway 121 Ste 101"
  },
  {
    "id": "6f07acc5-3db8-4380-b30f-98d256184c56",
    "name": "Union Brewing",
    "brewery_type": "micro",
    "address_1": "622 S Rangeline Rd Ste Q",
    "address_2": null,
    "address_3": null,
    "city": "Carmel",
    "state_province": "Indiana",
    "postal_code": "46032-2152",
    "country": "United States",
    "longitude": null,
    "latitude": null,
    "phone": "3175644466",
    "website_url": "http://www.unionbrewingco.com",
    "state": "Indiana",
    "street": "622 S Rangeline Rd Ste Q"
  },
  {
    "id": "09d390e3-f8db-47d3-a37f-039f67950c76",
    "name": "Union Craft Brewing",
    "brewery_type": "micro",
    "address_1": "1700 Union Ave Ste D",
    "address_2": null,
    "address_3": null,
    "city": "Baltimore",
    "state_province": "Maryland",
    "postal_code": "21211-1499",
    "country": "United States",
    "longitude": null,
    "latitude": null,
    "phone": "4106169282",
    "website_url": "http://www.unioncraftbrewing.com",
    "state": "Maryland",
    "street": "1700 Union Ave Ste D"
  },
  {
    "id": "b1ef75c0-ad17-4e34-aaf1-761af30aee08",
    "name": "Union House Brewing LLC",
    "brewery_type": "planning",
    "address_1": null,
    "address_2": null,
    "address_3": null,
    "city": "Plum City",
    "state_province": "Wisconsin",
    "postal_code": "54761-0055",
    "country": "United States",
    "longitude": null,
    "latitude": null,
    "phone": null,
    "website_url": null,
    "state": "Wisconsin",
    "street": null
  },
  {
    "id": "85fca49d-7715-4238-b3ab-4252a5299795",
    "name": "Union Pizza & Brewing Co",
    "brewery_type": "brewpub",
    "address_1": "114 S Union Ave",
    "address_2": null,
    "address_3": null,
    "city": "Fergus Falls",
    "state_province": "Minnesota",
    "postal_code": "56537-",
    "country": "United States",
    "longitude": -96.07792093,
    "latitude": 46.28264407,
    "phone": "2189988888",
    "website_url": "http://www.unionpizzaandbrewing.com",
    "state": "Minnesota",
    "street": "114 S Union Ave"
  },
  {
    "id": "6fba2263-8f73-4ed4-805f-d25d63f18cde",
    "name": "Union Station Brewery",
    "brewery_type": "brewpub",
    "address_1": "36 Exchange Ter Ste 2",
    "address_2": null,
    "address_3": null,
    "city": "Providence",
    "state_province": "Rhode Island",
    "postal_code": "02903-1798",
    "country": "United States",
    "longitude": -71.414009,
    "latitude": 41.825558,
    "phone": "4012742739",
    "website_url": "https://www.unionstationpvd.com",
    "state": "Rhode Island",
    "street": "36 Exchange Ter Ste 2"
  },
  {
    "id": "0101bc6d-8868-4673-9ed5-f15c5e545b96",
    "name": "Union Works Brewery LLC",
    "brewery_type": "planning",
    "address_1": null,
    "address_2": null,
    "address_3": null,
    "city": "Humboldt",
    "state_province": "Kansas",
    "postal_code": "66748-1050",
    "country": "United States",
    "longitude": null,
    "latitude": null,
    "phone": null,
    "website_url": null,
    "state": "Kansas",
    "street": null
  },
  {
    "id": "6812f970-918c-4d57-be26-4b33baff46f0",
    "name": "Uniontown Brewing Co.",
    "brewery_type": "brewpub",
    "address_1": "105 W Main St",
    "address_2": null,
    "address_3": null,
    "city": "Ashland",
    "state_province": "Ohio",
    "postal_code": "44805-2221",
    "country": "United States",
    "longitude": -82.31638932,
    "latitude": 40.8686238,
    "phone": "4199088542",
    "website_url": "http://www.uniontownbrewing.com",
    "state": "Ohio",
    "street": "105 W Main St"
  },
  {
    "id": "1a2e0257-a0c5-4ea9-b786-5d5585674596",
    "name": "Unknown Brewing Company",
    "brewery_type": "micro",
    "address_1": "1327 S Mint St",
    "address_2": null,
    "address_3": null,
    "city": "Charlotte",
    "state_province": "North Carolina",
    "postal_code": "28203-4121",
    "country": "United States",
    "longitude": -80.8575419,
    "latitude": 35.2205129,
    "phone": "9802372628",
    "website_url": "http://www.unknownbrewing.com",
    "state": "North Carolina",
    "street": "1327 S Mint St"
  },
  {
    "id": "eddf1dc7-c32f-490f-8180-afe44f36438a",
    "name": "Unlawful Assembly Brewing Company",
    "brewery_type": "brewpub",
    "address_1": "7800 Windrose Ave",
    "address_2": null,
    "address_3": null,
    "city": "Plano",
    "state_province": "Texas",
    "postal_code": "75024-0114",
    "country": "United States",
    "longitude": -96.8267889,
    "latitude": 33.078317,
    "phone": "9728967668",
    "website_url": "http://www.unlawfulassembly.com",
    "state": "Texas",
    "street": "7800 Windrose Ave"
  },
  {
    "id": "89f7f1eb-3dbd-40d1-b530-aad3166b8ef0",
    "name": "Unleashed Brewing Company",
    "brewery_type": "planning",
    "address_1": null,
    "address_2": null,
    "address_3": null,
    "city": "Stonington",
    "state_province": "Connecticut",
    "postal_code": "06378-1628",
    "country": "United States",
    "longitude": null,
    "latitude": null,
    "phone": null,
    "website_url": "http://www.unleashedbrewing.com",
    "state": "Connecticut",
    "street": null
  },
  {
    "id": "6eab32b5-1f19-44bf-9901-285deb3581f8",
    "name": "Unmapped Brewing Co.",
    "brewery_type": "micro",
    "address_1": "14625 Excelsior Blvd",
    "address_2": null,
    "address_3": null,
    "city": "Minnetonka",
    "state_province": "Minnesota",
    "postal_code": "55345-6605",
    "country": "United States",
    "longitude": -93.46551151,
    "latitude": 44.90425928,
    "phone": "9525009622",
    "website_url": "http://www.unmappedbrewing.com",
    "state": "Minnesota",
    "street": "14625 Excelsior Blvd"
  },
  {
    "id": "00ea9c67-130c-4fa0-9b92-8cfb2b6ca81f",
    "name": "Unnamed Beer Company, LLC",
    "brewery_type": "planning",
    "address_1": null,
    "address_2": null,
    "address_3": null,
    "city": "Boulder",
    "state_province": "Colorado",
    "postal_code": "80301",
    "country": "United States",
    "longitude": null,
    "latitude": null,
    "phone": null,
    "website_url": "http://www.unnamedbeer.com",
    "state": "Colorado",
    "street": null
  },
  {
    "id": "a2a27dba-f20a-4d98-a29c-005a2dfbe724",
    "name": "Unruly Brewing Company",
    "brewery_type": "micro",
    "address_1": "360 W Western Ave",
    "address_2": null,
    "address_3": null,
    "city": "Muskegon",
    "state_province": "Michigan",
    "postal_code": "49440-1273",
    "country": "United States",
    "longitude": -86.25381541,
    "latitude": 43.23504367,
    "phone": "2312881068",
    "website_url": "http://www.unrulybrewing.com",
    "state": "Michigan",
    "street": "360 W Western Ave"
  },
  {
    "id": "6cfe7bce-ee7d-4fa4-ab54-1584566f9ac2",
    "name": "Unsung Brewing Company",
    "brewery_type": "closed",
    "address_1": "1332 Bell Ave Ste 2D",
    "address_2": null,
    "address_3": null,
    "city": "Tustin",
    "state_province": "California",
    "postal_code": "92780-6439",
    "country": "United States",
    "longitude": -117.8385795,
    "latitude": 33.71474692,
    "phone": null,
    "website_url": null,
    "state": "California",
    "street": "1332 Bell Ave Ste 2D"
  },
  {
    "id": "4000ba2a-c486-431c-a9ca-c4b170696aea",
    "name": "Unsung Brewing Company- Taproom",
    "brewery_type": "micro",
    "address_1": "500 S Anaheim Blvd Ste B",
    "address_2": null,
    "address_3": null,
    "city": "Anaheim",
    "state_province": "California",
    "postal_code": "92805-4725",
    "country": "United States",
    "longitude": -117.9121478,
    "latitude": 33.83113335,
    "phone": null,
    "website_url": null,
    "state": "California",
    "street": "500 S Anaheim Blvd Ste B"
  },
  {
    "id": "b9abbfd2-4a52-4d64-80ac-e236e2ce40da",
    "name": "Untapped Territory, LLC",
    "brewery_type": "contract",
    "address_1": "326 E Main St Ste 1735",
    "address_2": null,
    "address_3": null,
    "city": "Lincolnton",
    "state_province": "North Carolina",
    "postal_code": "28092-3335",
    "country": "United States",
    "longitude": null,
    "latitude": null,
    "phone": "7042586466",
    "website_url": null,
    "state": "North Carolina",
    "street": "326 E Main St Ste 1735"
  },
  {
    "id": "0aa072bb-50cc-49b2-bda0-a4d8fd2ce34f",
    "name": "Untold Brewing",
    "brewery_type": "micro",
    "address_1": "6 Old Country Way",
    "address_2": null,
    "address_3": null,
    "city": "Scituate",
    "state_province": "Massachusetts",
    "postal_code": "02066-3773",
    "country": "United States",
    "longitude": -70.74750286,
    "latitude": 42.18080776,
    "phone": "7813780559",
    "website_url": "http://www.untoldbrewing.com",
    "state": "Massachusetts",
    "street": "6 Old Country Way"
  },
  {
    "id": "4064247b-325f-4f0a-8269-d7c061bf1c53",
    "name": "UpCountry Brewing",
    "brewery_type": "brewpub",
    "address_1": "1042 Haywood Rd",
    "address_2": null,
    "address_3": null,
    "city": "Asheville",
    "state_province": "North Carolina",
    "postal_code": "28806-2639",
    "country": "United States",
    "longitude": null,
    "latitude": null,
    "phone": "8285752400",
    "website_url": "http://upcountrybrewing.com/",
    "state": "North Carolina",
    "street": "1042 Haywood Rd"
  },
  {
    "id": "fb26164e-82c1-4bf7-80a7-a60da692482e",
    "name": "Upland Brewing Co",
    "brewery_type": "micro",
    "address_1": "4060 W Profile Pkwy",
    "address_2": null,
    "address_3": null,
    "city": "Bloomington",
    "state_province": "Indiana",
    "postal_code": "47404-2554",
    "country": "United States",
    "longitude": null,
    "latitude": null,
    "phone": "8123362337",
    "website_url": null,
    "state": "Indiana",
    "street": "4060 W Profile Pkwy"
  },
  {
    "id": "9a6ed651-787f-47de-9f0a-1a4fc3fb5d15",
    "name": "Upland Brewing Co - Bloomington Brewpub",
    "brewery_type": "regional",
    "address_1": "350 W 11th St",
    "address_2": null,
    "address_3": null,
    "city": "Bloomington",
    "state_province": "Indiana",
    "postal_code": "47404-3720",
    "country": "United States",
    "longitude": -86.53747927,
    "latitude": 39.173423,
    "phone": "8123362337",
    "website_url": "http://www.uplandbeer.com",
    "state": "Indiana",
    "street": "350 W 11th St"
  },
  {
    "id": "fe976b5b-744d-4ba8-b9b8-af2c2e249b8b",
    "name": "Upper Hand Brewery",
    "brewery_type": "micro",
    "address_1": "3525 Airport Rd",
    "address_2": null,
    "address_3": null,
    "city": "Escanaba",
    "state_province": "Michigan",
    "postal_code": "49829-1096",
    "country": "United States",
    "longitude": -87.097528,
    "latitude": 45.7164279,
    "phone": "2693822338",
    "website_url": "http://www.upperhandbrewery.com",
    "state": "Michigan",
    "street": "3525 Airport Rd"
  },
  {
    "id": "edefea44-cd3f-42b5-8a5d-9f5db3eac76e",
    "name": "Upper Room Brewery",
    "brewery_type": "micro",
    "address_1": "1540 W 56th St Ste D",
    "address_2": null,
    "address_3": null,
    "city": "Kearny",
    "state_province": "Nebraska",
    "postal_code": "68845-1036",
    "country": "United States",
    "longitude": -99.097487536616,
    "latitude": 40.744814148118,
    "phone": "3082516227",
    "website_url": "https://upperroombrewery.com",
    "state": "Nebraska",
    "street": "1540 W 56th St Ste D"
  },
  {
    "id": "3c6dd3b5-0f9e-44f0-b21c-e664a66538e3",
    "name": "Upright Brewing Co",
    "brewery_type": "micro",
    "address_1": "240 N Broadway Ste 2",
    "address_2": null,
    "address_3": null,
    "city": "Portland",
    "state_province": "Oregon",
    "postal_code": "97227-1880",
    "country": "United States",
    "longitude": -122.6703323,
    "latitude": 45.5346842,
    "phone": null,
    "website_url": "http://www.uprightbrewing.com",
    "state": "Oregon",
    "street": "240 N Broadway Ste 2"
  },
  {
    "id": "8c96cee4-a3ef-411a-aacf-962370865f80",
    "name": "Uproar Brewing",
    "brewery_type": "brewpub",
    "address_1": "439 S 1st St",
    "address_2": null,
    "address_3": null,
    "city": "San Jose",
    "state_province": "California",
    "postal_code": "95113-2816",
    "country": "United States",
    "longitude": -121.8856373,
    "latitude": 37.32939189,
    "phone": "4086732266",
    "website_url": "http://www.uproarbrewing.com",
    "state": "California",
    "street": "439 S 1st St"
  },
  {
    "id": "4e18f3a1-a457-412a-a724-e48c5cf72dc2",
    "name": "Upside Brewing",
    "brewery_type": "brewpub",
    "address_1": "5692 N Main St",
    "address_2": null,
    "address_3": null,
    "city": "Sylvania",
    "state_province": "Ohio",
    "postal_code": "43560-1928",
    "country": "United States",
    "longitude": null,
    "latitude": null,
    "phone": "4198826061",
    "website_url": "http://www.facebook.com/UpsideBrewing",
    "state": "Ohio",
    "street": "5692 N Main St"
  },
  {
    "id": "d6349994-f0fb-4b87-a49d-b1647f711e26",
    "name": "Upslope Brewing Company",
    "brewery_type": "planning",
    "address_1": null,
    "address_2": null,
    "address_3": null,
    "city": "Boulder",
    "state_province": "Colorado",
    "postal_code": "80301",
    "country": "United States",
    "longitude": null,
    "latitude": null,
    "phone": "3033961898",
    "website_url": null,
    "state": "Colorado",
    "street": null
  },
  {
    "id": "05b3f6bc-e7cf-40bb-8bdb-1dfc1a619c5f",
    "name": "Upslope Brewing Company - Flatiron Park",
    "brewery_type": "micro",
    "address_1": "1898 S Flatiron Ct Ste 110",
    "address_2": null,
    "address_3": null,
    "city": "Boulder",
    "state_province": "Colorado",
    "postal_code": "80301-2860",
    "country": "United States",
    "longitude": -105.2183136,
    "latitude": 40.0203098,
    "phone": null,
    "website_url": "http://www.upslopebrewing.com",
    "state": "Colorado",
    "street": "1898 S Flatiron Ct Ste 110"
  }
]