[
  {
    "id": "1c445860-c350-45a3-9550-184e36f4c863",
    "name": "COAST Brewing Co",
    "brewery_type": "micro",
    "address_1": "1250 N 2nd St",
    "address_2": null,
    "address_3": null,
    "city": "North Charleston",
    "state_province": "South Carolina",
    "postal_code": "29405-1804",
    "country": "United States",
    "longitude": null,
    "latitude": null,
    "phone": "8433434727",
    "website_url": "http://www.coastbrewing.com",
    "state": "South Carolina",
    "street": "1250 N 2nd St"
  },
  {
    "id": "1d3693d3-b9ef-48b5-b76d-4464725c6064",
    "name": "Coastal Bend Brewing",
    "brewery_type": "planning",
    "address_1": null,
    "address_2": null,
    "address_3": null,
    "city": "Corpus Christi",
    "state_province": "Texas",
    "postal_code": "78418-6697",
    "country": "United States",
    "longitude": null,
    "latitude": null,
    "phone": "5126901050",
    "website_url": "http://www.coastalbendbrewing.com",
    "state": "Texas",
    "street": null
  },
  {
    "id": "8f79511b-78db-4478-980f-82b9219e5916",
    "name": "Coastal Empire Beer Co",
    "brewery_type": "micro",
    "address_1": "79 Ross Rd",
    "address_2": null,
    "address_3": null,
    "city": "Savannah",
    "state_province": "Georgia",
    "postal_code": "31405-1660",
    "country": "United States",
    "longitude": null,
    "latitude": null,
    "phone": "9124287911",
    "website_url": "http://www.coastalempirebeer.com",
    "state": "Georgia",
    "street": "79 Ross Rd"
  },
  {
    "id": "db18bb6e-f763-4c39-a823-a961aa19c5a1",
    "name": "Coastal Rhythm",
    "brewery_type": "bar",
    "address_1": "1206A East Coast Parkway",
    "address_2": "Singapore Wake Park",
    "address_3": null,
    "city": "Singapore",
    "state_province": "Singapore",
    "postal_code": "449891",
    "country": "Singapore",
    "longitude": 1.3058550499371,
    "latitude": 103.9316688,
    "phone": "+65 6636 3705",
    "website_url": "https://www.coastalrhythm.sg/",
    "state": "Singapore",
    "street": "1206A East Coast Parkway"
  },
  {
    "id": "5b5da0b9-7219-4bcf-a841-ceb5388ef7da",
    "name": "Coastal Star Brewing Company",
    "brewery_type": "planning",
    "address_1": null,
    "address_2": null,
    "address_3": null,
    "city": "Santa Maria",
    "state_province": "California",
    "postal_code": "93455-1722",
    "country": "United States",
    "longitude": -120.4358577,
    "latitude": 34.9531295,
    "phone": "8053284677",
    "website_url": "http://www.coastalstarbrewing.com",
    "state": "California",
    "street": null
  },
  {
    "id": "981cd7dd-8130-4eda-899c-70f3a556e1bd",
    "name": "Cobblehaus Brewing Company",
    "brewery_type": "micro",
    "address_1": "1021 5th Ave",
    "address_2": null,
    "address_3": null,
    "city": "Coraopolis",
    "state_province": "Pennsylvania",
    "postal_code": "15108-1803",
    "country": "United States",
    "longitude": -80.16333048,
    "latitude": 40.5174116,
    "phone": "4122648000",
    "website_url": "http://www.cobblehauspa.com",
    "state": "Pennsylvania",
    "street": "1021 5th Ave"
  },
  {
    "id": "b757743f-6586-498f-84f0-8d92d0b5ae6e",
    "name": "Cocoa Beach Brewing Co",
    "brewery_type": "brewpub",
    "address_1": "150 N Atlantic Ave",
    "address_2": null,
    "address_3": null,
    "city": "Cocoa Beach",
    "state_province": "Florida",
    "postal_code": "32931-2960",
    "country": "United States",
    "longitude": -80.6090792,
    "latitude": 28.3213572,
    "phone": "3216132941",
    "website_url": "http://www.cocoabeachbrewingcompany.com",
    "state": "Florida",
    "street": "150 N Atlantic Ave"
  },
  {
    "id": "c97cbf45-cb24-4b09-ab4d-cb6859e12e03",
    "name": "Cocoon Brewing",
    "brewery_type": "micro",
    "address_1": "2233 Kaftan Way",
    "address_2": null,
    "address_3": null,
    "city": "De Pere",
    "state_province": "Wisconsin",
    "postal_code": "54115-4052",
    "country": "United States",
    "longitude": -88.019933915533,
    "latitude": 44.430195378172,
    "phone": "9204254888",
    "website_url": "http://www.cocoonbrewing.com",
    "state": "Wisconsin",
    "street": "2233 Kaftan Way"
  },
  {
    "id": "c0a80da7-b2b4-4376-824f-dc3e33180948",
    "name": "Coda Brewing Company",
    "brewery_type": "planning",
    "address_1": null,
    "address_2": null,
    "address_3": null,
    "city": "Golden",
    "state_province": "Colorado",
    "postal_code": "80401",
    "country": "United States",
    "longitude": null,
    "latitude": null,
    "phone": "3038956475",
    "website_url": "http://codabrewing.com",
    "state": "Colorado",
    "street": null
  },
  {
    "id": "c8e457a7-0753-4e02-a20e-cda524635a0e",
    "name": "Coddington Brewing Co",
    "brewery_type": "brewpub",
    "address_1": "210 Coddington Hwy",
    "address_2": null,
    "address_3": null,
    "city": "Middletown",
    "state_province": "Rhode Island",
    "postal_code": "02842-4884",
    "country": "United States",
    "longitude": -71.3049167,
    "latitude": 41.51869514,
    "phone": "4018476690",
    "website_url": "https://coddbrew.com",
    "state": "Rhode Island",
    "street": "210 Coddington Hwy"
  },
  {
    "id": "a7ba0514-376a-46d5-9827-230e5467c0bb",
    "name": "Code Beer Co.",
    "brewery_type": "micro",
    "address_1": "200 S Antelope Valley Pkwy",
    "address_2": null,
    "address_3": null,
    "city": "Lincoln",
    "state_province": "Nebraska",
    "postal_code": "68510-1016",
    "country": "United States",
    "longitude": -96.69344422,
    "latitude": 40.8123075,
    "phone": "4023185888",
    "website_url": "http://www.codebeer.co",
    "state": "Nebraska",
    "street": "200 S Antelope Valley Pkwy"
  },
  {
    "id": "6d50dc8a-94a9-4490-996d-cb2e79325a69",
    "name": "Cody Craft Brewing",
    "brewery_type": "micro",
    "address_1": "1732 Sheridan Ave",
    "address_2": null,
    "address_3": null,
    "city": "Cody",
    "state_province": "Wyoming",
    "postal_code": "82414-3848",
    "country": "United States",
    "longitude": -109.05007769427,
    "latitude": 44.531821077441,
    "phone": "3075788126",
    "website_url": "https://www.codycraftbrewing.com",
    "state": "Wyoming",
    "street": "1732 Sheridan Ave"
  },
  {
    "id": "ac955d91-37e9-4289-890c-5367864962b4",
    "name": "Coelacanth Brewing",
    "brewery_type": "micro",
    "address_1": "760A W 22nd St",
    "address_2": null,
    "address_3": null,
    "city": "Norfolk",
    "state_province": "Virginia",
    "postal_code": "23517-1925",
    "country": "United States",
    "longitude": -76.29561292,
    "latitude": 36.87169977,
    "phone": "7573836438",
    "website_url": "http://www.coelacanth.com",
    "state": "Virginia",
    "street": "760A W 22nd St"
  },
  {
    "id": "87b5537d-1ade-42da-9df2-1274eaf3298d",
    "name": "Cognition Brewing Company",
    "brewery_type": "micro",
    "address_1": "113 E Canda St",
    "address_2": null,
    "address_3": null,
    "city": "Ishpeming",
    "state_province": "Michigan",
    "postal_code": "49849-1904",
    "country": "United States",
    "longitude": -87.6681955,
    "latitude": 46.4916806,
    "phone": "9062042724",
    "website_url": "http://www.cognitionbrewing.com",
    "state": "Michigan",
    "street": "113 E Canda St"
  },
  {
    "id": "2d069653-3988-44e6-a58e-89de3d646223",
    "name": "Cognito Brewing Company",
    "brewery_type": "brewpub",
    "address_1": "142 W Monroe St",
    "address_2": null,
    "address_3": null,
    "city": "Bangor",
    "state_province": "Michigan",
    "postal_code": "49013-1333",
    "country": "United States",
    "longitude": -86.11152208,
    "latitude": 42.31308099,
    "phone": "9718088863",
    "website_url": "http://www.cognitobrewingcompany.com",
    "state": "Michigan",
    "street": "142 W Monroe St"
  },
  {
    "id": "701f40c6-bf18-4462-bac2-003ed612b484",
    "name": "Cogstone Brewing Co",
    "brewery_type": "brewpub",
    "address_1": "3858 Village Seven Rd",
    "address_2": null,
    "address_3": null,
    "city": "Colorado Springs",
    "state_province": "Colorado",
    "postal_code": "80917-2801",
    "country": "United States",
    "longitude": -104.75566,
    "latitude": 38.87959595,
    "phone": "7194186595",
    "website_url": "http://www.cogstonebrewing.com",
    "state": "Colorado",
    "street": "3858 Village Seven Rd"
  },
  {
    "id": "81538993-ea66-450c-a41e-6023267081f8",
    "name": "Cohort Craft Brewery",
    "brewery_type": "micro",
    "address_1": "4905 5th Street",
    "address_2": null,
    "address_3": null,
    "city": "Rapid City",
    "state_province": "South Dakota",
    "postal_code": "57701-6032",
    "country": "United States",
    "longitude": -103.2166522,
    "latitude": 44.03542851,
    "phone": "4023504624",
    "website_url": "http://www.cohortbrewery.com",
    "state": "South Dakota",
    "street": "4905 5th Street"
  },
  {
    "id": "6d974500-ddaf-4742-8426-da9c7a9e5016",
    "name": "Coin Toss Brewing Co",
    "brewery_type": "micro",
    "address_1": "14214 Fir St Ste H",
    "address_2": null,
    "address_3": null,
    "city": "Oregon City",
    "state_province": "Oregon",
    "postal_code": "97045-6837",
    "country": "United States",
    "longitude": -122.5784543,
    "latitude": 45.33224121,
    "phone": "5033056220",
    "website_url": "http://www.cointossbrewing.com",
    "state": "Oregon",
    "street": "14214 Fir St Ste H"
  },
  {
    "id": "ec0384fd-8f69-4853-918d-bbc46329e657",
    "name": "Cold Crash Brewing",
    "brewery_type": "closed",
    "address_1": "4507 48th Ave SW",
    "address_2": null,
    "address_3": null,
    "city": "Seattle",
    "state_province": "Washington",
    "postal_code": "98116-4039",
    "country": "United States",
    "longitude": -122.39395,
    "latitude": 47.56329,
    "phone": "2064864644",
    "website_url": "https://www.coldcrashbrewing.com",
    "state": "Washington",
    "street": "4507 48th Ave SW"
  },
  {
    "id": "350327f4-3d45-4c30-9651-349f7d8615ac",
    "name": "Cold Creek Brewery",
    "brewery_type": "micro",
    "address_1": "6 Industrial Dr",
    "address_2": null,
    "address_3": null,
    "city": "Ellington",
    "state_province": "Connecticut",
    "postal_code": "06029-2632",
    "country": "United States",
    "longitude": -72.456028,
    "latitude": 41.9209531,
    "phone": "8608581900",
    "website_url": "http://coldcreekbrewery.com",
    "state": "Connecticut",
    "street": "6 Industrial Dr"
  },
  {
    "id": "09a05c1a-a28b-4226-9e8b-6d6925d19bc5",
    "name": "Cold Fusion Brewing LLC",
    "brewery_type": "micro",
    "address_1": "4711 Morton Place Way",
    "address_2": null,
    "address_3": null,
    "city": "Knoxville",
    "state_province": "Tennessee",
    "postal_code": "37912-4162",
    "country": "United States",
    "longitude": null,
    "latitude": null,
    "phone": "8652035948",
    "website_url": "http://www.facebook.com/ColdFusionBrewery/?ref=bookmarks",
    "state": "Tennessee",
    "street": "4711 Morton Place Way"
  },
  {
    "id": "6214314a-396b-4807-be4f-6033a61341ce",
    "name": "Cold Harbor Brewing Company",
    "brewery_type": "micro",
    "address_1": "108 Milk St Ste 6",
    "address_2": null,
    "address_3": null,
    "city": "Westborough",
    "state_province": "Massachusetts",
    "postal_code": "01581-1228",
    "country": "United States",
    "longitude": null,
    "latitude": null,
    "phone": null,
    "website_url": "http://www.coldharborbrewing.com",
    "state": "Massachusetts",
    "street": "108 Milk St Ste 6"
  },
  {
    "id": "8adecd1d-7e2e-4724-836a-a13c4d145996",
    "name": "Cold Iron Brewing",
    "brewery_type": "micro",
    "address_1": "104 S Lowell St",
    "address_2": null,
    "address_3": null,
    "city": "Ironwood",
    "state_province": "Michigan",
    "postal_code": "49938-2044",
    "country": "United States",
    "longitude": -90.16984913,
    "latitude": 46.45390575,
    "phone": "9062857020",
    "website_url": "http://www.coldironbrewing.com",
    "state": "Michigan",
    "street": "104 S Lowell St"
  },
  {
    "id": "7a5ad53c-84cd-4843-aaf7-6fb870588538",
    "name": "Cold Spring Brewery",
    "brewery_type": "micro",
    "address_1": "733 Seashore Rd",
    "address_2": null,
    "address_3": null,
    "city": "Cape May",
    "state_province": "New Jersey",
    "postal_code": "08204-4634",
    "country": "United States",
    "longitude": -74.9127483,
    "latitude": 38.97816685,
    "phone": "6098543077",
    "website_url": "http://www.hcsv.org",
    "state": "New Jersey",
    "street": "733 Seashore Rd"
  },
  {
    "id": "7c7015c0-c7af-41f9-bab3-1cb9e4db0c7f",
    "name": "Cold Water Brewery and Grill",
    "brewery_type": "brewpub",
    "address_1": "2544 Lake Tahoe Blvd",
    "address_2": null,
    "address_3": null,
    "city": "South Lake Tahoe",
    "state_province": "California",
    "postal_code": "96150-7707",
    "country": "United States",
    "longitude": -119.986213,
    "latitude": 38.925231,
    "phone": "5305444677",
    "website_url": "http://www.tahoecoldwaterbrewery.com",
    "state": "California",
    "street": "2544 Lake Tahoe Blvd"
  },
  {
    "id": "14e3a304-2a09-4148-b701-db23ca91deb2",
    "name": "Coldfire Brewing",
    "brewery_type": "micro",
    "address_1": "263 Mill St",
    "address_2": null,
    "address_3": null,
    "city": "Eugene",
    "state_province": "Oregon",
    "postal_code": "97401-2410",
    "country": "United States",
    "longitude": -123.0864976,
    "latitude": 44.05674657,
    "phone": "5415569374",
    "website_url": "http://www.coldfirebrewing.com",
    "state": "Oregon",
    "street": "263 Mill St"
  },
  {
    "id": "7097997a-1a61-4da8-a549-f823db3a908a",
    "name": "Cole Street Brewery",
    "brewery_type": "micro",
    "address_1": "1627 Cole St",
    "address_2": null,
    "address_3": null,
    "city": "Enumclaw",
    "state_province": "Washington",
    "postal_code": "98022-3640",
    "country": "United States",
    "longitude": -121.988911,
    "latitude": 47.204514,
    "phone": "2539516656",
    "website_url": "https://www.beercolestreetbrew.com",
    "state": "Washington",
    "street": "1627 Cole St"
  },
  {
    "id": "cd33914f-7327-49ec-b05e-9ca93e0d709b",
    "name": "Coles Road Brewing",
    "brewery_type": "planning",
    "address_1": null,
    "address_2": null,
    "address_3": null,
    "city": "Cromwell",
    "state_province": "Connecticut",
    "postal_code": "06416-1113",
    "country": "United States",
    "longitude": null,
    "latitude": null,
    "phone": null,
    "website_url": "http://ColesRoadBrewing.com",
    "state": "Connecticut",
    "street": null
  },
  {
    "id": "c76631f7-1fa9-4b31-b126-bedd85f363dd",
    "name": "Colfax Ale Cellar",
    "brewery_type": "micro",
    "address_1": "215 S 2nd St",
    "address_2": null,
    "address_3": null,
    "city": "Raton",
    "state_province": "New Mexico",
    "postal_code": "87740-3907",
    "country": "United States",
    "longitude": -104.4396637,
    "latitude": 36.90092538,
    "phone": "5754459727",
    "website_url": "Http://www.ColfaxAleCellar.com",
    "state": "New Mexico",
    "street": "215 S 2nd St"
  },
  {
    "id": "ee97bdcf-d7b4-48f3-82a1-7983a370b7b1",
    "name": "Collection Brewing Company",
    "brewery_type": "planning",
    "address_1": null,
    "address_2": null,
    "address_3": null,
    "city": "Raleigh",
    "state_province": "North Carolina",
    "postal_code": "27614-8519",
    "country": "United States",
    "longitude": null,
    "latitude": null,
    "phone": null,
    "website_url": null,
    "state": "North Carolina",
    "street": null
  },
  {
    "id": "e099a46e-0e6a-4b90-9f77-432fd55ef3f6",
    "name": "College Point Brewery",
    "brewery_type": "planning",
    "address_1": null,
    "address_2": null,
    "address_3": null,
    "city": "College Point",
    "state_province": "New York",
    "postal_code": "11356-2715",
    "country": "United States",
    "longitude": null,
    "latitude": null,
    "phone": null,
    "website_url": null,
    "state": "New York",
    "street": null
  },
  {
    "id": "c96029a1-cb59-4de2-9a2b-3a8380964bde",
    "name": "College Street Brewhouse and Pub",
    "brewery_type": "micro",
    "address_1": "1940 College Dr",
    "address_2": null,
    "address_3": null,
    "city": "Lake Havasu City",
    "state_province": "Arizona",
    "postal_code": "86403-1981",
    "country": "United States",
    "longitude": -114.3475961,
    "latitude": 34.50754044,
    "phone": "9288542739",
    "website_url": null,
    "state": "Arizona",
    "street": "1940 College Dr"
  },
  {
    "id": "98e114d3-a3df-40c9-aab9-dc4d7b0287ce",
    "name": "Collision Bend Brewing Co",
    "brewery_type": "brewpub",
    "address_1": "1250 Old River Rd",
    "address_2": null,
    "address_3": null,
    "city": "Cleveland",
    "state_province": "Ohio",
    "postal_code": "44113-1243",
    "country": "United States",
    "longitude": -81.7039719,
    "latitude": 41.49884829,
    "phone": "2162737879",
    "website_url": "http://www.collisionbendbrewery.com",
    "state": "Ohio",
    "street": "1250 Old River Rd"
  },
  {
    "id": "64dc6a70-6169-4a42-9102-c6abf362bb9c",
    "name": "Colludium Brewery",
    "brewery_type": "planning",
    "address_1": null,
    "address_2": null,
    "address_3": null,
    "city": "Hattiesburg",
    "state_province": "Mississippi",
    "postal_code": "39401",
    "country": "United States",
    "longitude": null,
    "latitude": null,
    "phone": "6015202789",
    "website_url": "http://www.colludiumbrewery.com",
    "state": "Mississippi",
    "street": null
  },
  {
    "id": "ffe2b950-fcdc-4262-afa4-08f4efe138d7",
    "name": "Collusion Tap Works",
    "brewery_type": "brewpub",
    "address_1": "105 S Howard St",
    "address_2": null,
    "address_3": null,
    "city": "York",
    "state_province": "Pennsylvania",
    "postal_code": "17401-2001",
    "country": "United States",
    "longitude": -76.72393735,
    "latitude": 39.9618357,
    "phone": "7178488400",
    "website_url": "http://www.collusiontapworks.com",
    "state": "Pennsylvania",
    "street": "105 S Howard St"
  },
  {
    "id": "ad5ab314-fdc4-4f12-a3d5-6fbb4f8ed7a3",
    "name": "Colonsay Ales",
    "brewery_type": "micro",
    "address_1": "Colonsay Brewery",
    "address_2": "Dunoran",
    "address_3": "Scalasaig",
    "city": "Isle of Colonsay",
    "state_province": "Argyll",
    "postal_code": "PA61 7YZ",
    "country": "Scotland",
    "longitude": -6.2600129,
    "latitude": 56.0703454,
    "phone": "1951200190",
    "website_url": "https://colonsaybrewery.co.uk/",
    "state": "Argyll",
    "street": "Colonsay Brewery"
  },
  {
    "id": "6d861790-9ecf-490c-80b5-418ff488de5d",
    "name": "Colorado Boy Pizzeria",
    "brewery_type": "brewpub",
    "address_1": "320 E Main St",
    "address_2": null,
    "address_3": null,
    "city": "Montrose",
    "state_province": "Colorado",
    "postal_code": "81401-3928",
    "country": "United States",
    "longitude": -107.877366,
    "latitude": 38.47887872,
    "phone": "9702402790",
    "website_url": "http://www.coloradoboy.com",
    "state": "Colorado",
    "street": "320 E Main St"
  },
  {
    "id": "c0b1eb89-c49e-4506-88b7-a0c17c3e2243",
    "name": "Colorado Boy Pub & Brewery",
    "brewery_type": "brewpub",
    "address_1": "602 Clinton St.",
    "address_2": null,
    "address_3": null,
    "city": "Ridgway",
    "state_province": "Colorado",
    "postal_code": "81432-0877",
    "country": "United States",
    "longitude": -107.7577685,
    "latitude": 38.152358,
    "phone": "9706265333",
    "website_url": "http://www.coloradoboy.com",
    "state": "Colorado",
    "street": "602 Clinton St."
  },
  {
    "id": "aaf6059a-1d65-4e9f-9b58-bb23474087da",
    "name": "Colorado Farm Brewery",
    "brewery_type": "micro",
    "address_1": "2070 County Road 12 S",
    "address_2": null,
    "address_3": null,
    "city": "Alamosa",
    "state_province": "Colorado",
    "postal_code": "81101-9116",
    "country": "United States",
    "longitude": -105.9855918,
    "latitude": 37.40026048,
    "phone": "7195800051",
    "website_url": "http://www.cofarmbeer.com",
    "state": "Colorado",
    "street": "2070 County Road 12 S"
  },
  {
    "id": "ced7171c-5a4d-451b-9f7a-a8d9dc5a8ebc",
    "name": "Colorado Mountain Brewery",
    "brewery_type": "micro",
    "address_1": "1110 Interquest Pkwy",
    "address_2": null,
    "address_3": null,
    "city": "Colorado Springs",
    "state_province": "Colorado",
    "postal_code": "80921-4182",
    "country": "United States",
    "longitude": -104.8083989,
    "latitude": 38.99103716,
    "phone": "7192717951",
    "website_url": "http://www.cmbrew.com",
    "state": "Colorado",
    "street": "1110 Interquest Pkwy"
  },
  {
    "id": "092060be-42d8-4b37-8d91-d364b37109ea",
    "name": "Colorado Mountain Brewery At the Roundhouse",
    "brewery_type": "brewpub",
    "address_1": "600 S 21st St Unit 180",
    "address_2": null,
    "address_3": null,
    "city": "Colorado Springs",
    "state_province": "Colorado",
    "postal_code": "80904-3714",
    "country": "United States",
    "longitude": null,
    "latitude": null,
    "phone": "7194668240",
    "website_url": "http://www.cmbrew.com",
    "state": "Colorado",
    "street": "600 S 21st St Unit 180"
  },
  {
    "id": "f589e0ef-f14c-4a54-9745-c8f2ce1d5a53",
    "name": "Colorado Plus",
    "brewery_type": "brewpub",
    "address_1": "6995 W 38th Ave",
    "address_2": null,
    "address_3": null,
    "city": "Wheat Ridge",
    "state_province": "Colorado",
    "postal_code": "80033-4965",
    "country": "United States",
    "longitude": -105.0916384,
    "latitude": 39.7693524,
    "phone": "3038775957",
    "website_url": "http://coloradoplus.net",
    "state": "Colorado",
    "street": "6995 W 38th Ave"
  },
  {
    "id": "19199c69-60da-4683-a8ef-242e4d76bdf3",
    "name": "Columbia Craft Brewing Company",
    "brewery_type": "brewpub",
    "address_1": "520 Greene St",
    "address_2": null,
    "address_3": null,
    "city": "Columbia",
    "state_province": "South Carolina",
    "postal_code": "29201-3612",
    "country": "United States",
    "longitude": -81.04200957,
    "latitude": 33.99236663,
    "phone": "8037996027",
    "website_url": "http://www.columbiacraft.com",
    "state": "South Carolina",
    "street": "520 Greene St"
  },
  {
    "id": "efa39c35-5c38-490a-bd58-186a75a6ab61",
    "name": "Columbia Kettle Works",
    "brewery_type": "brewpub",
    "address_1": "40 N 3rd St",
    "address_2": null,
    "address_3": null,
    "city": "Columbia",
    "state_province": "Pennsylvania",
    "postal_code": "17512-1104",
    "country": "United States",
    "longitude": -76.50358705,
    "latitude": 40.03264918,
    "phone": "7173422374",
    "website_url": "http://www.columbiakettleworks.com",
    "state": "Pennsylvania",
    "street": "40 N 3rd St"
  },
  {
    "id": "da404ea3-c676-4894-b0db-eafe6df0e76e",
    "name": "Columbia River Brewing Co",
    "brewery_type": "brewpub",
    "address_1": "1728 NE 40th Ave",
    "address_2": null,
    "address_3": null,
    "city": "Portland",
    "state_province": "Oregon",
    "postal_code": "97212-5306",
    "country": "United States",
    "longitude": -122.6217524,
    "latitude": 45.5357321,
    "phone": "5039436157",
    "website_url": "http://www.columbiariverbrewpub.com",
    "state": "Oregon",
    "street": "1728 NE 40th Ave"
  },
  {
    "id": "d1fed527-6586-44e0-a8e4-cf5e10b4bb9c",
    "name": "Columbia Valley Brewing",
    "brewery_type": "micro",
    "address_1": "538 Riverside Dr",
    "address_2": null,
    "address_3": null,
    "city": "Wenatchee",
    "state_province": "Washington",
    "postal_code": "98801-6133",
    "country": "United States",
    "longitude": -120.3140272,
    "latitude": 47.43353015,
    "phone": "5098889993",
    "website_url": "http://www.columbiavalleybrewing.com",
    "state": "Washington",
    "street": "538 Riverside Dr"
  },
  {
    "id": "bbcde627-f506-4691-952b-2cf82d65addd",
    "name": "Columbus Brewing Co",
    "brewery_type": "regional",
    "address_1": "2555 Harrison Rd",
    "address_2": null,
    "address_3": null,
    "city": "Columbus",
    "state_province": "Ohio",
    "postal_code": "43204-3511",
    "country": "United States",
    "longitude": -83.0692897,
    "latitude": 39.9675898,
    "phone": "6142243626",
    "website_url": "http://www.columbusbrewing.com",
    "state": "Ohio",
    "street": "2555 Harrison Rd"
  },
  {
    "id": "6cc3bad6-987e-4b2b-87cf-a54860eabb33",
    "name": "Columbus House Brewery",
    "brewery_type": "micro",
    "address_1": "701 W North St",
    "address_2": null,
    "address_3": null,
    "city": "Fayetteville",
    "state_province": "Arkansas",
    "postal_code": "72701-1865",
    "country": "United States",
    "longitude": -94.16886854,
    "latitude": 36.0771652,
    "phone": "4799353752",
    "website_url": null,
    "state": "Arkansas",
    "street": "701 W North St"
  },
  {
    "id": "44892f34-eb78-4fc3-ace4-80a59ca7236b",
    "name": "Comanche Creek Brewing Co",
    "brewery_type": "micro",
    "address_1": "225 Comanche Creek Road",
    "address_2": null,
    "address_3": null,
    "city": "Eagle Nest",
    "state_province": "New Mexico",
    "postal_code": "87718",
    "country": "United States",
    "longitude": null,
    "latitude": null,
    "phone": "5753772337",
    "website_url": "http://www.comanchecreekbrewingco.com",
    "state": "New Mexico",
    "street": "225 Comanche Creek Road"
  },
  {
    "id": "e6bce769-14cc-4451-b15e-789526980662",
    "name": "Combustion Brewery",
    "brewery_type": "micro",
    "address_1": "80 W Church St Ste 101",
    "address_2": null,
    "address_3": null,
    "city": "Pickerington",
    "state_province": "Ohio",
    "postal_code": "43147-1484",
    "country": "United States",
    "longitude": null,
    "latitude": null,
    "phone": "6143628450",
    "website_url": "http://www.combustionbrewing.com",
    "state": "Ohio",
    "street": "80 W Church St Ste 101"
  }
]