[
  {
    "id": "1d44b1c0-1095-4636-bcd2-447a57ee658d",
    "name": "Lost Viking Brewing Company",
    "brewery_type": "planning",
    "address_1": null,
    "address_2": null,
    "address_3": null,
    "city": "Harwinton",
    "state_province": "Connecticut",
    "postal_code": "06013",
    "country": "United States",
    "longitude": null,
    "latitude": null,
    "phone": "2035256196",
    "website_url": "http://www.lostvikingbrew.com",
    "state": "Connecticut",
    "street": null
  },
  {
    "id": "4a83d1c5-b544-4472-a5ad-46a1cf9255ed",
    "name": "Lost Way Brewery",
    "brewery_type": "micro",
    "address_1": "614 3rd Ave",
    "address_2": null,
    "address_3": null,
    "city": "Holdrege",
    "state_province": "Nebraska",
    "postal_code": "68949-2701",
    "country": "United States",
    "longitude": -99.37228235,
    "latitude": 40.4368517,
    "phone": "3089950503",
    "website_url": "http://www.lostwaybrewery.com",
    "state": "Nebraska",
    "street": "614 3rd Ave"
  },
  {
    "id": "3ee1382d-61b5-4474-9bb0-65fe9182e327",
    "name": "Lost Winds Brewing Co",
    "brewery_type": "micro",
    "address_1": "924 Calle Negocio Ste C",
    "address_2": null,
    "address_3": null,
    "city": "San Clemente",
    "state_province": "California",
    "postal_code": "92673-6208",
    "country": "United States",
    "longitude": -117.6070025,
    "latitude": 33.45199517,
    "phone": "9492444288",
    "website_url": "http://www.lostwindsbrewing.com",
    "state": "California",
    "street": "924 Calle Negocio Ste C"
  },
  {
    "id": "8c740e50-5722-447f-b240-3b1815fb4154",
    "name": "Lot 50 Brewing",
    "brewery_type": "micro",
    "address_1": "112 E Court St",
    "address_2": null,
    "address_3": null,
    "city": "Paris",
    "state_province": "Illinois",
    "postal_code": "61944-2210",
    "country": "United States",
    "longitude": -87.70732557,
    "latitude": 39.61104231,
    "phone": "2172511493",
    "website_url": "http://www.lot50brewing.com",
    "state": "Illinois",
    "street": "112 E Court St"
  },
  {
    "id": "330d1efa-586a-43dd-ad93-613326719806",
    "name": "Lot 713 Craft Brewery",
    "brewery_type": "planning",
    "address_1": null,
    "address_2": null,
    "address_3": null,
    "city": "Riverside",
    "state_province": "California",
    "postal_code": "92506-3208",
    "country": "United States",
    "longitude": -117.3961623,
    "latitude": 33.9533546,
    "phone": null,
    "website_url": "http://www.lot713.com",
    "state": "California",
    "street": null
  },
  {
    "id": "54a64949-a029-4330-89ea-bf17eb7561bb",
    "name": "Loud Brewing Company",
    "brewery_type": "planning",
    "address_1": null,
    "address_2": null,
    "address_3": null,
    "city": "Duncannon",
    "state_province": "Pennsylvania",
    "postal_code": "17020-1201",
    "country": "United States",
    "longitude": null,
    "latitude": null,
    "phone": "7173190021",
    "website_url": null,
    "state": "Pennsylvania",
    "street": null
  },
  {
    "id": "a0627410-7fb1-436c-a020-fc853779ca68",
    "name": "Loud Shirt Brewing Co",
    "brewery_type": "micro",
    "address_1": "Roedean Road",
    "address_2": null,
    "address_3": null,
    "city": "Brighton",
    "state_province": "East Sussex",
    "postal_code": "BN2 5RU",
    "country": "England",
    "longitude": -0.106288,
    "latitude": 50.817144,
    "phone": "1273087077",
    "website_url": "https://loudshirtbeer.co.uk/",
    "state": "East Sussex",
    "street": "Roedean Road"
  },
  {
    "id": "91d01857-2545-4926-982b-7e67fdd539fe",
    "name": "Loudoun Brewing Co",
    "brewery_type": "micro",
    "address_1": "310 E Market St",
    "address_2": null,
    "address_3": null,
    "city": "Leesburg",
    "state_province": "Virginia",
    "postal_code": "20176-4101",
    "country": "United States",
    "longitude": -77.532576,
    "latitude": 39.09743,
    "phone": "5712236097",
    "website_url": "http://www.loudounbrewing.com",
    "state": "Virginia",
    "street": "310 E Market St"
  },
  {
    "id": "8b909c6f-b067-45df-b156-d5072b63db57",
    "name": "Lough Gill Brewery",
    "brewery_type": "micro",
    "address_1": "Cleveragh Business Park",
    "address_2": "The Back Ave",
    "address_3": null,
    "city": "Cleveragh",
    "state_province": "Sligo",
    "postal_code": "F91 H6CV",
    "country": "Ireland",
    "longitude": -8.4572863,
    "latitude": 54.2667763,
    "phone": "353872108159",
    "website_url": "https://loughgillbrewery.com/",
    "state": "Sligo",
    "street": "Cleveragh Business Park"
  },
  {
    "id": "6f8be6c1-a236-4fce-931a-7011b0815372",
    "name": "Louisa Brewing, LLC",
    "brewery_type": "planning",
    "address_1": null,
    "address_2": null,
    "address_3": null,
    "city": "Louisa",
    "state_province": "Virginia",
    "postal_code": "23093-5715",
    "country": "United States",
    "longitude": null,
    "latitude": null,
    "phone": "5409674873",
    "website_url": "http://www.louisabrewing.com",
    "state": "Virginia",
    "street": null
  },
  {
    "id": "c9ace846-b6fe-46b2-beca-46f8e081548a",
    "name": "Love City Brewing Company",
    "brewery_type": "micro",
    "address_1": "1016 Buttonwood St",
    "address_2": null,
    "address_3": null,
    "city": "Philadelphia",
    "state_province": "Pennsylvania",
    "postal_code": "19123-3703",
    "country": "United States",
    "longitude": -75.15509414,
    "latitude": 39.96067782,
    "phone": null,
    "website_url": "http://www.lovecitybrewing.com",
    "state": "Pennsylvania",
    "street": "1016 Buttonwood St"
  },
  {
    "id": "25b04c9e-5e96-4132-a2ff-c56bdfe06b75",
    "name": "LoveCraft Brewing Co",
    "brewery_type": "micro",
    "address_1": "275 5th St Ste 101",
    "address_2": null,
    "address_3": null,
    "city": "Bremerton",
    "state_province": "Washington",
    "postal_code": "98337-1907",
    "country": "United States",
    "longitude": -122.6257694,
    "latitude": 47.5664595,
    "phone": "2067174707",
    "website_url": "https://www.lovecraftbrewery.com",
    "state": "Washington",
    "street": "275 5th St Ste 101"
  },
  {
    "id": "94eb3df4-0a08-49cc-82af-4364006f756f",
    "name": "Lovelady Brewing Company",
    "brewery_type": "micro",
    "address_1": "20 S Water St",
    "address_2": null,
    "address_3": null,
    "city": "Henderson",
    "state_province": "Nevada",
    "postal_code": "89015-7223",
    "country": "United States",
    "longitude": -114.9878974,
    "latitude": 36.03805558,
    "phone": "7028578469",
    "website_url": "http://www.loveladybrewing.com",
    "state": "Nevada",
    "street": "20 S Water St"
  },
  {
    "id": "6922c3e4-d702-4872-8fe9-30385a052359",
    "name": "Loveland Aleworks",
    "brewery_type": "micro",
    "address_1": "118 W 4th St",
    "address_2": null,
    "address_3": null,
    "city": "Loveland",
    "state_province": "Colorado",
    "postal_code": "80537-5523",
    "country": "United States",
    "longitude": -105.0769672,
    "latitude": 40.39541012,
    "phone": "9704057465",
    "website_url": "http://www.lovelandaleworks.com",
    "state": "Colorado",
    "street": "118 W 4th St"
  },
  {
    "id": "cb9f3f48-0a0f-49a3-87df-c858feb01eec",
    "name": "Low Tide Brewing",
    "brewery_type": "micro",
    "address_1": "2863 Maybank Hwy",
    "address_2": null,
    "address_3": null,
    "city": "Johns Island",
    "state_province": "South Carolina",
    "postal_code": "29455-4808",
    "country": "United States",
    "longitude": null,
    "latitude": null,
    "phone": "8435017570",
    "website_url": "http://www.lowtidebrewing.com",
    "state": "South Carolina",
    "street": "2863 Maybank Hwy"
  },
  {
    "id": "2e6b60c6-46af-4e64-b541-58d36700a92c",
    "name": "Lowdown Brewery + Kitchen",
    "brewery_type": "brewpub",
    "address_1": "800 N Lincoln St Unit 2",
    "address_2": null,
    "address_3": null,
    "city": "Denver",
    "state_province": "Colorado",
    "postal_code": "80203-2710",
    "country": "United States",
    "longitude": null,
    "latitude": null,
    "phone": "7205248065",
    "website_url": "http://www.lowdownbrewery.com",
    "state": "Colorado",
    "street": "800 N Lincoln St Unit 2"
  },
  {
    "id": "55bc3336-5482-47b0-ae38-f25cf2fa79ec",
    "name": "Lowell Beer Works",
    "brewery_type": "brewpub",
    "address_1": "203 Cabot St",
    "address_2": null,
    "address_3": null,
    "city": "Lowell",
    "state_province": "Massachusetts",
    "postal_code": "01854-",
    "country": "United States",
    "longitude": -71.31643612,
    "latitude": 42.6505753,
    "phone": "9789372337",
    "website_url": null,
    "state": "Massachusetts",
    "street": "203 Cabot St"
  },
  {
    "id": "4565a652-7e93-45d2-957b-738bb0b5a63b",
    "name": "Lower East Side",
    "brewery_type": "bar",
    "address_1": "19 East Coast Road",
    "address_2": null,
    "address_3": "#01-02",
    "city": "Singapore",
    "state_province": "Singapore",
    "postal_code": "428746",
    "country": "Singapore",
    "longitude": 1.3045852951217,
    "latitude": 103.9024387,
    "phone": "+65 6348 1302",
    "website_url": null,
    "state": "Singapore",
    "street": "19 East Coast Road"
  },
  {
    "id": "dca49fa4-340f-489b-84da-c3c4b8389ff2",
    "name": "Lower Forge Brewery",
    "brewery_type": "micro",
    "address_1": "14 S Main St",
    "address_2": null,
    "address_3": null,
    "city": "Medford",
    "state_province": "New Jersey",
    "postal_code": "08055-2414",
    "country": "United States",
    "longitude": -74.82362556,
    "latitude": 39.89909629,
    "phone": "6099759532",
    "website_url": "http://www.lowerforge.com",
    "state": "New Jersey",
    "street": "14 S Main St"
  },
  {
    "id": "7f10f5fb-8cc6-430a-9c8a-50d7817db217",
    "name": "Lowercase Brewing",
    "brewery_type": "brewpub",
    "address_1": "6235 Airport Way S",
    "address_2": null,
    "address_3": null,
    "city": "Seattle",
    "state_province": "Washington",
    "postal_code": "98108-4377",
    "country": "United States",
    "longitude": -122.3146374,
    "latitude": 47.5483294,
    "phone": "2062584987",
    "website_url": "http://www.lowercasebrewing.com",
    "state": "Washington",
    "street": "6235 Airport Way S"
  },
  {
    "id": "099e4b04-ec6c-4b4f-8691-b1d202bd90c4",
    "name": "LTD Brewery",
    "brewery_type": "micro",
    "address_1": "725 Mainstreet",
    "address_2": null,
    "address_3": null,
    "city": "Hopkins",
    "state_province": "Minnesota",
    "postal_code": "55343-7624",
    "country": "United States",
    "longitude": null,
    "latitude": null,
    "phone": "9529382415",
    "website_url": "http://www.ltdbrewing.com",
    "state": "Minnesota",
    "street": "725 Mainstreet"
  },
  {
    "id": "4d1d38b6-5514-45bc-a020-74efd0c1bf8f",
    "name": "LTS Brewing Company",
    "brewery_type": "micro",
    "address_1": "2001 32nd Ave NW",
    "address_2": null,
    "address_3": null,
    "city": "Rochester",
    "state_province": "Minnesota",
    "postal_code": "55901-8321",
    "country": "United States",
    "longitude": -92.5104808,
    "latitude": 44.0447412,
    "phone": "5072268280",
    "website_url": "http://www.ltsbrewing.com",
    "state": "Minnesota",
    "street": "2001 32nd Ave NW"
  },
  {
    "id": "aefd86d4-eb51-4aae-bacb-bf1f69025b41",
    "name": "Lubec Brewing Co",
    "brewery_type": "brewpub",
    "address_1": "41 Water St",
    "address_2": null,
    "address_3": null,
    "city": "Lubec",
    "state_province": "Maine",
    "postal_code": "04652-",
    "country": "United States",
    "longitude": -66.98348086,
    "latitude": 44.86083118,
    "phone": "2077334555",
    "website_url": null,
    "state": "Maine",
    "street": "41 Water St"
  },
  {
    "id": "ac190eeb-bbab-4b65-8243-9f103c14bacf",
    "name": "Lucette Brewing Co",
    "brewery_type": "micro",
    "address_1": "910 Hudson Rd",
    "address_2": null,
    "address_3": null,
    "city": "Menomonie",
    "state_province": "Wisconsin",
    "postal_code": "54751-1748",
    "country": "United States",
    "longitude": -91.940075,
    "latitude": 44.875861,
    "phone": "7152316836",
    "website_url": "http://www.lucettebrewing.com",
    "state": "Wisconsin",
    "street": "910 Hudson Rd"
  },
  {
    "id": "3790c27b-c47f-4f4a-843a-6e056eb8a83d",
    "name": "Lucky Bucket Brewing Co",
    "brewery_type": "micro",
    "address_1": "11941 Centennial Rd Ste 1",
    "address_2": null,
    "address_3": null,
    "city": "La Vista",
    "state_province": "Nebraska",
    "postal_code": "68128-5623",
    "country": "United States",
    "longitude": -96.099373,
    "latitude": 41.169693,
    "phone": "4027638868",
    "website_url": "https://www.cutspike.com",
    "state": "Nebraska",
    "street": "11941 Centennial Rd Ste 1"
  },
  {
    "id": "97782b4a-4cfc-4168-8f18-48ed9c10abf5",
    "name": "Lucky City Brewing Co.",
    "brewery_type": "planning",
    "address_1": null,
    "address_2": null,
    "address_3": null,
    "city": "Reidsville",
    "state_province": "North Carolina",
    "postal_code": "27320-3810",
    "country": "United States",
    "longitude": null,
    "latitude": null,
    "phone": "3364716758",
    "website_url": "http://www.luckycitybrewing.com",
    "state": "North Carolina",
    "street": null
  },
  {
    "id": "73d6562a-6747-47fb-bc80-57dbc43603fb",
    "name": "Lucky Devil Brewing",
    "brewery_type": "contract",
    "address_1": "Frank H Ogawa Pl",
    "address_2": null,
    "address_3": null,
    "city": "Oakland",
    "state_province": "California",
    "postal_code": "94612",
    "country": "United States",
    "longitude": -122.2713141,
    "latitude": 37.80450396,
    "phone": "5109692865",
    "website_url": "http://www.luckydevilbrewery.com",
    "state": "California",
    "street": "Frank H Ogawa Pl"
  },
  {
    "id": "44c13b00-8a87-4aaa-9db8-a272329ef87e",
    "name": "Lucky Envelope Brewing",
    "brewery_type": "micro",
    "address_1": "907 NW 50th St",
    "address_2": null,
    "address_3": null,
    "city": "Seattle",
    "state_province": "Washington",
    "postal_code": "98107-3635",
    "country": "United States",
    "longitude": -122.3691135,
    "latitude": 47.6648583,
    "phone": "2062890425",
    "website_url": "http://www.luckyenvelopebrewing.com",
    "state": "Washington",
    "street": "907 NW 50th St"
  },
  {
    "id": "14562b70-98a6-4fe4-bbac-b71fdd5c1be3",
    "name": "Lucky Girl Brewing Co Crossroads",
    "brewery_type": "brewpub",
    "address_1": "34016 M 43",
    "address_2": null,
    "address_3": null,
    "city": "Paw Paw",
    "state_province": "Michigan",
    "postal_code": "49079-8464",
    "country": "United States",
    "longitude": null,
    "latitude": null,
    "phone": "2696280054",
    "website_url": "http://luckygirlcrossroads.com",
    "state": "Michigan",
    "street": "34016 M 43"
  },
  {
    "id": "e36dccc0-cc0f-4b80-845f-baedb1372426",
    "name": "Lucky Hare Brewing Company, Inc.",
    "brewery_type": "micro",
    "address_1": "6085 Beckhorn Road",
    "address_2": null,
    "address_3": null,
    "city": "Hector",
    "state_province": "New York",
    "postal_code": "14841",
    "country": "United States",
    "longitude": null,
    "latitude": null,
    "phone": "6075462036",
    "website_url": "http://www.luckyharebrewing.com",
    "state": "New York",
    "street": "6085 Beckhorn Road"
  },
  {
    "id": "7ba87c15-8af2-4dbc-b64f-fd28df2cfe02",
    "name": "Lucky Labrador Beer Hall",
    "brewery_type": "brewpub",
    "address_1": "1945 NW Quimby St",
    "address_2": null,
    "address_3": null,
    "city": "Portland",
    "state_province": "Oregon",
    "postal_code": "97209-1712",
    "country": "United States",
    "longitude": -122.6917362,
    "latitude": 45.53370375,
    "phone": "5035174352",
    "website_url": "http://www.luckylab.com",
    "state": "Oregon",
    "street": "1945 NW Quimby St"
  },
  {
    "id": "27cea017-91b4-4d46-951e-9eaa029a9322",
    "name": "Lucky Labrador Brewpub",
    "brewery_type": "micro",
    "address_1": "915 SE Hawthorne Blvd",
    "address_2": null,
    "address_3": null,
    "city": "Portland",
    "state_province": "Oregon",
    "postal_code": "97214-3545",
    "country": "United States",
    "longitude": -122.6564149,
    "latitude": 45.51247125,
    "phone": "5032363555",
    "website_url": "http://www.luckylab.com",
    "state": "Oregon",
    "street": "915 SE Hawthorne Blvd"
  },
  {
    "id": "19263853-9099-41a4-80ff-0c7e9905e9ee",
    "name": "Lucky Luke Brewing Company",
    "brewery_type": "micro",
    "address_1": "610 W Avenue O Ste 104",
    "address_2": null,
    "address_3": null,
    "city": "Palmdale",
    "state_province": "California",
    "postal_code": "93551-3610",
    "country": "United States",
    "longitude": -118.1411039,
    "latitude": 34.61623136,
    "phone": "6612705588",
    "website_url": "http://www.luckylukebrewing.com",
    "state": "California",
    "street": "610 W Avenue O Ste 104"
  },
  {
    "id": "674e3037-058b-4066-9de4-00b22fcad906",
    "name": "Lucky Monk Burger, Pizza & Beer Co",
    "brewery_type": "brewpub",
    "address_1": "105 Hollywood Blvd",
    "address_2": null,
    "address_3": null,
    "city": "South Barrington",
    "state_province": "Illinois",
    "postal_code": "60010-7121",
    "country": "United States",
    "longitude": null,
    "latitude": null,
    "phone": "8478980500",
    "website_url": "http://www.theluckymonk.com",
    "state": "Illinois",
    "street": "105 Hollywood Blvd"
  },
  {
    "id": "bb74ff2e-a0b7-457c-9b9e-7a7343cf91bc",
    "name": "Lucky Owl Brewing",
    "brewery_type": "micro",
    "address_1": "8660 Tamarack Trl",
    "address_2": null,
    "address_3": null,
    "city": "Chagrin Falls",
    "state_province": "Ohio",
    "postal_code": "44023-1876",
    "country": "United States",
    "longitude": null,
    "latitude": null,
    "phone": "4408363440",
    "website_url": "http://www.luckyowlbrewing.com",
    "state": "Ohio",
    "street": "8660 Tamarack Trl"
  },
  {
    "id": "c0e603fa-36fa-48e5-80fa-1008ba0af69e",
    "name": "Lucky Pigeon Brewing",
    "brewery_type": "planning",
    "address_1": null,
    "address_2": null,
    "address_3": null,
    "city": "Gorham",
    "state_province": "Maine",
    "postal_code": "04038-2371",
    "country": "United States",
    "longitude": null,
    "latitude": null,
    "phone": null,
    "website_url": null,
    "state": "Maine",
    "street": null
  },
  {
    "id": "5add03e6-9a49-4e98-89bd-8bf41dafb72e",
    "name": "Lucky Star Brewery",
    "brewery_type": "brewpub",
    "address_1": "219 S 2nd St",
    "address_2": null,
    "address_3": null,
    "city": "Miamisburg",
    "state_province": "Ohio",
    "postal_code": "45342-2924",
    "country": "United States",
    "longitude": -84.28782443,
    "latitude": 39.63943573,
    "phone": "9378662739",
    "website_url": "http://www.luckystarbrewery.com",
    "state": "Ohio",
    "street": "219 S 2nd St"
  },
  {
    "id": "a76253b7-d902-408b-af47-3cdf10a3e5c0",
    "name": "Lucky Town Brewing Co",
    "brewery_type": "micro",
    "address_1": "1710 N Mill St",
    "address_2": null,
    "address_3": null,
    "city": "Jackson",
    "state_province": "Mississippi",
    "postal_code": "39202-1536",
    "country": "United States",
    "longitude": -90.18857808,
    "latitude": 32.31965604,
    "phone": "6017900142",
    "website_url": "http://www.luckytownbrewing.com",
    "state": "Mississippi",
    "street": "1710 N Mill St"
  },
  {
    "id": "e1d96308-ade4-439a-b4e0-a90552b8b701",
    "name": "Lucky's 1313 Brewpub",
    "brewery_type": "brewpub",
    "address_1": "1313 Regent St",
    "address_2": null,
    "address_3": null,
    "city": "Madison",
    "state_province": "Wisconsin",
    "postal_code": "53715-1254",
    "country": "United States",
    "longitude": -89.40765838,
    "latitude": 43.06766144,
    "phone": "6082508989",
    "website_url": "http://www.luckys1313.com",
    "state": "Wisconsin",
    "street": "1313 Regent St"
  },
  {
    "id": "1d395c71-54a6-4af8-a0a3-21f5946f49ee",
    "name": "Ludington Bay Brewing Co",
    "brewery_type": "brewpub",
    "address_1": "515 S James St",
    "address_2": null,
    "address_3": null,
    "city": "Ludington",
    "state_province": "Michigan",
    "postal_code": "49431-2325",
    "country": "United States",
    "longitude": -86.44763415,
    "latitude": 43.95070214,
    "phone": "2312396690",
    "website_url": "http://ludingtonbaybrewing.com",
    "state": "Michigan",
    "street": "515 S James St"
  },
  {
    "id": "e13e9d88-359f-4e3d-b981-4753940c5455",
    "name": "Ludlam Island Brewery",
    "brewery_type": "micro",
    "address_1": "9 Stoney Ct Unit 3",
    "address_2": null,
    "address_3": null,
    "city": "Ocean View",
    "state_province": "New Jersey",
    "postal_code": "08230-1041",
    "country": "United States",
    "longitude": null,
    "latitude": null,
    "phone": "6092636969",
    "website_url": "http://ludlamisland.com",
    "state": "New Jersey",
    "street": "9 Stoney Ct Unit 3"
  },
  {
    "id": "51652e93-207c-47c3-8c98-dd4f1c81fd39",
    "name": "Lumber Barons Brewery",
    "brewery_type": "brewpub",
    "address_1": "804 E Midland St",
    "address_2": null,
    "address_3": null,
    "city": "Bay City",
    "state_province": "Michigan",
    "postal_code": "48706-4953",
    "country": "United States",
    "longitude": null,
    "latitude": null,
    "phone": "9898910100",
    "website_url": "http://www.lumberbaronsbrewery.com",
    "state": "Michigan",
    "street": "804 E Midland St"
  },
  {
    "id": "4e0b0d7e-31e4-42a8-abff-30757dc8e330",
    "name": "Lumber House Brewing Company",
    "brewery_type": "micro",
    "address_1": "30741 3rd AVE Suite 133",
    "address_2": null,
    "address_3": null,
    "city": "Black Diamond",
    "state_province": "Washington",
    "postal_code": "98010",
    "country": "United States",
    "longitude": -122.010144,
    "latitude": 47.327123,
    "phone": "4254320121",
    "website_url": "https://lumberhousebrew.com",
    "state": "Washington",
    "street": "30741 3rd AVE Suite 133"
  },
  {
    "id": "79ba2199-ced7-4dc5-a374-cbc05cd8fb39",
    "name": "Lumberbeard Brewing",
    "brewery_type": "micro",
    "address_1": "25 E 3rd Ave",
    "address_2": null,
    "address_3": null,
    "city": "Spokane",
    "state_province": "Washington",
    "postal_code": "99202",
    "country": "United States",
    "longitude": -117.4101242,
    "latitude": 47.65416824,
    "phone": "5093815142",
    "website_url": "https://lumberbeardbrewing.com",
    "state": "Washington",
    "street": "25 E 3rd Ave"
  },
  {
    "id": "97fb454b-8b8b-42e7-a89e-9355de3b76f2",
    "name": "Lumberyard Brewing Co Taproom and Grille",
    "brewery_type": "micro",
    "address_1": "5 S San Francisco St",
    "address_2": null,
    "address_3": null,
    "city": "Flagstaff",
    "state_province": "Arizona",
    "postal_code": "86001-5736",
    "country": "United States",
    "longitude": -111.648578,
    "latitude": 35.1964377,
    "phone": "9287792739",
    "website_url": "http://www.lumberyardbrewingcompany.com",
    "state": "Arizona",
    "street": "5 S San Francisco St"
  },
  {
    "id": "58d2915a-9712-4619-a54b-0dec8d6e64e3",
    "name": "Luminous Brewhouse",
    "brewery_type": "micro",
    "address_1": "504 Broadway St",
    "address_2": null,
    "address_3": null,
    "city": "Sheridan",
    "state_province": "Wyoming",
    "postal_code": "82801-3619",
    "country": "United States",
    "longitude": -106.953486,
    "latitude": 44.80297173,
    "phone": null,
    "website_url": "http://www.luminousbrewhouse.com",
    "state": "Wyoming",
    "street": "504 Broadway St"
  },
  {
    "id": "90d7563e-7ff5-4fb4-aab3-19275c21bd9d",
    "name": "Lumpy Ridge Brewing Co",
    "brewery_type": "micro",
    "address_1": "531 S St Vrain Ave",
    "address_2": null,
    "address_3": null,
    "city": "Estes Park",
    "state_province": "Colorado",
    "postal_code": "80517-7416",
    "country": "United States",
    "longitude": -105.503658,
    "latitude": 40.367158,
    "phone": "9702351752",
    "website_url": "http://www.lumpyridgebrewing.com",
    "state": "Colorado",
    "street": "531 S St Vrain Ave"
  },
  {
    "id": "71b04b23-ecaf-47fd-a76b-de4afa732ac9",
    "name": "Lunacy Brewing Company",
    "brewery_type": "micro",
    "address_1": "1500 Kings Hwy",
    "address_2": null,
    "address_3": null,
    "city": "Haddon Heights",
    "state_province": "New Jersey",
    "postal_code": "08035",
    "country": "United States",
    "longitude": null,
    "latitude": null,
    "phone": "8566170681",
    "website_url": "http://www.lunacybrewingcompany.com",
    "state": "New Jersey",
    "street": "1500 Kings Hwy"
  },
  {
    "id": "c883e57f-28d0-4793-bfc4-ef1d02e194e4",
    "name": "Lunar Brewing Co",
    "brewery_type": "proprietor",
    "address_1": "54 E Saint Charles Rd",
    "address_2": null,
    "address_3": null,
    "city": "Villa Park",
    "state_province": "Illinois",
    "postal_code": "60181-2434",
    "country": "United States",
    "longitude": -87.97720306,
    "latitude": 41.88987006,
    "phone": "6305302077",
    "website_url": "http://www.mypsace.com/LunaRbrewingco",
    "state": "Illinois",
    "street": "54 E Saint Charles Rd"
  },
  {
    "id": "2c1834c4-5ec7-42c2-85e6-43dad91a0a4e",
    "name": "Lunkenheimer Craft Brewing Co. LLC",
    "brewery_type": "micro",
    "address_1": "PO Box 539 8920 N Seneca St,",
    "address_2": null,
    "address_3": null,
    "city": "Weedsport",
    "state_province": "New York",
    "postal_code": "13166-0539",
    "country": "United States",
    "longitude": null,
    "latitude": null,
    "phone": "3158347027",
    "website_url": "http://www.lunkenheimercraftbrewing.com",
    "state": "New York",
    "street": "PO Box 539 8920 N Seneca St,"
  }
]