[
  {
    "id": "676ccc41-f722-484a-b4b8-c9b8713d6249",
    "name": "Bobtown Brewhouse & Grill",
    "brewery_type": "brewpub",
    "address_1": "220 W Main St",
    "address_2": null,
    "address_3": null,
    "city": "Roberts",
    "state_province": "Wisconsin",
    "postal_code": "54023",
    "country": "United States",
    "longitude": -92.55599,
    "latitude": 44.983639,
    "phone": "7153381046",
    "website_url": "http://www.bobtownbrewhouse.com",
    "state": "Wisconsin",
    "street": "220 W Main St"
  },
  {
    "id": "218c5541-892d-4bd8-9745-ebd90304f80b",
    "name": "Boerne Brewery",
    "brewery_type": "micro",
    "address_1": "9 Hill View Ln",
    "address_2": null,
    "address_3": null,
    "city": "Boerne",
    "state_province": "Texas",
    "postal_code": "78006-7003",
    "country": "United States",
    "longitude": null,
    "latitude": null,
    "phone": "8306889693",
    "website_url": "http://www.boernebrewery.com",
    "state": "Texas",
    "street": "9 Hill View Ln"
  },
  {
    "id": "3e64794e-5a83-41d5-b017-19fdc058cf3e",
    "name": "Boese Brothers Brewing",
    "brewery_type": "micro",
    "address_1": "601 Gold Ave SW",
    "address_2": null,
    "address_3": null,
    "city": "Albuquerque",
    "state_province": "New Mexico",
    "postal_code": "87102-3119",
    "country": "United States",
    "longitude": -106.654295,
    "latitude": 35.083957,
    "phone": "5053827060",
    "website_url": "http://www.boesebrothers.com",
    "state": "New Mexico",
    "street": "601 Gold Ave SW"
  },
  {
    "id": "b3e33c9a-90f4-4ea3-9177-3b05e2ce0062",
    "name": "Bog Brewing Company",
    "brewery_type": "micro",
    "address_1": "218 W King St",
    "address_2": null,
    "address_3": null,
    "city": "Saint Augustine",
    "state_province": "Florida",
    "postal_code": "32084-4144",
    "country": "United States",
    "longitude": -81.3267969,
    "latitude": 29.8908994,
    "phone": "9046793146",
    "website_url": "http://www.bogbrewery.com",
    "state": "Florida",
    "street": "218 W King St"
  },
  {
    "id": "8428c5dd-c356-482d-a9de-8af6b633447c",
    "name": "Bog Iron Brewing Co",
    "brewery_type": "micro",
    "address_1": "33 W Main St",
    "address_2": null,
    "address_3": null,
    "city": "Norton",
    "state_province": "Massachusetts",
    "postal_code": "02766-2711",
    "country": "United States",
    "longitude": -71.18849942,
    "latitude": 41.96658468,
    "phone": "5089520555",
    "website_url": null,
    "state": "Massachusetts",
    "street": "33 W Main St"
  },
  {
    "id": "1a423bc0-601e-49de-989b-f2847047207e",
    "name": "Bog Turtle Brewery, LLC",
    "brewery_type": "micro",
    "address_1": "14 S 3rd St Ste 1",
    "address_2": null,
    "address_3": null,
    "city": "Oxford",
    "state_province": "Pennsylvania",
    "postal_code": "19363-1601",
    "country": "United States",
    "longitude": null,
    "latitude": null,
    "phone": "4847580416",
    "website_url": "http://www.bogturtlebrewery.com",
    "state": "Pennsylvania",
    "street": "14 S 3rd St Ste 1"
  },
  {
    "id": "e55300d0-99ac-4968-9d27-8fdd0fd45a85",
    "name": "Bog's Edge Brewing Company",
    "brewery_type": "micro",
    "address_1": "3511 Blarney Rd",
    "address_2": null,
    "address_3": null,
    "city": "Warrens",
    "state_province": "Wisconsin",
    "postal_code": "54666-7000",
    "country": "United States",
    "longitude": -90.60271052305,
    "latitude": -44.782169839583,
    "phone": "6083436708",
    "website_url": "http://www.bogsedgebrewing.com",
    "state": "Wisconsin",
    "street": "3511 Blarney Rd"
  },
  {
    "id": "a36d09de-a9a0-4d01-8b2f-7db2c4ab48e3",
    "name": "Boggy Draw Brewery",
    "brewery_type": "micro",
    "address_1": "3535 S Platte River Dr Ste L",
    "address_2": null,
    "address_3": null,
    "city": "Sheridan",
    "state_province": "Colorado",
    "postal_code": "80110-3307",
    "country": "United States",
    "longitude": null,
    "latitude": null,
    "phone": "7209400338",
    "website_url": "http://www.boggydrawbrewing.com",
    "state": "Colorado",
    "street": "3535 S Platte River Dr Ste L"
  },
  {
    "id": "14c0503a-20dd-4b54-bb96-61c4f5abf7c5",
    "name": "Boghopper Brewery",
    "brewery_type": "micro",
    "address_1": "Kilderry Business Park",
    "address_2": "6 Kilderry Ln",
    "address_3": "Ardmore",
    "city": "Muff",
    "state_province": "Donegal",
    "postal_code": "F93 WN63",
    "country": "Ireland",
    "longitude": -7.262928486,
    "latitude": 55.06640125,
    "phone": "353873256993",
    "website_url": null,
    "state": "Donegal",
    "street": "Kilderry Business Park"
  },
  {
    "id": "dddce31e-3831-4366-ac7f-da653e730d2c",
    "name": "Bohemian Brewery and Grill",
    "brewery_type": "micro",
    "address_1": "94 7200 S",
    "address_2": null,
    "address_3": null,
    "city": "Midvale",
    "state_province": "Utah",
    "postal_code": "84047-1532",
    "country": "United States",
    "longitude": -111.894011,
    "latitude": 40.6206923,
    "phone": "8015665474",
    "website_url": "http://www.bohemianbrewery.com",
    "state": "Utah",
    "street": "94 7200 S"
  },
  {
    "id": "d6aff1d6-953e-4bc7-90b6-ce8ab896bb6e",
    "name": "Boiler Brewing Company",
    "brewery_type": "micro",
    "address_1": "129 N 10th St Ste 8",
    "address_2": null,
    "address_3": null,
    "city": "Lincoln",
    "state_province": "Nebraska",
    "postal_code": "68508-3633",
    "country": "United States",
    "longitude": -96.707404,
    "latitude": 40.814185,
    "phone": "4022618775",
    "website_url": "http://www.boilerbrewingcompany.com",
    "state": "Nebraska",
    "street": "129 N 10th St Ste 8"
  },
  {
    "id": "0237e528-96d2-41ef-8549-54611b40eaef",
    "name": "Boise Brewing",
    "brewery_type": "micro",
    "address_1": "521 W Broad St",
    "address_2": null,
    "address_3": null,
    "city": "Boise",
    "state_province": "Idaho",
    "postal_code": "83702-7642",
    "country": "United States",
    "longitude": -116.203056,
    "latitude": 43.611778,
    "phone": "2083427655",
    "website_url": "http://www.boisebrewing.com",
    "state": "Idaho",
    "street": "521 W Broad St"
  },
  {
    "id": "6ac83b12-2e87-47ac-a439-11af6b9038a2",
    "name": "Bold City Brewery",
    "brewery_type": "micro",
    "address_1": "2670 Rosselle St Ste 7",
    "address_2": null,
    "address_3": null,
    "city": "Jacksonville",
    "state_province": "Florida",
    "postal_code": "32204-3004",
    "country": "United States",
    "longitude": null,
    "latitude": null,
    "phone": "9043796551",
    "website_url": "http://www.boldcitybrewery.com",
    "state": "Florida",
    "street": "2670 Rosselle St Ste 7"
  },
  {
    "id": "823d7543-75ef-4ce6-b3f3-6108eea702f8",
    "name": "Bold City Brewery",
    "brewery_type": "micro",
    "address_1": "109 E Bay St",
    "address_2": null,
    "address_3": null,
    "city": "Jacksonville",
    "state_province": "Florida",
    "postal_code": "32202-3414",
    "country": "United States",
    "longitude": -81.656519,
    "latitude": 30.326002,
    "phone": "9045037682",
    "website_url": "http://www.boldcitybrewery.com",
    "state": "Florida",
    "street": "109 E Bay St"
  },
  {
    "id": "bcaa1166-a27a-447f-b057-3bf43d21ed68",
    "name": "Bold Missy Brewery",
    "brewery_type": "brewpub",
    "address_1": "610 Anderson St",
    "address_2": null,
    "address_3": null,
    "city": "Charlotte",
    "state_province": "North Carolina",
    "postal_code": "28205-1208",
    "country": "United States",
    "longitude": -80.796429,
    "latitude": 35.24960852,
    "phone": "9802994184",
    "website_url": "http://www.boldmissybrewery.com",
    "state": "North Carolina",
    "street": "610 Anderson St"
  },
  {
    "id": "b47c0e0d-23bf-4306-96eb-20f69302a63e",
    "name": "Bolero Snort Brewery",
    "brewery_type": "contract",
    "address_1": "65 Railroad Ave",
    "address_2": null,
    "address_3": null,
    "city": "Ridgefield Park",
    "state_province": "New Jersey",
    "postal_code": "07660-1321",
    "country": "United States",
    "longitude": -74.02983351,
    "latitude": 40.86058569,
    "phone": "2018193527",
    "website_url": "http://www.bolerosnort.com",
    "state": "New Jersey",
    "street": "65 Railroad Ave"
  },
  {
    "id": "1f2d069d-af7a-4b5f-813a-338360822902",
    "name": "Bolo Beer Co",
    "brewery_type": "micro",
    "address_1": "420 E 1st St",
    "address_2": null,
    "address_3": null,
    "city": "Valentine",
    "state_province": "Nebraska",
    "postal_code": "69201-1904",
    "country": "United States",
    "longitude": -100.5457277,
    "latitude": 42.87204733,
    "phone": null,
    "website_url": "http://www.bolobeer.com",
    "state": "Nebraska",
    "street": "420 E 1st St"
  },
  {
    "id": "8c4150d3-3edc-4b8d-bf03-0b89de7f4cf2",
    "name": "Bolt Brewery",
    "brewery_type": "brewpub",
    "address_1": "8179 Center St",
    "address_2": null,
    "address_3": null,
    "city": "La Mesa",
    "state_province": "California",
    "postal_code": "91942-2907",
    "country": "United States",
    "longitude": -117.02043,
    "latitude": 32.771889,
    "phone": "6193037837",
    "website_url": "http://www.boltbrewery.com",
    "state": "California",
    "street": "8179 Center St"
  },
  {
    "id": "f5da109c-ab26-413e-9c86-51a3c6086e29",
    "name": "Bolton Beer Works",
    "brewery_type": "brewpub",
    "address_1": "100 Wattaquadock Hill Rd",
    "address_2": null,
    "address_3": null,
    "city": "Bolton",
    "state_province": "Massachusetts",
    "postal_code": "01740-1238",
    "country": "United States",
    "longitude": -71.619812,
    "latitude": 42.430173,
    "phone": "9787795521",
    "website_url": "http://boltonbeerworks.com",
    "state": "Massachusetts",
    "street": "100 Wattaquadock Hill Rd"
  },
  {
    "id": "beb4abeb-3386-4ee8-9838-82ea78de6ecf",
    "name": "Bolton Landing Brewing Co.",
    "brewery_type": "micro",
    "address_1": "4933 Lake Shore Dr",
    "address_2": null,
    "address_3": null,
    "city": "Bolton Landing",
    "state_province": "New York",
    "postal_code": "12814-7757",
    "country": "United States",
    "longitude": -73.655636,
    "latitude": 43.555707,
    "phone": "5186442739",
    "website_url": "http://www.boltonlandingbrewing.com",
    "state": "New York",
    "street": "4933 Lake Shore Dr"
  },
  {
    "id": "5ae387ac-2a8a-4710-81e8-5df49d0c01c5",
    "name": "Bomb Plant Brewing Company",
    "brewery_type": "planning",
    "address_1": null,
    "address_2": null,
    "address_3": null,
    "city": "North Augusta",
    "state_province": "South Carolina",
    "postal_code": "29860-7462",
    "country": "United States",
    "longitude": null,
    "latitude": null,
    "phone": "7068042722",
    "website_url": "http://www.bombplantbrewing.com",
    "state": "South Carolina",
    "street": null
  },
  {
    "id": "c4476467-ca84-4c96-807f-9c91efefdd17",
    "name": "Bombastic Brewing",
    "brewery_type": "contract",
    "address_1": "11100 N Airport Rd",
    "address_2": null,
    "address_3": null,
    "city": "Hayden",
    "state_province": "Idaho",
    "postal_code": "83835",
    "country": "United States",
    "longitude": -116.8105485,
    "latitude": 47.772517,
    "phone": null,
    "website_url": "http://www.bombasticbrewing.com",
    "state": "Idaho",
    "street": "11100 N Airport Rd"
  },
  {
    "id": "ff3b3c00-18a2-4d67-ac98-ac289ef21ca1",
    "name": "Bombing Range Brewing Company",
    "brewery_type": "brewpub",
    "address_1": "2000 Logston Blvd Ste 126",
    "address_2": null,
    "address_3": null,
    "city": "Richland",
    "state_province": "Washington",
    "postal_code": "99354-5330",
    "country": "United States",
    "longitude": -119.2999357,
    "latitude": 46.3204119,
    "phone": "5093923377",
    "website_url": "http://www.bombingrangebrewing.com",
    "state": "Washington",
    "street": "2000 Logston Blvd Ste 126"
  },
  {
    "id": "b2c6e5d4-0637-44be-977b-ffb98569da4d",
    "name": "Bombs Away Beer Company",
    "brewery_type": "brewpub",
    "address_1": "9801 Acoma Rd SE",
    "address_2": null,
    "address_3": null,
    "city": "Albuquerque",
    "state_province": "New Mexico",
    "postal_code": "87123-3301",
    "country": "United States",
    "longitude": -106.53905,
    "latitude": 35.070904,
    "phone": "5055543204",
    "website_url": "http://www.bombsawaybeer.com",
    "state": "New Mexico",
    "street": "9801 Acoma Rd SE"
  },
  {
    "id": "43a54dba-6adf-4248-bffd-50e0cf422b93",
    "name": "Bombshell Beer Company",
    "brewery_type": "micro",
    "address_1": "120 Quantum Dr",
    "address_2": null,
    "address_3": null,
    "city": "Holly Springs",
    "state_province": "North Carolina",
    "postal_code": "27540-8861",
    "country": "United States",
    "longitude": -78.83588932,
    "latitude": 35.65841825,
    "phone": "9198231933",
    "website_url": "http://www.bombshellbeer.com",
    "state": "North Carolina",
    "street": "120 Quantum Dr"
  },
  {
    "id": "871b70be-e09e-4936-8b29-f92c0d2e2667",
    "name": "Bonaventure Brewing Co",
    "brewery_type": "brewpub",
    "address_1": "404 S Figueroa St Ste 418A",
    "address_2": null,
    "address_3": null,
    "city": "Los Angeles",
    "state_province": "California",
    "postal_code": "90071-1797",
    "country": "United States",
    "longitude": -118.2562113,
    "latitude": 34.05314634,
    "phone": "2132360802",
    "website_url": "http://www.bonaventurebrewing.com",
    "state": "California",
    "street": "404 S Figueroa St Ste 418A"
  },
  {
    "id": "1186065b-e2c7-4d71-8bc2-30bcdd0e6150",
    "name": "Bond Brothers Beer Company",
    "brewery_type": "micro",
    "address_1": "202 E Cedar St",
    "address_2": null,
    "address_3": null,
    "city": "Cary",
    "state_province": "North Carolina",
    "postal_code": "27511-3440",
    "country": "United States",
    "longitude": -78.77797444,
    "latitude": 35.78798475,
    "phone": "9194592670",
    "website_url": "http://www.bondbrothersbeer.com",
    "state": "North Carolina",
    "street": "202 E Cedar St"
  },
  {
    "id": "6387b802-f7f9-4b87-ae4a-2e8338b32163",
    "name": "Bond's Brewing Company - Buffalo",
    "brewery_type": "micro",
    "address_1": "93 N Main St",
    "address_2": null,
    "address_3": null,
    "city": "Buffalo",
    "state_province": "Wyoming",
    "postal_code": "82834-1814",
    "country": "United States",
    "longitude": -106.69885330015,
    "latitude": 44.348827226889,
    "phone": "3072780018",
    "website_url": "https://bondsbrewing.com",
    "state": "Wyoming",
    "street": "93 N Main St"
  },
  {
    "id": "80ec640a-2ad0-470b-acff-f2fbde534fa6",
    "name": "Bond's Brewing Company - Laramie",
    "brewery_type": "micro",
    "address_1": "411 S 2nd St",
    "address_2": null,
    "address_3": null,
    "city": "Laramie",
    "state_province": "Wyoming",
    "postal_code": "82070-3613",
    "country": "United States",
    "longitude": -105.59474553207,
    "latitude": 41.30975599718,
    "phone": "3074603385",
    "website_url": "https://bondsbrewing.com",
    "state": "Wyoming",
    "street": "411 S 2nd St"
  },
  {
    "id": "a2105e97-2f68-4d9d-a1eb-e2914936f086",
    "name": "Bone Hook Brewing Company",
    "brewery_type": "micro",
    "address_1": "1514 Immokalee Rd Unit 106",
    "address_2": null,
    "address_3": null,
    "city": "Naples",
    "state_province": "Florida",
    "postal_code": "34110-1454",
    "country": "United States",
    "longitude": null,
    "latitude": null,
    "phone": "2396318522",
    "website_url": "http://www.bonehookbrewing.com",
    "state": "Florida",
    "street": "1514 Immokalee Rd Unit 106"
  },
  {
    "id": "6c808c0d-3021-4545-ace7-652f67dd1d44",
    "name": "Bone Island Brewing",
    "brewery_type": "micro",
    "address_1": "1111 Eaton St",
    "address_2": null,
    "address_3": null,
    "city": "Key West",
    "state_province": "Florida",
    "postal_code": "33040-6926",
    "country": "United States",
    "longitude": -81.79651464,
    "latitude": 24.56141707,
    "phone": "3053043472",
    "website_url": "http://www.boneislandbrewing.com",
    "state": "Florida",
    "street": "1111 Eaton St"
  },
  {
    "id": "1c8aad05-295e-4362-b173-c4c48c287077",
    "name": "Bone Up Brewing Co.",
    "brewery_type": "micro",
    "address_1": "38 Norman St",
    "address_2": null,
    "address_3": null,
    "city": "Everett",
    "state_province": "Massachusetts",
    "postal_code": "02149-1932",
    "country": "United States",
    "longitude": -71.0663396,
    "latitude": 42.405551,
    "phone": "7816919092",
    "website_url": "http://www.boneup.beer",
    "state": "Massachusetts",
    "street": "38 Norman St"
  },
  {
    "id": "11c67cfd-3f90-4c50-896f-e4d9842f7b31",
    "name": "Bonesaw Brewing Co.",
    "brewery_type": "micro",
    "address_1": "570 Mullica Hill Road",
    "address_2": null,
    "address_3": null,
    "city": "Glassboro",
    "state_province": "New Jersey",
    "postal_code": "08028",
    "country": "United States",
    "longitude": -75.1354598,
    "latitude": 39.7129747,
    "phone": "8562435464",
    "website_url": "http://www.bonesawbrewing.com",
    "state": "New Jersey",
    "street": "570 Mullica Hill Road"
  },
  {
    "id": "f91384a3-fabc-4df3-a467-9e14d64efb84",
    "name": "Boneshire Brew Works",
    "brewery_type": "micro",
    "address_1": "7462 Derry St",
    "address_2": null,
    "address_3": null,
    "city": "Harrisburg",
    "state_province": "Pennsylvania",
    "postal_code": "17111-5228",
    "country": "United States",
    "longitude": -76.8712077,
    "latitude": 40.2633825,
    "phone": "7174127814",
    "website_url": "http://www.boneshire.com",
    "state": "Pennsylvania",
    "street": "7462 Derry St"
  },
  {
    "id": "a3bfaa8d-ad1e-4c84-ae0d-ed3918f5bd03",
    "name": "Boneyard Beer Co",
    "brewery_type": "micro",
    "address_1": "37 NW Lake Pl Ste B",
    "address_2": null,
    "address_3": null,
    "city": "Bend",
    "state_province": "Oregon",
    "postal_code": "97703-2971",
    "country": "United States",
    "longitude": -121.3080908,
    "latitude": 44.05412648,
    "phone": "5413232325",
    "website_url": null,
    "state": "Oregon",
    "street": "37 NW Lake Pl Ste B"
  },
  {
    "id": "c79f5c93-c9e1-4d12-a6a8-c3ac7510664a",
    "name": "Boneyard Beer Co",
    "brewery_type": "brewpub",
    "address_1": "1955 NE Division St",
    "address_2": null,
    "address_3": null,
    "city": "Bend",
    "state_province": "Oregon",
    "postal_code": "97701",
    "country": "United States",
    "longitude": -121.3065353,
    "latitude": 44.07094734,
    "phone": "5413232325",
    "website_url": "http://www.boneyardbeer.com",
    "state": "Oregon",
    "street": "1955 NE Division St"
  },
  {
    "id": "f3cd9907-119e-4d36-82f3-64cceb23c7e0",
    "name": "Bonfire Brewing",
    "brewery_type": "micro",
    "address_1": "127 W 2nd St",
    "address_2": null,
    "address_3": null,
    "city": "Eagle",
    "state_province": "Colorado",
    "postal_code": "81631",
    "country": "United States",
    "longitude": -106.82826,
    "latitude": 39.65531966,
    "phone": "9703067113",
    "website_url": "http://www.bonfirebrewing.com",
    "state": "Colorado",
    "street": "127 W 2nd St"
  },
  {
    "id": "2d8a902e-c960-46cc-9222-9dfb2cdfeb46",
    "name": "Bonfire Brewing Production",
    "brewery_type": "micro",
    "address_1": "936 Chambers Ct. B-4",
    "address_2": null,
    "address_3": null,
    "city": "Eagle",
    "state_province": "Colorado",
    "postal_code": "81631-5276",
    "country": "United States",
    "longitude": null,
    "latitude": null,
    "phone": "9703067113",
    "website_url": null,
    "state": "Colorado",
    "street": "936 Chambers Ct. B-4"
  },
  {
    "id": "402b5bb1-9aa8-4e55-9215-824957bf45f5",
    "name": "Bonn Place Brewing",
    "brewery_type": "micro",
    "address_1": "310 Taylor St",
    "address_2": null,
    "address_3": null,
    "city": "Bethlehem",
    "state_province": "Pennsylvania",
    "postal_code": "18015",
    "country": "United States",
    "longitude": -75.3745048,
    "latitude": 40.6116536,
    "phone": "6104196660",
    "website_url": "http://www.bonnbrewing.com",
    "state": "Pennsylvania",
    "street": "310 Taylor St"
  },
  {
    "id": "66ab4fe9-46a6-480c-ba0e-d9044e233017",
    "name": "Bonneville Brewery",
    "brewery_type": "micro",
    "address_1": "1641 N Main St",
    "address_2": null,
    "address_3": null,
    "city": "Tooele",
    "state_province": "Utah",
    "postal_code": "84074-8023",
    "country": "United States",
    "longitude": -112.2978178,
    "latitude": 40.55980233,
    "phone": "4352480652",
    "website_url": null,
    "state": "Utah",
    "street": "1641 N Main St"
  },
  {
    "id": "800af4b4-2ba1-4fb1-9712-66d5d514912b",
    "name": "Bonsai Brewing Project",
    "brewery_type": "brewpub",
    "address_1": "549 Wisconsin Ave",
    "address_2": null,
    "address_3": null,
    "city": "Whitefish",
    "state_province": "Montana",
    "postal_code": "59937-2127",
    "country": "United States",
    "longitude": -114.3406189,
    "latitude": 48.4214453,
    "phone": "4067301717",
    "website_url": "http://bonsaibrew.com",
    "state": "Montana",
    "street": "549 Wisconsin Ave"
  },
  {
    "id": "1e9d4558-c7eb-44a6-b943-1f7c2f39f9c5",
    "name": "Boojum Brewing Company",
    "brewery_type": "micro",
    "address_1": "357 Dayton Dr",
    "address_2": null,
    "address_3": null,
    "city": "Waynesville",
    "state_province": "North Carolina",
    "postal_code": "28786-6931",
    "country": "United States",
    "longitude": -82.99383657,
    "latitude": 35.52574804,
    "phone": "8289440888",
    "website_url": "http://www.BoojumBrewing.com",
    "state": "North Carolina",
    "street": "357 Dayton Dr"
  },
  {
    "id": "2efab57a-8614-428d-a5e2-a6a528dd6cac",
    "name": "Bookhouse Brewing, LLC.",
    "brewery_type": "planning",
    "address_1": null,
    "address_2": null,
    "address_3": null,
    "city": "Cleveland",
    "state_province": "Ohio",
    "postal_code": "44113-3104",
    "country": "United States",
    "longitude": null,
    "latitude": null,
    "phone": "4144264555",
    "website_url": "http://www.bookhouse.beer",
    "state": "Ohio",
    "street": null
  },
  {
    "id": "dda9e364-55af-4b00-acd9-5d59cb82313b",
    "name": "Books & Brews",
    "brewery_type": "brewpub",
    "address_1": "9402 Uptown Dr Ste 1400",
    "address_2": null,
    "address_3": null,
    "city": "Indianapolis",
    "state_province": "Indiana",
    "postal_code": "46256-1076",
    "country": "United States",
    "longitude": null,
    "latitude": null,
    "phone": "3172885136",
    "website_url": "http://www.booksnbrews.com",
    "state": "Indiana",
    "street": "9402 Uptown Dr Ste 1400"
  },
  {
    "id": "32f78839-6d32-4162-bb75-8e4f714077bf",
    "name": "Boom City Brewing",
    "brewery_type": "brewpub",
    "address_1": "317 Pine St",
    "address_2": null,
    "address_3": null,
    "city": "Williamsport",
    "state_province": "Pennsylvania",
    "postal_code": "17701-6509",
    "country": "United States",
    "longitude": -77.00331232,
    "latitude": 41.24108564,
    "phone": "2722022956",
    "website_url": "http://www.boomcitybrewing.com",
    "state": "Pennsylvania",
    "street": "317 Pine St"
  },
  {
    "id": "abcf36fa-7b69-4a58-b471-f4511a80512c",
    "name": "Boom Island Brewing Company",
    "brewery_type": "micro",
    "address_1": "2014 Washington Ave North #300",
    "address_2": null,
    "address_3": null,
    "city": "Minneapolis",
    "state_province": "Minnesota",
    "postal_code": "55411-2220",
    "country": "United States",
    "longitude": -93.2739955,
    "latitude": 44.9855585,
    "phone": "6122279635",
    "website_url": "http://www.boomislandbrewing.com",
    "state": "Minnesota",
    "street": "2014 Washington Ave North #300"
  },
  {
    "id": "aa877eb8-397a-4230-a379-c9424d9ca96d",
    "name": "Boomtown Brewery",
    "brewery_type": "micro",
    "address_1": "700 Jackson St",
    "address_2": null,
    "address_3": null,
    "city": "Los Angeles",
    "state_province": "California",
    "postal_code": "90012-3443",
    "country": "United States",
    "longitude": -118.233179,
    "latitude": 34.0507711,
    "phone": "2136178497",
    "website_url": "http://www.boomtownbrew.com",
    "state": "California",
    "street": "700 Jackson St"
  },
  {
    "id": "edfa72b9-a54d-44db-94fd-6714470fef11",
    "name": "BoomTown Brewery and Woodfire Grill",
    "brewery_type": "brewpub",
    "address_1": "531 E Howard St",
    "address_2": null,
    "address_3": null,
    "city": "Hibbing",
    "state_province": "Minnesota",
    "postal_code": "55746-1713",
    "country": "United States",
    "longitude": -92.9355964,
    "latitude": 47.4276931,
    "phone": "2184401710",
    "website_url": "http://www.boomtownwoodfire.com",
    "state": "Minnesota",
    "street": "531 E Howard St"
  },
  {
    "id": "01f95ff4-9f8a-4626-8b01-75efb27f8673",
    "name": "Boondocks Brewing",
    "brewery_type": "brewpub",
    "address_1": "302 S Jefferson Ave",
    "address_2": null,
    "address_3": null,
    "city": "West Jefferson",
    "state_province": "North Carolina",
    "postal_code": "28694-",
    "country": "United States",
    "longitude": -81.49133567,
    "latitude": 36.39941459,
    "phone": "3362465222",
    "website_url": "http://www.boondocksbrew.com",
    "state": "North Carolina",
    "street": "302 S Jefferson Ave"
  },
  {
    "id": "f09bda30-0156-41cf-ba7d-1625ff37dad0",
    "name": "Boondoggle Brewing",
    "brewery_type": "contract",
    "address_1": "553 Maple St",
    "address_2": null,
    "address_3": null,
    "city": "Wethersfield",
    "state_province": "Connecticut",
    "postal_code": "06109-3732",
    "country": "United States",
    "longitude": -72.66458677,
    "latitude": 41.6838887,
    "phone": "8603367366",
    "website_url": "http://www.boondogglebeers.com",
    "state": "Connecticut",
    "street": "553 Maple St"
  }
]