[
  {
    "id": "8ecc98ad-0ed5-4738-b0f6-71164c49da3c",
    "name": "Latitude 33 Brewing Co",
    "brewery_type": "micro",
    "address_1": "1430 Vantage Ct Ste 104",
    "address_2": null,
    "address_3": null,
    "city": "Vista",
    "state_province": "California",
    "postal_code": "92081-8545",
    "country": "United States",
    "longitude": -117.22485,
    "latitude": 33.136105,
    "phone": "7604106333",
    "website_url": "http://www.latitude33brewing.com",
    "state": "California",
    "street": "1430 Vantage Ct Ste 104"
  },
  {
    "id": "6eea2677-7c24-43d8-9735-53c6a1584d7a",
    "name": "Latitude 42",
    "brewery_type": "brewpub",
    "address_1": "7842 Portage Rd Attn: Scott Freitas",
    "address_2": null,
    "address_3": null,
    "city": "Portage",
    "state_province": "Michigan",
    "postal_code": "49002-4472",
    "country": "United States",
    "longitude": null,
    "latitude": null,
    "phone": "2694594242",
    "website_url": "http://www.latitude42brewingco.com",
    "state": "Michigan",
    "street": "7842 Portage Rd Attn: Scott Freitas"
  },
  {
    "id": "6e780304-7cea-43ee-893f-74819c224a86",
    "name": "LauderAle",
    "brewery_type": "micro",
    "address_1": "3305 SE 14th Ave Bldg 4",
    "address_2": null,
    "address_3": null,
    "city": "Fort Lauderdale",
    "state_province": "Florida",
    "postal_code": "33316-4212",
    "country": "United States",
    "longitude": null,
    "latitude": null,
    "phone": "9546539711",
    "website_url": "http://www.lauderale.co",
    "state": "Florida",
    "street": "3305 SE 14th Ave Bldg 4"
  },
  {
    "id": "e4c8261f-0f96-4951-81a6-667166ce4586",
    "name": "Laughing Dog Brewing",
    "brewery_type": "micro",
    "address_1": "805 Schweitzer Plaza Dr",
    "address_2": null,
    "address_3": null,
    "city": "Ponderay",
    "state_province": "Idaho",
    "postal_code": "83852-9823",
    "country": "United States",
    "longitude": -116.5464216,
    "latitude": 48.3050088,
    "phone": "2082639222",
    "website_url": "http://www.laughingdogbrewing.com",
    "state": "Idaho",
    "street": "805 Schweitzer Plaza Dr"
  },
  {
    "id": "8c762397-a0f7-444f-bd6b-5f07d2915f20",
    "name": "Laughing Monk Brewing",
    "brewery_type": "micro",
    "address_1": "1439 Egbert Ave Unit A",
    "address_2": null,
    "address_3": null,
    "city": "San Francisco",
    "state_province": "California",
    "postal_code": "94124-3221",
    "country": "United States",
    "longitude": -122.3934567,
    "latitude": 37.72320112,
    "phone": "4158905970",
    "website_url": "http://www.laughingmonkbrewing.com",
    "state": "California",
    "street": "1439 Egbert Ave Unit A"
  },
  {
    "id": "1f975c95-1cf7-45d7-b3c4-1393462508fc",
    "name": "Laughing Sun Brewing",
    "brewery_type": "micro",
    "address_1": "1023 E Front Ave",
    "address_2": null,
    "address_3": null,
    "city": "Bismarck",
    "state_province": "North Dakota",
    "postal_code": "58504-5652",
    "country": "United States",
    "longitude": -100.7757809,
    "latitude": 46.80388227,
    "phone": "7014009750",
    "website_url": "http://www.laughingsunbrewing.com",
    "state": "North Dakota",
    "street": "1023 E Front Ave"
  },
  {
    "id": "b95af364-dbcf-4842-8a12-59d3c2e41fea",
    "name": "Laughinghouse Brewing",
    "brewery_type": "nano",
    "address_1": "7 Austin Rd",
    "address_2": null,
    "address_3": null,
    "city": "Amherst",
    "state_province": "New Hampshire",
    "postal_code": "03031",
    "country": "United States",
    "longitude": null,
    "latitude": null,
    "phone": null,
    "website_url": null,
    "state": "New Hampshire",
    "street": "7 Austin Rd"
  },
  {
    "id": "eb3bca03-12e0-49b2-ae4f-42616521289c",
    "name": "Launch Pad Brewery",
    "brewery_type": "micro",
    "address_1": "884 S Buckley Rd",
    "address_2": null,
    "address_3": null,
    "city": "Aurora",
    "state_province": "Colorado",
    "postal_code": "80017-3174",
    "country": "United States",
    "longitude": -104.7911253,
    "latitude": 39.6853036,
    "phone": "7208782627",
    "website_url": "http://www.launchpadbrewery.com",
    "state": "Colorado",
    "street": "884 S Buckley Rd"
  },
  {
    "id": "f8b827e6-e5f7-4a49-b8bf-f07450505cff",
    "name": "Laurel Highlands Brewing",
    "brewery_type": "micro",
    "address_1": "21 Enamel St",
    "address_2": null,
    "address_3": null,
    "city": "Uniontown",
    "state_province": "Pennsylvania",
    "postal_code": "15401-",
    "country": "United States",
    "longitude": -79.71813225,
    "latitude": 39.91008063,
    "phone": "7248805497",
    "website_url": "http://www.laurelhighlandsbrewing.com",
    "state": "Pennsylvania",
    "street": "21 Enamel St"
  },
  {
    "id": "06340393-a873-4844-92ad-fc352d19967b",
    "name": "Laurelwood Public House & Brewery - SE Portland",
    "brewery_type": "brewpub",
    "address_1": "6716 SE Milwaukie Ave",
    "address_2": null,
    "address_3": null,
    "city": "Portland",
    "state_province": "Oregon",
    "postal_code": "97202-5618",
    "country": "United States",
    "longitude": -122.6484951,
    "latitude": 45.47415655,
    "phone": "5039436157",
    "website_url": null,
    "state": "Oregon",
    "street": "6716 SE Milwaukie Ave"
  },
  {
    "id": "280f45f0-7772-4ce5-aa97-b2c83e815950",
    "name": "Laurelwood Public House and Brewery - NE",
    "brewery_type": "closed",
    "address_1": "14300 NE 145th St",
    "address_2": null,
    "address_3": null,
    "city": "Woodinville",
    "state_province": "Washington",
    "postal_code": "98072-6950",
    "country": "United States",
    "longitude": -122.1460064,
    "latitude": 47.7328255,
    "phone": "4254833232",
    "website_url": null,
    "state": "Washington",
    "street": "14300 NE 145th St"
  },
  {
    "id": "1a73f78b-ca39-46f4-a6ed-71b22876889b",
    "name": "Laurelwood Public House and Brewery - NE",
    "brewery_type": "micro",
    "address_1": "5115 NE Sandy Blvd",
    "address_2": null,
    "address_3": null,
    "city": "Portland",
    "state_province": "Oregon",
    "postal_code": "97213-2525",
    "country": "United States",
    "longitude": -122.6106727,
    "latitude": 45.54014675,
    "phone": "5032820622",
    "website_url": "http://laurelwoodbrewingco.com",
    "state": "Oregon",
    "street": "5115 NE Sandy Blvd"
  },
  {
    "id": "3ee87e75-96e5-44d9-bd1c-0768d71ca878",
    "name": "Lava Rock Brewing Company",
    "brewery_type": "brewpub",
    "address_1": "2220 Unser Blvd",
    "address_2": null,
    "address_3": null,
    "city": "Albuquerque",
    "state_province": "New Mexico",
    "postal_code": "87120",
    "country": "United States",
    "longitude": -106.7227497,
    "latitude": 35.0769954,
    "phone": "5058361022",
    "website_url": "http://www.lavarockbrewpub.com",
    "state": "New Mexico",
    "street": "2220 Unser Blvd"
  },
  {
    "id": "602ed446-ac06-416d-bd88-ab80e8e95bec",
    "name": "Lavery Brewing Co",
    "brewery_type": "micro",
    "address_1": "128 W 12th St",
    "address_2": null,
    "address_3": null,
    "city": "Erie",
    "state_province": "Pennsylvania",
    "postal_code": "16501-1750",
    "country": "United States",
    "longitude": -80.1219366,
    "latitude": 42.108963,
    "phone": "8144540405",
    "website_url": "http://www.laverybrewing.com",
    "state": "Pennsylvania",
    "street": "128 W 12th St"
  },
  {
    "id": "dcc25aca-8440-4542-a8b4-120d13f83527",
    "name": "Lawless Brewing",
    "brewery_type": "planning",
    "address_1": null,
    "address_2": null,
    "address_3": null,
    "city": "Los Angeles",
    "state_province": "California",
    "postal_code": "90068-1436",
    "country": "United States",
    "longitude": -118.2427669,
    "latitude": 34.0536834,
    "phone": "8184567345",
    "website_url": "http://www.lawlessbeer.com",
    "state": "California",
    "street": null
  },
  {
    "id": "adee1eae-92a4-4ce5-80c3-bff045a4dd7a",
    "name": "Lawrence Beer Company",
    "brewery_type": "brewpub",
    "address_1": "826 Pennsylvania St",
    "address_2": null,
    "address_3": null,
    "city": "Lawrence",
    "state_province": "Kansas",
    "postal_code": "66044-2754",
    "country": "United States",
    "longitude": -95.2285539,
    "latitude": 38.9683511,
    "phone": "7858560453",
    "website_url": "http://www.lawrencebeerco.com",
    "state": "Kansas",
    "street": "826 Pennsylvania St"
  },
  {
    "id": "1100b021-9189-4b09-9d0b-73c66782136b",
    "name": "Lawson's Finest Liquids",
    "brewery_type": "micro",
    "address_1": null,
    "address_2": null,
    "address_3": null,
    "city": "Warren",
    "state_province": "Vermont",
    "postal_code": "05674",
    "country": "United States",
    "longitude": null,
    "latitude": null,
    "phone": "8024964677",
    "website_url": "http://www.lawsonsfinest.com",
    "state": "Vermont",
    "street": null
  },
  {
    "id": "b34a359c-6b74-4f5a-8900-cca5edc1aef6",
    "name": "Laxton Hollow Brewing Works",
    "brewery_type": "micro",
    "address_1": "302 E Main St",
    "address_2": null,
    "address_3": null,
    "city": "Mansfield",
    "state_province": "Ohio",
    "postal_code": "44904-1300",
    "country": "United States",
    "longitude": null,
    "latitude": null,
    "phone": "4195252842",
    "website_url": "http://www.laxtonhollow.com",
    "state": "Ohio",
    "street": "302 E Main St"
  },
  {
    "id": "fb886548-908a-4589-9c34-aa5bebe7a114",
    "name": "Lazarus Brewing Company",
    "brewery_type": "brewpub",
    "address_1": "1902 E 6th St",
    "address_2": null,
    "address_3": null,
    "city": "Austin",
    "state_province": "Texas",
    "postal_code": "78702-3402",
    "country": "United States",
    "longitude": -97.7220388,
    "latitude": 30.2616838,
    "phone": null,
    "website_url": "http://www.lazarusbrewing.com",
    "state": "Texas",
    "street": "1902 E 6th St"
  },
  {
    "id": "09c592e2-4f01-4f54-aca1-25ce4c42daba",
    "name": "Lazlo's Brewery & Grill - Haymarket",
    "brewery_type": "brewpub",
    "address_1": "210 N 7th St",
    "address_2": null,
    "address_3": null,
    "city": "Lincoln",
    "state_province": "Nebraska",
    "postal_code": "68508-1301",
    "country": "United States",
    "longitude": -96.71088449,
    "latitude": 40.81497373,
    "phone": "4024345636",
    "website_url": "https://lazlosbreweryandgrill.com",
    "state": "Nebraska",
    "street": "210 N 7th St"
  },
  {
    "id": "21575f11-4155-422f-b3ba-741f3261dc30",
    "name": "Lazy Beach Brewing",
    "brewery_type": "micro",
    "address_1": "7522 Bichon Dr Ste 100",
    "address_2": null,
    "address_3": null,
    "city": "Corpus Christi",
    "state_province": "Texas",
    "postal_code": "78414-3910",
    "country": "United States",
    "longitude": -97.3721494,
    "latitude": 27.6545883,
    "phone": "3616935347",
    "website_url": "http://lazybeachbrewing.com",
    "state": "Texas",
    "street": "7522 Bichon Dr Ste 100"
  },
  {
    "id": "7f3b7fb8-4656-4abf-b40a-8b1c2fbac82d",
    "name": "Lazy Boy Brewing",
    "brewery_type": "micro",
    "address_1": "715 100th St SE Ste A1",
    "address_2": null,
    "address_3": null,
    "city": "Everett",
    "state_province": "Washington",
    "postal_code": "98208-3762",
    "country": "United States",
    "longitude": -122.2208542,
    "latitude": 47.9088448,
    "phone": "4254237700",
    "website_url": "http://www.lazyboybrewing.com",
    "state": "Washington",
    "street": "715 100th St SE Ste A1"
  },
  {
    "id": "a78bc94c-b905-49fc-ad69-8d7fbf52cdfc",
    "name": "Lazy Hiker Brewing Co.",
    "brewery_type": "micro",
    "address_1": "188 W Main St",
    "address_2": null,
    "address_3": null,
    "city": "Franklin",
    "state_province": "North Carolina",
    "postal_code": "28734-2949",
    "country": "United States",
    "longitude": -83.3828255,
    "latitude": 35.18133363,
    "phone": "8283492337",
    "website_url": "http://www.lazyhikerbrewing.com",
    "state": "North Carolina",
    "street": "188 W Main St"
  },
  {
    "id": "4ca6c0a9-4e75-484a-aa6e-fe609887a7c1",
    "name": "Lazy Horse Brewing and Vineyard",
    "brewery_type": "brewpub",
    "address_1": "211 Road 20",
    "address_2": null,
    "address_3": null,
    "city": "Ohiowa",
    "state_province": "Nebraska",
    "postal_code": "68416-3005",
    "country": "United States",
    "longitude": -97.461952,
    "latitude": 40.37289,
    "phone": "4023145266",
    "website_url": "https://www.lazyhorsevineyard.com",
    "state": "Nebraska",
    "street": "211 Road 20"
  },
  {
    "id": "147013b0-866c-4579-9312-5277df314577",
    "name": "Lazy Loon Brewing Co",
    "brewery_type": "micro",
    "address_1": "8750 County Road 43",
    "address_2": null,
    "address_3": null,
    "city": "Chaska",
    "state_province": "Minnesota",
    "postal_code": "55318-9358",
    "country": "United States",
    "longitude": null,
    "latitude": null,
    "phone": "9524673500",
    "website_url": "http://www.lazyloonbrewing.com",
    "state": "Minnesota",
    "street": "8750 County Road 43"
  },
  {
    "id": "7a980f26-f18f-48a1-8a1c-7bec1dc79e83",
    "name": "Lazy Magnolia Brewing Co, LLC",
    "brewery_type": "micro",
    "address_1": "7030 Roscoe Turner Rd",
    "address_2": null,
    "address_3": null,
    "city": "Kiln",
    "state_province": "Mississippi",
    "postal_code": "39556-8000",
    "country": "United States",
    "longitude": -89.44948769,
    "latitude": 30.37690176,
    "phone": "2284672727",
    "website_url": "http://www.lazymagnolia.com",
    "state": "Mississippi",
    "street": "7030 Roscoe Turner Rd"
  },
  {
    "id": "2df2e1c7-aa9e-4d9a-8c71-fbb28559e840",
    "name": "Lazy Monk Brewing",
    "brewery_type": "micro",
    "address_1": "320 Putnam St Unit 4",
    "address_2": null,
    "address_3": null,
    "city": "Eau Claire",
    "state_province": "Wisconsin",
    "postal_code": "54703-3896",
    "country": "United States",
    "longitude": null,
    "latitude": null,
    "phone": "7152710848",
    "website_url": "http://www.lazymonkbrewing.com",
    "state": "Wisconsin",
    "street": "320 Putnam St Unit 4"
  },
  {
    "id": "20063b5b-6218-44c5-bc19-932339a6b2d1",
    "name": "Lazy Sloth & Drunken Sloth",
    "brewery_type": "bar",
    "address_1": "41 East Coast Road",
    "address_2": null,
    "address_3": null,
    "city": "Singapore",
    "state_province": "Singapore",
    "postal_code": "428761",
    "country": "Singapore",
    "longitude": 1.3050925197507,
    "latitude": 103.9029638,
    "phone": "+65 6241 3933",
    "website_url": null,
    "state": "Singapore",
    "street": "41 East Coast Road"
  },
  {
    "id": "8ebd6439-dc44-4655-a40e-58987de9a664",
    "name": "Lazy Tree Ranch Brewing",
    "brewery_type": "micro",
    "address_1": "1431 County Road 264",
    "address_2": null,
    "address_3": null,
    "city": "Bertram",
    "state_province": "Texas",
    "postal_code": "78605",
    "country": "United States",
    "longitude": -98.069394,
    "latitude": 30.749121,
    "phone": "5125088697",
    "website_url": null,
    "state": "Texas",
    "street": "1431 County Road 264"
  },
  {
    "id": "6b105e5d-a0d6-4368-8766-5d1cc4bee458",
    "name": "LazyG Brewhouse",
    "brewery_type": "planning",
    "address_1": null,
    "address_2": null,
    "address_3": null,
    "city": "Prescott",
    "state_province": "Arizona",
    "postal_code": "86303-4270",
    "country": "United States",
    "longitude": -112.469518,
    "latitude": 34.5402813,
    "phone": "4806951218",
    "website_url": null,
    "state": "Arizona",
    "street": null
  },
  {
    "id": "a35771c8-3596-4ac0-99b1-d00a400cd923",
    "name": "Le Chien Brewing Company",
    "brewery_type": "micro",
    "address_1": "101 S Hummell St",
    "address_2": null,
    "address_3": null,
    "city": "Denham Springs",
    "state_province": "Louisiana",
    "postal_code": "70726",
    "country": "United States",
    "longitude": -90.95537,
    "latitude": 30.483981,
    "phone": "7815324436",
    "website_url": "http://www.lechien.beer",
    "state": "Louisiana",
    "street": "101 S Hummell St"
  },
  {
    "id": "7c6bc6c6-dd61-41a6-b794-6a1f742c0ebb",
    "name": "Lead Dog Brewing",
    "brewery_type": "micro",
    "address_1": "415 E 4th St",
    "address_2": null,
    "address_3": null,
    "city": "Reno",
    "state_province": "Nevada",
    "postal_code": "89512-3315",
    "country": "United States",
    "longitude": -119.8084451,
    "latitude": 39.5316052,
    "phone": "7753915110",
    "website_url": "http://www.leaddogbrewing.com",
    "state": "Nevada",
    "street": "415 E 4th St"
  },
  {
    "id": "7e2593a2-8276-4e06-84e5-e2e0869fbebc",
    "name": "Leaf & Hive",
    "brewery_type": "planning",
    "address_1": null,
    "address_2": null,
    "address_3": null,
    "city": "Santa Fe",
    "state_province": "New Mexico",
    "postal_code": "87507-6203",
    "country": "United States",
    "longitude": null,
    "latitude": null,
    "phone": "6024481294",
    "website_url": "http://www.leafandhive.com",
    "state": "New Mexico",
    "street": null
  },
  {
    "id": "d17629b9-8cfb-404e-a6cd-8e62017f5841",
    "name": "Lean Horse Productions",
    "brewery_type": "contract",
    "address_1": "600 Meier Ave",
    "address_2": null,
    "address_3": null,
    "city": "Spearfish",
    "state_province": "South Dakota",
    "postal_code": "57783-1991",
    "country": "United States",
    "longitude": -103.8647996,
    "latitude": 44.48900743,
    "phone": "6056413534",
    "website_url": null,
    "state": "South Dakota",
    "street": "600 Meier Ave"
  },
  {
    "id": "10c141e1-c097-46a5-afa6-a59e62db219d",
    "name": "Leaning Cask Brewing Co",
    "brewery_type": "micro",
    "address_1": "850 Pittsburgh St",
    "address_2": null,
    "address_3": null,
    "city": "Springdale",
    "state_province": "Pennsylvania",
    "postal_code": "15144-1623",
    "country": "United States",
    "longitude": -79.77844044,
    "latitude": 40.54126655,
    "phone": "7247157539",
    "website_url": "http://www.leaningcaskbrewing.com",
    "state": "Pennsylvania",
    "street": "850 Pittsburgh St"
  },
  {
    "id": "871dd5ea-3e1c-4379-88d4-ab02cbf47dad",
    "name": "Leashless Brewing",
    "brewery_type": "micro",
    "address_1": "585 E Thompson Blvd",
    "address_2": null,
    "address_3": null,
    "city": "Ventura",
    "state_province": "California",
    "postal_code": "93001-2826",
    "country": "United States",
    "longitude": -119.2908735,
    "latitude": 34.2783584,
    "phone": "8056289474",
    "website_url": "http://www.leashlessbrewing.com",
    "state": "California",
    "street": "585 E Thompson Blvd"
  },
  {
    "id": "f9268939-529c-4d4d-a76d-99b97092e6d3",
    "name": "Leaven Brewing Co.",
    "brewery_type": "micro",
    "address_1": "11238 Boyette Rd",
    "address_2": null,
    "address_3": null,
    "city": "Riverview",
    "state_province": "Florida",
    "postal_code": "33569-8009",
    "country": "United States",
    "longitude": -82.31417467,
    "latitude": 27.85381371,
    "phone": "8136777023",
    "website_url": "http://www.leavenbrewing.com",
    "state": "Florida",
    "street": "11238 Boyette Rd"
  },
  {
    "id": "4f134c49-b755-42d5-ab99-0f091ee345d9",
    "name": "Lebanon Valley Craft Brewery",
    "brewery_type": "planning",
    "address_1": null,
    "address_2": null,
    "address_3": null,
    "city": "Lebanon",
    "state_province": "Pennsylvania",
    "postal_code": "17046",
    "country": "United States",
    "longitude": null,
    "latitude": null,
    "phone": "5134048600",
    "website_url": null,
    "state": "Pennsylvania",
    "street": null
  },
  {
    "id": "3eb1047d-6e01-459d-9ba2-94db505df08a",
    "name": "Ledge Brewing",
    "brewery_type": "brewpub",
    "address_1": "15 Town Hall Rd",
    "address_2": null,
    "address_3": null,
    "city": "Intervale",
    "state_province": "New Hampshire",
    "postal_code": "03845",
    "country": "United States",
    "longitude": null,
    "latitude": null,
    "phone": "6033071070",
    "website_url": "https://ledgebrewing.com/",
    "state": "New Hampshire",
    "street": "15 Town Hall Rd"
  },
  {
    "id": "627ccf1e-aea1-4404-96fc-c241dd6118be",
    "name": "Ledge Hill Brewing Co",
    "brewery_type": "micro",
    "address_1": "6700 Main St",
    "address_2": null,
    "address_3": null,
    "city": "Westport",
    "state_province": "New York",
    "postal_code": "12993-2007",
    "country": "United States",
    "longitude": -73.452543,
    "latitude": 44.188294,
    "phone": "5189121783",
    "website_url": "http://www.ledgehillbrewing.com/",
    "state": "New York",
    "street": "6700 Main St"
  },
  {
    "id": "76bb95fe-4382-4931-95f8-4678aa334e40",
    "name": "Left Coast Brewing Co.",
    "brewery_type": "micro",
    "address_1": "1245 Puerta del Sol",
    "address_2": null,
    "address_3": null,
    "city": "San Clemente",
    "state_province": "California",
    "postal_code": "92673-6310",
    "country": "United States",
    "longitude": -117.5922336,
    "latitude": 33.4587307,
    "phone": "9493619972",
    "website_url": "http://www.leftcoastbrewing.com",
    "state": "California",
    "street": "1245 Puerta del Sol"
  },
  {
    "id": "250dd3e0-2adb-4d18-8838-194b78cd8868",
    "name": "Left Coast Brewing Co. Tasting Room Smokehouse Distillery",
    "brewery_type": "brewpub",
    "address_1": "6652 Irvine Center Dr",
    "address_2": null,
    "address_3": null,
    "city": "Irvine",
    "state_province": "California",
    "postal_code": "92618",
    "country": "United States",
    "longitude": -117.7640733,
    "latitude": 33.66814585,
    "phone": "9493619972",
    "website_url": null,
    "state": "California",
    "street": "6652 Irvine Center Dr"
  },
  {
    "id": "3ef4fdd1-cf1f-4227-a6b6-5e4d13471c0b",
    "name": "Left Hand Brewing - RiNo",
    "brewery_type": "micro",
    "address_1": "4180 Wynkoop Street",
    "address_2": null,
    "address_3": null,
    "city": "Denver",
    "state_province": "Colorado",
    "postal_code": "80216",
    "country": "United States",
    "longitude": -104.9701988,
    "latitude": 39.78107841,
    "phone": "7204497535",
    "website_url": "https://lefthandbrewing.com/rino",
    "state": "Colorado",
    "street": "4180 Wynkoop Street"
  },
  {
    "id": "e5453b50-8dfe-4aee-9cea-d8c4bc5f282b",
    "name": "Left Hand Brewing Company",
    "brewery_type": "regional",
    "address_1": "1265 Boston Ave",
    "address_2": null,
    "address_3": null,
    "city": "Longmont",
    "state_province": "Colorado",
    "postal_code": "80501-5809",
    "country": "United States",
    "longitude": -105.1168403,
    "latitude": 40.158688,
    "phone": "3037720258",
    "website_url": "http://www.lefthandbrewing.com",
    "state": "Colorado",
    "street": "1265 Boston Ave"
  },
  {
    "id": "da535f17-3fc1-45be-aefe-1620c774815d",
    "name": "Left Nut Brewing Co",
    "brewery_type": "micro",
    "address_1": "2100 Atlanta Rd",
    "address_2": null,
    "address_3": null,
    "city": "Gainesville",
    "state_province": "Georgia",
    "postal_code": "30504-7168",
    "country": "United States",
    "longitude": -83.84759634,
    "latitude": 34.25442345,
    "phone": "6788276678",
    "website_url": "http://www.leftnutbrewing.com",
    "state": "Georgia",
    "street": "2100 Atlanta Rd"
  },
  {
    "id": "69d7f5d8-0d45-48dc-8f7c-95d3c05efcbc",
    "name": "Lefty's Brewing Co",
    "brewery_type": "micro",
    "address_1": "301 Wells St",
    "address_2": null,
    "address_3": null,
    "city": "Greenfield",
    "state_province": "Massachusetts",
    "postal_code": "01301",
    "country": "United States",
    "longitude": -72.60686067,
    "latitude": 42.60121604,
    "phone": "4136486111",
    "website_url": "http://www.leftysbrew.com",
    "state": "Massachusetts",
    "street": "301 Wells St"
  },
  {
    "id": "23a4fc72-237e-48fd-b06f-4484d8fc7ef7",
    "name": "Legacy",
    "brewery_type": "bar",
    "address_1": "274 East Coast Road",
    "address_2": null,
    "address_3": null,
    "city": "Singapore",
    "state_province": "Singapore",
    "postal_code": "428942",
    "country": "Singapore",
    "longitude": 1.3082136591314,
    "latitude": 103.9090124,
    "phone": null,
    "website_url": null,
    "state": "Singapore",
    "street": "274 East Coast Road"
  },
  {
    "id": "aeb83fab-b449-41c6-aed0-a84b0f9abaac",
    "name": "Legacy Ale Works",
    "brewery_type": "planning",
    "address_1": null,
    "address_2": null,
    "address_3": null,
    "city": "Jacksonville",
    "state_province": "Florida",
    "postal_code": "32258",
    "country": "United States",
    "longitude": null,
    "latitude": null,
    "phone": "9043253195",
    "website_url": "http://www.legacyaleworks.com",
    "state": "Florida",
    "street": null
  },
  {
    "id": "73708b08-1697-4001-84db-8ce69b7886e1",
    "name": "Legacy Brewing Company",
    "brewery_type": "micro",
    "address_1": "363 Airport Rd",
    "address_2": null,
    "address_3": null,
    "city": "Oceanside",
    "state_province": "California",
    "postal_code": "92058-1203",
    "country": "United States",
    "longitude": -117.3501687,
    "latitude": 33.21546892,
    "phone": "7607053221",
    "website_url": "http://www.legacybrewingco.com",
    "state": "California",
    "street": "363 Airport Rd"
  },
  {
    "id": "4c341afe-af5b-4793-abc4-c1010e3e5bb5",
    "name": "Legacy Caribbean Craft Brewery",
    "brewery_type": "micro",
    "address_1": "13416 NW 38th Ct",
    "address_2": null,
    "address_3": null,
    "city": "Opa Locka",
    "state_province": "Florida",
    "postal_code": "33054-4506",
    "country": "United States",
    "longitude": -80.2626834,
    "latitude": 25.8950665,
    "phone": "7866816572",
    "website_url": "http://Www.legacyccb.com",
    "state": "Florida",
    "street": "13416 NW 38th Ct"
  }
]