[
  {
    "id": "8617a78e-e352-479d-adfd-8c1cb2aef36a",
    "name": "Belching Beaver Brewery",
    "brewery_type": "regional",
    "address_1": "1334 Rocky Point Dr",
    "address_2": null,
    "address_3": null,
    "city": "Oceanside",
    "state_province": "California",
    "postal_code": "92056-5864",
    "country": "United States",
    "longitude": -117.292416,
    "latitude": 33.2139275,
    "phone": "7607321415",
    "website_url": null,
    "state": "California",
    "street": "1334 Rocky Point Dr"
  },
  {
    "id": "a349e5e8-16d6-47e1-8c62-4403a2709927",
    "name": "Belching Beaver Brewery Tavern & Grill",
    "brewery_type": "brewpub",
    "address_1": "302 E Broadway",
    "address_2": null,
    "address_3": null,
    "city": "Vista",
    "state_province": "California",
    "postal_code": "92084-6020",
    "country": "United States",
    "longitude": -117.241029,
    "latitude": 33.2021182,
    "phone": "7605995832",
    "website_url": null,
    "state": "California",
    "street": "302 E Broadway"
  },
  {
    "id": "93cacbb3-3e6b-47a9-a446-43ad639e6762",
    "name": "Belching Beaver Brewery Vista",
    "brewery_type": "micro",
    "address_1": "980 Park Center Dr Ste A",
    "address_2": null,
    "address_3": null,
    "city": "Vista",
    "state_province": "California",
    "postal_code": "92081-8351",
    "country": "United States",
    "longitude": -117.2410328,
    "latitude": 33.20215305,
    "phone": "7605995832",
    "website_url": "http://www.belchingbeaver.com",
    "state": "California",
    "street": "980 Park Center Dr Ste A"
  },
  {
    "id": "c351a7a3-6003-4573-962c-16d51a56bd53",
    "name": "Belding Brewing Company",
    "brewery_type": "planning",
    "address_1": null,
    "address_2": null,
    "address_3": null,
    "city": "Belding",
    "state_province": "Michigan",
    "postal_code": "48809-1678",
    "country": "United States",
    "longitude": null,
    "latitude": null,
    "phone": "6163086285",
    "website_url": null,
    "state": "Michigan",
    "street": null
  },
  {
    "id": "ebb8c392-eddb-44c8-9561-44f9186b8518",
    "name": "Belfast Bay Brewing Co",
    "brewery_type": "contract",
    "address_1": "100 Searsport Ave",
    "address_2": null,
    "address_3": null,
    "city": "Belfast",
    "state_province": "Maine",
    "postal_code": "04915-7221",
    "country": "United States",
    "longitude": -68.9880177,
    "latitude": 44.4309432,
    "phone": "2074608654",
    "website_url": "http://www.belfastbaybrewing.com",
    "state": "Maine",
    "street": "100 Searsport Ave"
  },
  {
    "id": "20ebe2cc-2803-4085-aada-cc38ea1a1f74",
    "name": "Belford Brewing Company",
    "brewery_type": "micro",
    "address_1": "84 Leonardville Rd",
    "address_2": null,
    "address_3": null,
    "city": "Belford",
    "state_province": "New Jersey",
    "postal_code": "07718-1144",
    "country": "United States",
    "longitude": null,
    "latitude": null,
    "phone": "7327697168",
    "website_url": "http://www.belfordbrewing.com",
    "state": "New Jersey",
    "street": "84 Leonardville Rd"
  },
  {
    "id": "43fd7230-116c-4c72-a9d3-5bd96411c362",
    "name": "Belgian Mare Brewery",
    "brewery_type": "closed",
    "address_1": "207 Gilsum Mine Rd",
    "address_2": null,
    "address_3": null,
    "city": "Alstead",
    "state_province": "New Hampshire",
    "postal_code": "03602-3915",
    "country": "United States",
    "longitude": -72.28542213,
    "latitude": 43.10984838,
    "phone": "6038357801",
    "website_url": "http://www.belgianmare.com",
    "state": "New Hampshire",
    "street": "207 Gilsum Mine Rd"
  },
  {
    "id": "753c642c-4239-427f-a7e1-7c8d2d4f28e3",
    "name": "Bell's Brewery, Inc",
    "brewery_type": "regional",
    "address_1": "8938 Krum Ave",
    "address_2": null,
    "address_3": null,
    "city": "Galesburg",
    "state_province": "Michigan",
    "postal_code": "49053-9558",
    "country": "United States",
    "longitude": null,
    "latitude": null,
    "phone": "2693822338",
    "website_url": "http://www.bellsbeer.com",
    "state": "Michigan",
    "street": "8938 Krum Ave"
  },
  {
    "id": "ddb10d3b-41f8-4a89-a91a-5e751230f8ec",
    "name": "Bell's Eccentric Cafe",
    "brewery_type": "brewpub",
    "address_1": "355 E Kalamazoo Ave",
    "address_2": null,
    "address_3": null,
    "city": "Kalamazoo",
    "state_province": "Michigan",
    "postal_code": "49007-3807",
    "country": "United States",
    "longitude": -85.57887292,
    "latitude": 42.29491555,
    "phone": "2693822332",
    "website_url": "http://www.bellsbeer.com",
    "state": "Michigan",
    "street": "355 E Kalamazoo Ave"
  },
  {
    "id": "767cf890-0184-4c32-afd8-0260ce1a0f0b",
    "name": "Bella Casa Di Vino",
    "brewery_type": "brewpub",
    "address_1": "201 N Riverside Ave",
    "address_2": null,
    "address_3": null,
    "city": "Saint Clair",
    "state_province": "Michigan",
    "postal_code": "48079-5491",
    "country": "United States",
    "longitude": -82.48591,
    "latitude": 42.823895,
    "phone": "8103261212",
    "website_url": "http://www.suescoffeehouse.com",
    "state": "Michigan",
    "street": "201 N Riverside Ave"
  },
  {
    "id": "5ce26e95-3deb-4b79-be7d-3d7962abc3f3",
    "name": "Belle Isle Restaurant and Brewing Co",
    "brewery_type": "brewpub",
    "address_1": "1900 NW Expressway Ste 44",
    "address_2": null,
    "address_3": null,
    "city": "Oklahoma City",
    "state_province": "Oklahoma",
    "postal_code": "73118-1832",
    "country": "United States",
    "longitude": -97.545912,
    "latitude": 35.522258,
    "phone": "4058401911",
    "website_url": "http://www.belleislerestaurant.com",
    "state": "Oklahoma",
    "street": "1900 NW Expressway Ste 44"
  },
  {
    "id": "262a1ab1-6ea6-445e-bd22-5d56d3877287",
    "name": "Bellefonte Brewing Co",
    "brewery_type": "micro",
    "address_1": "3605 Old Capitol Trl Unit C7/C8",
    "address_2": null,
    "address_3": null,
    "city": "Wilmington",
    "state_province": "Delaware",
    "postal_code": "19808-6043",
    "country": "United States",
    "longitude": null,
    "latitude": null,
    "phone": "3025401055",
    "website_url": "http://www.bellefontebrewingco.com",
    "state": "Delaware",
    "street": "3605 Old Capitol Trl Unit C7/C8"
  },
  {
    "id": "098131e3-d4fb-4b66-b969-525867ea43e8",
    "name": "Bellevue Brewing Spring District Brewpub",
    "brewery_type": "brewpub",
    "address_1": "12190 NE District Way",
    "address_2": null,
    "address_3": null,
    "city": "Bellevue",
    "state_province": "Washington",
    "postal_code": "98005",
    "country": "United States",
    "longitude": -122.1777366164,
    "latitude": 47.621516191743,
    "phone": "4254978686",
    "website_url": "http://www.bellevuebrewing.com",
    "state": "Washington",
    "street": "12190 NE District Way"
  },
  {
    "id": "d91eef0b-b1b1-40f8-9895-b92c6e865027",
    "name": "Bellport Brewing Company",
    "brewery_type": "proprietor",
    "address_1": null,
    "address_2": null,
    "address_3": null,
    "city": "Rocky Point",
    "state_province": "New York",
    "postal_code": "11778-8986",
    "country": "United States",
    "longitude": null,
    "latitude": null,
    "phone": "6319094457",
    "website_url": "http://www.bellportbrewing.com",
    "state": "New York",
    "street": null
  },
  {
    "id": "6c1b68ee-5a2c-4572-9412-aa97f5c174f6",
    "name": "Belltown Brewery",
    "brewery_type": "closed",
    "address_1": "200 Bell St",
    "address_2": null,
    "address_3": null,
    "city": "Seattle",
    "state_province": "Washington",
    "postal_code": "98121-1716",
    "country": "United States",
    "longitude": -122.3456669,
    "latitude": 47.6142953,
    "phone": "2064857233",
    "website_url": "http://www.belltownbrewingseattle.com",
    "state": "Washington",
    "street": "200 Bell St"
  },
  {
    "id": "7258dd32-e31a-42a1-ad47-68b29e59bfef",
    "name": "Bellwether Brewing Co",
    "brewery_type": "micro",
    "address_1": "2019 N Monroe St",
    "address_2": null,
    "address_3": null,
    "city": "Spokane",
    "state_province": "Washington",
    "postal_code": "99205-4542",
    "country": "United States",
    "longitude": -117.4265497,
    "latitude": 47.67645574,
    "phone": "5092808345",
    "website_url": "http://www.bellwetherbrewing.net",
    "state": "Washington",
    "street": "2019 N Monroe St"
  },
  {
    "id": "3a6fa1f2-5baa-48b0-ab62-17580ee59c80",
    "name": "Belly Love Brewing Company",
    "brewery_type": "brewpub",
    "address_1": "725 E Main St",
    "address_2": null,
    "address_3": null,
    "city": "Purcellville",
    "state_province": "Virginia",
    "postal_code": "20132-3178",
    "country": "United States",
    "longitude": -77.7015903,
    "latitude": 39.1364247,
    "phone": "5404413159",
    "website_url": "http://www.bellylovebrewing.com",
    "state": "Virginia",
    "street": "725 E Main St"
  },
  {
    "id": "1fcbc3b2-91be-4668-9519-e0ec141e1ec6",
    "name": "Belly Up Beer Company",
    "brewery_type": "micro",
    "address_1": null,
    "address_2": null,
    "address_3": null,
    "city": "Western Springs",
    "state_province": "Illinois",
    "postal_code": "60558",
    "country": "United States",
    "longitude": null,
    "latitude": null,
    "phone": "7088379762",
    "website_url": "http://www.bellyupbeer.com",
    "state": "Illinois",
    "street": null
  },
  {
    "id": "b5c1920a-6015-4f9e-9ba6-58e654fe2138",
    "name": "Belmont Brewing Co",
    "brewery_type": "brewpub",
    "address_1": "25 39th Pl",
    "address_2": null,
    "address_3": null,
    "city": "Long Beach",
    "state_province": "California",
    "postal_code": "90803-2806",
    "country": "United States",
    "longitude": -118.1480454,
    "latitude": 33.759551,
    "phone": "5624333891",
    "website_url": "http://www.belmontbrewing.com",
    "state": "California",
    "street": "25 39th Pl"
  },
  {
    "id": "0825c760-b25e-4d4d-ac6f-67498bffe8f6",
    "name": "Below the Radar Brewing Co",
    "brewery_type": "brewpub",
    "address_1": "220 Holmes Ave NE",
    "address_2": null,
    "address_3": null,
    "city": "Huntsville",
    "state_province": "Alabama",
    "postal_code": "35801-4837",
    "country": "United States",
    "longitude": -86.58583931,
    "latitude": 34.73272365,
    "phone": "2564696617",
    "website_url": "http://www.btrbrew.com",
    "state": "Alabama",
    "street": "220 Holmes Ave NE"
  },
  {
    "id": "3e8bc011-fde9-480c-aed4-b1aa9a99fa57",
    "name": "Beltway Brewing Company",
    "brewery_type": "micro",
    "address_1": "22620 Davis Dr Ste 110",
    "address_2": null,
    "address_3": null,
    "city": "Sterling",
    "state_province": "Virginia",
    "postal_code": "20164-4470",
    "country": "United States",
    "longitude": -77.4172876,
    "latitude": 38.9914289,
    "phone": "5719892739",
    "website_url": "http://www.beltwaybrewco.com",
    "state": "Virginia",
    "street": "22620 Davis Dr Ste 110"
  },
  {
    "id": "e99c9fda-b861-4dc4-99bb-58b685654f4f",
    "name": "Bemidji Brewing Company",
    "brewery_type": "brewpub",
    "address_1": "211 America Ave NW",
    "address_2": null,
    "address_3": null,
    "city": "Bemidji",
    "state_province": "Minnesota",
    "postal_code": "56601-3176",
    "country": "United States",
    "longitude": -94.88482747,
    "latitude": 47.4699022,
    "phone": "2184447011",
    "website_url": "http://www.bemidjibeer.com",
    "state": "Minnesota",
    "street": "211 America Ave NW"
  },
  {
    "id": "80fb35c8-eef8-49f7-8d97-ed0a432d52c3",
    "name": "Ben's Brewing Station",
    "brewery_type": "micro",
    "address_1": "719 Walnut Street",
    "address_2": null,
    "address_3": null,
    "city": "Yankton",
    "state_province": "South Dakota",
    "postal_code": "57078-3542",
    "country": "United States",
    "longitude": -97.39428007,
    "latitude": 42.8771861,
    "phone": "6056619090",
    "website_url": "http://www.bensbrewing.shop",
    "state": "South Dakota",
    "street": "719 Walnut Street"
  },
  {
    "id": "db8a8a89-3084-4632-8215-36c9446426b5",
    "name": "Ben's Tune-Up / Ben's Beer",
    "brewery_type": "brewpub",
    "address_1": "195 Hilliard Ave",
    "address_2": null,
    "address_3": null,
    "city": "Asheville",
    "state_province": "North Carolina",
    "postal_code": "28801-3616",
    "country": "United States",
    "longitude": -82.5557931,
    "latitude": 35.5912756,
    "phone": "8284247580",
    "website_url": "http://www.benstuneup.com",
    "state": "North Carolina",
    "street": "195 Hilliard Ave"
  },
  {
    "id": "ef1075c7-0384-4bfe-8034-2ba2e99a5a0c",
    "name": "Benchmark Brewing Co",
    "brewery_type": "closed",
    "address_1": "6190 Fairmount Ave Ste G",
    "address_2": null,
    "address_3": null,
    "city": "San Diego",
    "state_province": "California",
    "postal_code": "92120-3428",
    "country": "United States",
    "longitude": -117.1020694,
    "latitude": 32.78737066,
    "phone": "6197952911",
    "website_url": "http://www.benchmarkbrewing.com",
    "state": "California",
    "street": "6190 Fairmount Ave Ste G"
  },
  {
    "id": "b644eedc-dda5-49a4-b05f-8baed4791d41",
    "name": "Benchtop Brewing Company",
    "brewery_type": "micro",
    "address_1": "1129 Boissevain Ave",
    "address_2": null,
    "address_3": null,
    "city": "Norfolk",
    "state_province": "Virginia",
    "postal_code": "23507-1401",
    "country": "United States",
    "longitude": -76.30742245,
    "latitude": 36.86493389,
    "phone": "7573219482",
    "website_url": "http://www.benchtopbrewing.com",
    "state": "Virginia",
    "street": "1129 Boissevain Ave"
  },
  {
    "id": "66d441d7-df24-4f32-83be-9a80d9d63951",
    "name": "Bend Brewing Co",
    "brewery_type": "brewpub",
    "address_1": "1019 NW Brooks St",
    "address_2": null,
    "address_3": null,
    "city": "Bend",
    "state_province": "Oregon",
    "postal_code": "97703-2018",
    "country": "United States",
    "longitude": -121.3139312,
    "latitude": 44.06051115,
    "phone": "5413831599",
    "website_url": "http://www.bendbrewingco.com",
    "state": "Oregon",
    "street": "1019 NW Brooks St"
  },
  {
    "id": "58d75aca-9aef-48d1-b81a-0d085c4f4da5",
    "name": "Bend Brewing High Desert",
    "brewery_type": "closed",
    "address_1": "20650 NE High Desert Lane",
    "address_2": null,
    "address_3": null,
    "city": "Bend",
    "state_province": "Oregon",
    "postal_code": "97701",
    "country": "United States",
    "longitude": -121.2914842,
    "latitude": 44.08727607,
    "phone": "5413831599",
    "website_url": null,
    "state": "Oregon",
    "street": "20650 NE High Desert Lane"
  },
  {
    "id": "2740427b-cb76-4b45-bb8d-364e82541041",
    "name": "Benford Brewing Co.",
    "brewery_type": "micro",
    "address_1": "2271 Boxcar Rd",
    "address_2": null,
    "address_3": null,
    "city": "Lancaster",
    "state_province": "South Carolina",
    "postal_code": "29720-9443",
    "country": "United States",
    "longitude": null,
    "latitude": null,
    "phone": null,
    "website_url": null,
    "state": "South Carolina",
    "street": "2271 Boxcar Rd"
  },
  {
    "id": "71531995-c5a9-42fc-8e1e-04b3b57f13b5",
    "name": "Bengal Brewing, LLC.",
    "brewery_type": "planning",
    "address_1": null,
    "address_2": null,
    "address_3": null,
    "city": "Spring Lake Park",
    "state_province": "Minnesota",
    "postal_code": "55432-2802",
    "country": "United States",
    "longitude": null,
    "latitude": null,
    "phone": "6125188146",
    "website_url": "http://www.BengalBrewingLLC.com",
    "state": "Minnesota",
    "street": null
  },
  {
    "id": "903f91f9-2c57-4909-87f7-fa268e44d454",
    "name": "Benjamin Beer Co",
    "brewery_type": "closed",
    "address_1": "507 6th St",
    "address_2": null,
    "address_3": null,
    "city": "Racine",
    "state_province": "Wisconsin",
    "postal_code": "53403-1117",
    "country": "United States",
    "longitude": -87.78630172,
    "latitude": 42.72641512,
    "phone": "2625832034",
    "website_url": "http://www.benjaminbeer.com",
    "state": "Wisconsin",
    "street": "507 6th St"
  },
  {
    "id": "74266e58-c60c-4eed-bb2a-e582ac87c18c",
    "name": "Bennidito's Brewpub",
    "brewery_type": "brewpub",
    "address_1": "1909 E Sprague Ave",
    "address_2": null,
    "address_3": null,
    "city": "Spokane",
    "state_province": "Washington",
    "postal_code": "99202-3120",
    "country": "United States",
    "longitude": -117.2178526,
    "latitude": 47.6571208,
    "phone": "5092905018",
    "website_url": "http://www.benniditosbrewpub.com",
    "state": "Washington",
    "street": "1909 E Sprague Ave"
  },
  {
    "id": "d20b7fb9-43a2-4ee6-bc77-46a26866cbfa",
    "name": "Benny Boy Brewing",
    "brewery_type": "micro",
    "address_1": "1821 Daly St",
    "address_2": null,
    "address_3": null,
    "city": "Los Angeles",
    "state_province": "California",
    "postal_code": "90031",
    "country": "United States",
    "longitude": -118.21606709577,
    "latitude": 34.064259318212,
    "phone": null,
    "website_url": "https://bennyboybrewing.com/",
    "state": "California",
    "street": "1821 Daly St"
  },
  {
    "id": "709f000d-826d-45e8-ab4f-c89137a58790",
    "name": "Benny Brewing Co.",
    "brewery_type": "micro",
    "address_1": "1429 Sans Souci Pkwy",
    "address_2": null,
    "address_3": null,
    "city": "Wilkes Barre",
    "state_province": "Pennsylvania",
    "postal_code": "18706-6025",
    "country": "United States",
    "longitude": null,
    "latitude": null,
    "phone": "5702356995",
    "website_url": "http://www.martysblueroom.com",
    "state": "Pennsylvania",
    "street": "1429 Sans Souci Pkwy"
  },
  {
    "id": "d19a5bc3-75b2-4119-b18d-fec643a1a3bc",
    "name": "Benoit-Casper Brewing",
    "brewery_type": "micro",
    "address_1": "1201 Pennsylvania Ave Ste E",
    "address_2": null,
    "address_3": null,
    "city": "Richmond",
    "state_province": "California",
    "postal_code": "94801-2300",
    "country": "United States",
    "longitude": -122.3578637,
    "latitude": 37.94244029,
    "phone": "4086953449",
    "website_url": "http://www.bcbrewing.com",
    "state": "California",
    "street": "1201 Pennsylvania Ave Ste E"
  },
  {
    "id": "c74f06ec-3978-451b-88b4-92d813b11903",
    "name": "Benson Brewery",
    "brewery_type": "brewpub",
    "address_1": "6059 Maple St",
    "address_2": null,
    "address_3": null,
    "city": "Omaha",
    "state_province": "Nebraska",
    "postal_code": "68104-4050",
    "country": "United States",
    "longitude": -96.00634511,
    "latitude": 41.28489756,
    "phone": "4029348668",
    "website_url": "http://www.bensonbrewery.com",
    "state": "Nebraska",
    "street": "6059 Maple St"
  },
  {
    "id": "82a77cad-f8b2-42ed-9427-ba12789ff73f",
    "name": "Bent Barley Brewing Co",
    "brewery_type": "micro",
    "address_1": "15416 E Orchard Rd",
    "address_2": null,
    "address_3": null,
    "city": "Centennial",
    "state_province": "Colorado",
    "postal_code": "80016",
    "country": "United States",
    "longitude": -104.8095432,
    "latitude": 39.6101371,
    "phone": "3036906311",
    "website_url": "https://www.bentbarley.com/",
    "state": "Colorado",
    "street": "15416 E Orchard Rd"
  },
  {
    "id": "d246dbd2-5991-48f5-9e47-3bca8b6027f0",
    "name": "Bent Bine Brew Co. LLC",
    "brewery_type": "brewpub",
    "address_1": "23297 WA-3",
    "address_2": null,
    "address_3": null,
    "city": "Belfair",
    "state_province": "Washington",
    "postal_code": "98394",
    "country": "United States",
    "longitude": -122.83223,
    "latitude": 47.445115,
    "phone": "8142739379",
    "website_url": "http://www.bentbine.com",
    "state": "Washington",
    "street": "23297 WA-3"
  },
  {
    "id": "449a1e99-45aa-40d0-a3a8-d825919641d6",
    "name": "Bent Brewstillery",
    "brewery_type": "micro",
    "address_1": "1744 Terrace Dr",
    "address_2": null,
    "address_3": null,
    "city": "Roseville",
    "state_province": "Minnesota",
    "postal_code": "55113-1315",
    "country": "United States",
    "longitude": -93.17364906,
    "latitude": 45.02557829,
    "phone": "8448792368",
    "website_url": "http://www.bentbrewstillery.com",
    "state": "Minnesota",
    "street": "1744 Terrace Dr"
  },
  {
    "id": "f4431225-2c10-4479-9ece-0090a958c1c1",
    "name": "Bent Hill Brewery",
    "brewery_type": "micro",
    "address_1": "1972 Bent Hill Rd",
    "address_2": null,
    "address_3": null,
    "city": "Randolph",
    "state_province": "Vermont",
    "postal_code": "05060-8833",
    "country": "United States",
    "longitude": null,
    "latitude": null,
    "phone": "8022491125",
    "website_url": "http://www.benthilbrewery.com",
    "state": "Vermont",
    "street": "1972 Bent Hill Rd"
  },
  {
    "id": "bdd49c54-8f0c-4e5f-8757-802bed30d8c9",
    "name": "Bent Kettle Brewing Company",
    "brewery_type": "closed",
    "address_1": "1507 Montclair Pl",
    "address_2": null,
    "address_3": null,
    "city": "Fort Atkinson",
    "state_province": "Wisconsin",
    "postal_code": "53538-3102",
    "country": "United States",
    "longitude": -88.861232,
    "latitude": 42.9348495,
    "phone": "9203909038",
    "website_url": "http://www.bentkettle.com",
    "state": "Wisconsin",
    "street": "1507 Montclair Pl"
  },
  {
    "id": "8b43bd7c-41f0-4865-a9cf-0d82a7b53dcb",
    "name": "Bent Paddle Brewing Co",
    "brewery_type": "regional",
    "address_1": "1912 W Michigan St",
    "address_2": null,
    "address_3": null,
    "city": "Duluth",
    "state_province": "Minnesota",
    "postal_code": "55806-2135",
    "country": "United States",
    "longitude": -92.1219171,
    "latitude": 46.7676912,
    "phone": "2182792722",
    "website_url": "http://www.bentpaddlebrewing.com",
    "state": "Minnesota",
    "street": "1912 W Michigan St"
  },
  {
    "id": "5e6cbfb1-f958-47d5-9a19-d8a639216888",
    "name": "Bent River Brewing Co",
    "brewery_type": "brewpub",
    "address_1": "500 Jefferson St",
    "address_2": null,
    "address_3": null,
    "city": "Burlington",
    "state_province": "Iowa",
    "postal_code": "52601",
    "country": "United States",
    "longitude": -91.1052085,
    "latitude": 40.8106128,
    "phone": "3192092773",
    "website_url": "http://www.burlingtonbentriver.com",
    "state": "Iowa",
    "street": "500 Jefferson St"
  },
  {
    "id": "457f03ac-e315-4d9a-9a66-f091e90698da",
    "name": "Bent River Brewing Co",
    "brewery_type": "brewpub",
    "address_1": "1413 5th Ave",
    "address_2": null,
    "address_3": null,
    "city": "Moline",
    "state_province": "Illinois",
    "postal_code": "61265-1335",
    "country": "United States",
    "longitude": -90.51736337,
    "latitude": 41.50590516,
    "phone": "3097972722",
    "website_url": "http://www.bentriverbrewing.com",
    "state": "Illinois",
    "street": "1413 5th Ave"
  },
  {
    "id": "c542eae9-6b85-4583-84c4-cba24c0cd68c",
    "name": "Bent River Brewing Co Production & Tasting Room",
    "brewery_type": "micro",
    "address_1": "512 24th St",
    "address_2": null,
    "address_3": null,
    "city": "Rock Island",
    "state_province": "Illinois",
    "postal_code": "61201-8928",
    "country": "United States",
    "longitude": -90.5669283,
    "latitude": 41.5076339,
    "phone": "3092834811",
    "website_url": "http://www.bentriverbrewery.com",
    "state": "Illinois",
    "street": "512 24th St"
  },
  {
    "id": "eeabc125-dc98-49cf-a9da-969ee820c348",
    "name": "Bent Run Brewing Co",
    "brewery_type": "brewpub",
    "address_1": "5607 SR 957",
    "address_2": null,
    "address_3": null,
    "city": "Lander",
    "state_province": "Pennsylvania",
    "postal_code": "16345",
    "country": "United States",
    "longitude": null,
    "latitude": null,
    "phone": "8147578269",
    "website_url": "http://www.bentrunbrewing.com",
    "state": "Pennsylvania",
    "street": "5607 SR 957"
  },
  {
    "id": "2daabc96-c1c4-4bbc-a784-a0720a5c96c3",
    "name": "Bent Shovel Brewing",
    "brewery_type": "micro",
    "address_1": "21678 S Latourette Rd",
    "address_2": null,
    "address_3": null,
    "city": "Oregon City",
    "state_province": "Oregon",
    "postal_code": "97045-9453",
    "country": "United States",
    "longitude": -122.421183,
    "latitude": 45.37878928,
    "phone": "5038980220",
    "website_url": "http://www.bentshovelbrewing.com",
    "state": "Oregon",
    "street": "21678 S Latourette Rd"
  },
  {
    "id": "ec45b763-05a4-490d-8a78-956939c38c6e",
    "name": "Bent Shovel Brewing",
    "brewery_type": "micro",
    "address_1": "20179 S Springwater Rd",
    "address_2": "Estacada",
    "address_3": null,
    "city": "Oregon City",
    "state_province": "Oregon",
    "postal_code": "97023",
    "country": "United States",
    "longitude": -122.3922913,
    "latitude": 45.31388797,
    "phone": "5038980220",
    "website_url": "http://www.bentshovelbrewing.com",
    "state": "Oregon",
    "street": "20179 S Springwater Rd"
  },
  {
    "id": "05d4fc7f-58bc-4cc0-b5f8-c6829b0f6d86",
    "name": "Bent Water Brewing Company",
    "brewery_type": "micro",
    "address_1": "180 Commercial St Ste 18",
    "address_2": null,
    "address_3": null,
    "city": "Lynn",
    "state_province": "Massachusetts",
    "postal_code": "01905-3058",
    "country": "United States",
    "longitude": null,
    "latitude": null,
    "phone": null,
    "website_url": "http://www.bentwaterbrewing.com",
    "state": "Massachusetts",
    "street": "180 Commercial St Ste 18"
  },
  {
    "id": "247d83f9-7df3-4842-afd7-4104946fb455",
    "name": "Bentonville Brewing Co",
    "brewery_type": "micro",
    "address_1": "1700 S 1st St",
    "address_2": null,
    "address_3": null,
    "city": "Rogers",
    "state_province": "Arkansas",
    "postal_code": "72756-5923",
    "country": "United States",
    "longitude": -94.1178372,
    "latitude": 36.3168272,
    "phone": "4799037330",
    "website_url": "http://www.bentonvillebrewing.com",
    "state": "Arkansas",
    "street": "1700 S 1st St"
  }
]