[
  {
    "id": "d9b4198d-7fdb-4dde-a6c3-6195489e2ca3",
    "name": "Policy Kings Brewery LLC",
    "brewery_type": "micro",
    "address_1": "223 N 100 W",
    "address_2": null,
    "address_3": null,
    "city": "Cedar City",
    "state_province": "Utah",
    "postal_code": "84721",
    "country": "United States",
    "longitude": -113.064003,
    "latitude": 37.681305,
    "phone": null,
    "website_url": "http://www.policykingsbrewery.com",
    "state": "Utah",
    "street": "223 N 100 W"
  },
  {
    "id": "f5a51ebc-3959-4dbc-b754-09b4a6a9bbb4",
    "name": "Pollyanna Brewing & Distilling Company",
    "brewery_type": "micro",
    "address_1": "106 S Riverside Ave",
    "address_2": null,
    "address_3": null,
    "city": "Saint Charles",
    "state_province": "Illinois",
    "postal_code": "60174",
    "country": "United States",
    "longitude": -88.312023716864,
    "latitude": 41.912925051035,
    "phone": "6305497372",
    "website_url": "https://pollyannabrewing.com",
    "state": "Illinois",
    "street": "106 S Riverside Ave"
  },
  {
    "id": "8beeebf7-5b40-4fa7-a085-b62b63740a31",
    "name": "Pollyanna Brewing Company",
    "brewery_type": "micro",
    "address_1": "431 Talcott Ave",
    "address_2": null,
    "address_3": null,
    "city": "Lemont",
    "state_province": "Illinois",
    "postal_code": "60439-3744",
    "country": "United States",
    "longitude": -87.9978837,
    "latitude": 41.6759774,
    "phone": "6309145834",
    "website_url": "http://www.pollyannabrewing.com",
    "state": "Illinois",
    "street": "431 Talcott Ave"
  },
  {
    "id": "90218961-385e-459f-b286-a1560ee423a8",
    "name": "Polyculture Brewing Company",
    "brewery_type": "closed",
    "address_1": "3 Camel Hump Rd",
    "address_2": null,
    "address_3": null,
    "city": "Croydon",
    "state_province": "New Hampshire",
    "postal_code": "03773",
    "country": "United States",
    "longitude": -72.18685389,
    "latitude": 43.41054689,
    "phone": "7735471994",
    "website_url": "http://www.polyculturebrewing.com",
    "state": "New Hampshire",
    "street": "3 Camel Hump Rd"
  },
  {
    "id": "0c7ebfab-f995-4487-b59c-6c90f42d8298",
    "name": "Pondaseta Brewing Co.",
    "brewery_type": "planning",
    "address_1": null,
    "address_2": null,
    "address_3": null,
    "city": "Amarillo",
    "state_province": "Texas",
    "postal_code": "79119",
    "country": "United States",
    "longitude": null,
    "latitude": null,
    "phone": null,
    "website_url": "http://www.pondaseta.com",
    "state": "Texas",
    "street": null
  },
  {
    "id": "759c9519-636c-434e-b7c9-4bedae0d5f42",
    "name": "Ponderosa Brewing",
    "brewery_type": "brewpub",
    "address_1": "1761 Bellamah Ave NW",
    "address_2": null,
    "address_3": null,
    "city": "Albuquerque",
    "state_province": "New Mexico",
    "postal_code": "87104-2247",
    "country": "United States",
    "longitude": -106.6650502,
    "latitude": 35.10091248,
    "phone": "5056395941",
    "website_url": "http://www.ponderosabrewing.net",
    "state": "New Mexico",
    "street": "1761 Bellamah Ave NW"
  },
  {
    "id": "766996ca-e6f6-4882-98f3-272e0c354cb6",
    "name": "Pono Brewing Company",
    "brewery_type": "contract",
    "address_1": "5716 SE 92nd Ave",
    "address_2": null,
    "address_3": null,
    "city": "Portland",
    "state_province": "Oregon",
    "postal_code": "97266-4659",
    "country": "United States",
    "longitude": -122.5679347,
    "latitude": 45.4808905,
    "phone": "5034328400",
    "website_url": "http://www.ponobrewing.com",
    "state": "Oregon",
    "street": "5716 SE 92nd Ave"
  },
  {
    "id": "25566098-7a9c-4bf0-9804-2ba4470b9cc5",
    "name": "Pontoon Brewing Company",
    "brewery_type": "micro",
    "address_1": "8601 Dunwoody Pl Bld 500 Ste 500",
    "address_2": null,
    "address_3": null,
    "city": "Sandy Springs",
    "state_province": "Georgia",
    "postal_code": "30350-2551",
    "country": "United States",
    "longitude": null,
    "latitude": null,
    "phone": "7049293821",
    "website_url": "http://www.pontoonbrewing.com",
    "state": "Georgia",
    "street": "8601 Dunwoody Pl Bld 500 Ste 500"
  },
  {
    "id": "9a279764-f687-43a5-b361-8c98189d177b",
    "name": "Ponysaurus Brewing Company",
    "brewery_type": "brewpub",
    "address_1": "219 Hood St",
    "address_2": null,
    "address_3": null,
    "city": "Durham",
    "state_province": "North Carolina",
    "postal_code": "27701-3715",
    "country": "United States",
    "longitude": -78.89399922,
    "latitude": 35.99008624,
    "phone": "9784827701",
    "website_url": "http://www.ponysaurusbrewing.com",
    "state": "North Carolina",
    "street": "219 Hood St"
  },
  {
    "id": "de95f5a9-4958-4474-9d7a-061f4d7f6c17",
    "name": "Poor House Brewing",
    "brewery_type": "micro",
    "address_1": "4494 30th St",
    "address_2": null,
    "address_3": null,
    "city": "San Diego",
    "state_province": "California",
    "postal_code": "92116-4287",
    "country": "United States",
    "longitude": -117.130404,
    "latitude": 32.758977,
    "phone": "8587699070",
    "website_url": "http://www.poorhousebrew.com",
    "state": "California",
    "street": "4494 30th St"
  },
  {
    "id": "e2356861-cbe8-4634-a65c-69f938f7c2a2",
    "name": "Populuxe Brewing",
    "brewery_type": "micro",
    "address_1": "826 NW 49th St",
    "address_2": null,
    "address_3": null,
    "city": "Seattle",
    "state_province": "Washington",
    "postal_code": "98107-3614",
    "country": "United States",
    "longitude": -122.3680288,
    "latitude": 47.6645382,
    "phone": "2067063400",
    "website_url": "http://www.populuxebrewing.com",
    "state": "Washington",
    "street": "826 NW 49th St"
  },
  {
    "id": "3ef8c970-0b94-4235-b598-aa45b1c6478c",
    "name": "Porchlight Brewing Company",
    "brewery_type": "micro",
    "address_1": "866 57th St",
    "address_2": null,
    "address_3": null,
    "city": "Sacramento",
    "state_province": "California",
    "postal_code": "95819-3327",
    "country": "United States",
    "longitude": -121.4334621,
    "latitude": 38.5659589,
    "phone": "9164765384",
    "website_url": "http://www.porchlightbrewingcompany.com",
    "state": "California",
    "street": "866 57th St"
  },
  {
    "id": "1ac4b47c-9abe-424e-acfa-ebfcfc62ca9a",
    "name": "Port Brewing Co / The Lost Abbey",
    "brewery_type": "micro",
    "address_1": "155 Mata Way Ste 104",
    "address_2": null,
    "address_3": null,
    "city": "San Marcos",
    "state_province": "California",
    "postal_code": "92069-2983",
    "country": "United States",
    "longitude": -117.149141,
    "latitude": 33.141537,
    "phone": "8009186816",
    "website_url": "http://www.portbrewing.com",
    "state": "California",
    "street": "155 Mata Way Ste 104"
  },
  {
    "id": "626290ac-7473-4368-9ee8-e71b2f28027f",
    "name": "Port City Brewing Co.",
    "brewery_type": "regional",
    "address_1": "3950 Wheeler Ave",
    "address_2": null,
    "address_3": null,
    "city": "Alexandria",
    "state_province": "Virginia",
    "postal_code": "22304-6409",
    "country": "United States",
    "longitude": -77.10149229,
    "latitude": 38.80803165,
    "phone": "7037972739",
    "website_url": "http://www.portcitybrewing.com",
    "state": "Virginia",
    "street": "3950 Wheeler Ave"
  },
  {
    "id": "75454326-9c64-4b35-901f-04f91703618b",
    "name": "Port Huron Brewing Co",
    "brewery_type": "micro",
    "address_1": "805 Business Park Dr",
    "address_2": null,
    "address_3": null,
    "city": "Wisconsin Dells",
    "state_province": "Wisconsin",
    "postal_code": "53965-9440",
    "country": "United States",
    "longitude": -89.74657667,
    "latitude": 43.62851667,
    "phone": "6082530340",
    "website_url": "http://www.porthuronbeer.com",
    "state": "Wisconsin",
    "street": "805 Business Park Dr"
  },
  {
    "id": "ab2fd436-f359-4068-a961-df786f966314",
    "name": "Port Jeff Brewing Co",
    "brewery_type": "micro",
    "address_1": "22 Mill Creek Rd",
    "address_2": null,
    "address_3": null,
    "city": "Port Jefferson",
    "state_province": "New York",
    "postal_code": "11777-1663",
    "country": "United States",
    "longitude": -73.06772855,
    "latitude": 40.94140421,
    "phone": "8774752739",
    "website_url": "http://www.portjeffbrewing.com",
    "state": "New York",
    "street": "22 Mill Creek Rd"
  },
  {
    "id": "c50438f5-20be-421d-8b82-fcac834ab278",
    "name": "Port O'Pints Brewing Co.",
    "brewery_type": "brewpub",
    "address_1": "1215 Northcrest Dr",
    "address_2": null,
    "address_3": null,
    "city": "Crescent City",
    "state_province": "California",
    "postal_code": "95531-2320",
    "country": "United States",
    "longitude": -124.1993085,
    "latitude": 41.76863139,
    "phone": "7074601154",
    "website_url": "http://www.portopints.com",
    "state": "California",
    "street": "1215 Northcrest Dr"
  },
  {
    "id": "cfc29049-96aa-443a-b0fd-3fce12d6dbde",
    "name": "Port Orleans Brewing Company",
    "brewery_type": "micro",
    "address_1": "4124 Tchoupitoulas St",
    "address_2": null,
    "address_3": null,
    "city": "New Orleans",
    "state_province": "Louisiana",
    "postal_code": "70115-1435",
    "country": "United States",
    "longitude": -90.0982849,
    "latitude": 29.9169759,
    "phone": "5042662332",
    "website_url": "http://www.portorleansbrewingco.com",
    "state": "Louisiana",
    "street": "4124 Tchoupitoulas St"
  },
  {
    "id": "5a9fb0d9-6046-4d49-9b87-ecda2d690cf8",
    "name": "Port Town Brewing Co",
    "brewery_type": "proprietor",
    "address_1": "700-726 S Centre St",
    "address_2": null,
    "address_3": null,
    "city": "San Pedro",
    "state_province": "California",
    "postal_code": "90731",
    "country": "United States",
    "longitude": -118.283633,
    "latitude": 33.73804379,
    "phone": "3105086013",
    "website_url": "http://www.porttownbrewing.com",
    "state": "California",
    "street": "700-726 S Centre St"
  },
  {
    "id": "93f623db-5df1-4a30-94d5-445a2e100580",
    "name": "Port Townsend Brewing Co",
    "brewery_type": "micro",
    "address_1": "330 10th St Ste C",
    "address_2": null,
    "address_3": null,
    "city": "Port Townsend",
    "state_province": "Washington",
    "postal_code": "98368-1815",
    "country": "United States",
    "longitude": -122.78084247123,
    "latitude": 48.107566843641,
    "phone": "3603859967",
    "website_url": "http://www.porttownsendbrewing.com",
    "state": "Washington",
    "street": "330 10th St Ste C"
  },
  {
    "id": "2279eddf-9455-4973-8013-0b2a19894fea",
    "name": "Portal Brewing Co",
    "brewery_type": "brewpub",
    "address_1": "100 E 6th St",
    "address_2": null,
    "address_3": null,
    "city": "Medford",
    "state_province": "Oregon",
    "postal_code": "97501-5902",
    "country": "United States",
    "longitude": -122.873661,
    "latitude": 42.326944,
    "phone": "5419410240",
    "website_url": "http://www.portalbrewingco.com",
    "state": "Oregon",
    "street": "100 E 6th St"
  },
  {
    "id": "7c72c2f9-3184-4b2a-8c13-9c1bc3ab5148",
    "name": "Porter Pizza & Brewery",
    "brewery_type": "brewpub",
    "address_1": "6370 Powers Ferry Rd NW",
    "address_2": null,
    "address_3": null,
    "city": "Sandy Springs",
    "state_province": "Georgia",
    "postal_code": "30339",
    "country": "United States",
    "longitude": -84.4304239,
    "latitude": 33.9043481,
    "phone": null,
    "website_url": "http://www.porterpizzabrewery.com",
    "state": "Georgia",
    "street": "6370 Powers Ferry Rd NW"
  },
  {
    "id": "3c70cec2-a5d1-4901-b97b-f257d082028c",
    "name": "Porters Mill Brewery",
    "brewery_type": "micro",
    "address_1": "1918 Porters Mill Rd",
    "address_2": null,
    "address_3": null,
    "city": "Midlothian",
    "state_province": "Virginia",
    "postal_code": "23114",
    "country": "United States",
    "longitude": null,
    "latitude": null,
    "phone": "8042471370",
    "website_url": "https://www.facebook.com/PortersMillBrew/?ref=bookmarks",
    "state": "Virginia",
    "street": "1918 Porters Mill Rd"
  },
  {
    "id": "e2ae7c8c-6317-4c6b-8b13-f36667508ddb",
    "name": "Portico Brewing Co",
    "brewery_type": "contract",
    "address_1": "256 Moody Street",
    "address_2": null,
    "address_3": null,
    "city": "Waltham",
    "state_province": "Massachusetts",
    "postal_code": "02453",
    "country": "United States",
    "longitude": -71.2366218,
    "latitude": 42.3718244,
    "phone": null,
    "website_url": null,
    "state": "Massachusetts",
    "street": "256 Moody Street"
  },
  {
    "id": "9265aaad-fabe-40a4-bec6-656338eb04b9",
    "name": "Portland Brewing/North American Breweries",
    "brewery_type": "regional",
    "address_1": "2730 NW 31st Ave",
    "address_2": null,
    "address_3": null,
    "city": "Portland",
    "state_province": "Oregon",
    "postal_code": "97210-1718",
    "country": "United States",
    "longitude": -122.713089,
    "latitude": 45.54176525,
    "phone": "5032267623",
    "website_url": "http://www.portlandbrewing.com",
    "state": "Oregon",
    "street": "2730 NW 31st Ave"
  },
  {
    "id": "8c661895-c05b-4300-a08f-160ff0ae018d",
    "name": "Portland U-Brew & Pub",
    "brewery_type": "brewpub",
    "address_1": "6237 SE Milwaukie Ave",
    "address_2": null,
    "address_3": null,
    "city": "Portland",
    "state_province": "Oregon",
    "postal_code": "-97202",
    "country": "United States",
    "longitude": -122.649393,
    "latitude": 45.47740515,
    "phone": "5039432727",
    "website_url": "http://www.portlandubrewandpub.com",
    "state": "Oregon",
    "street": "6237 SE Milwaukie Ave"
  },
  {
    "id": "52a372b0-a5a6-4dac-8c4d-eaa8fe630819",
    "name": "Portneuf Valley Brewing Co",
    "brewery_type": "brewpub",
    "address_1": "615 S 1st Ave",
    "address_2": null,
    "address_3": null,
    "city": "Pocatello",
    "state_province": "Idaho",
    "postal_code": "83201-6557",
    "country": "United States",
    "longitude": -112.4431819,
    "latitude": 42.85998871,
    "phone": "2082321644",
    "website_url": "http://www.portneufvalleybrewing.com",
    "state": "Idaho",
    "street": "615 S 1st Ave"
  },
  {
    "id": "87fa87d6-8042-493b-9926-c515656f1e9f",
    "name": "Portsmouth Brewing Co/Maults",
    "brewery_type": "brewpub",
    "address_1": "224 Second St",
    "address_2": null,
    "address_3": null,
    "city": "Portsmouth",
    "state_province": "Ohio",
    "postal_code": "45662-0218",
    "country": "United States",
    "longitude": null,
    "latitude": null,
    "phone": "7403546106",
    "website_url": "http://www.portsmouthohbrewing.com",
    "state": "Ohio",
    "street": "224 Second St"
  },
  {
    "id": "281a2d47-03db-45a9-a624-00063a1ea079",
    "name": "Poseidon Brewing Company",
    "brewery_type": "micro",
    "address_1": "5777 Olivas Park Dr Unit Q",
    "address_2": null,
    "address_3": null,
    "city": "Ventura",
    "state_province": "California",
    "postal_code": "93003-7928",
    "country": "United States",
    "longitude": -119.2097757,
    "latitude": 34.24415285,
    "phone": "8054770239",
    "website_url": "http://www.poseidonbrewingco.com",
    "state": "California",
    "street": "5777 Olivas Park Dr Unit Q"
  },
  {
    "id": "be1a1bf2-5b41-4c45-aaad-b8ac31a93e06",
    "name": "Post and Beam Brewing",
    "brewery_type": "micro",
    "address_1": "40 Grove Street",
    "address_2": null,
    "address_3": null,
    "city": "Peterborough",
    "state_province": "New Hampshire",
    "postal_code": "03458-1452",
    "country": "United States",
    "longitude": -71.9509965,
    "latitude": 42.88548717,
    "phone": "6037845361",
    "website_url": "http://www.postandbeambrewery.com",
    "state": "New Hampshire",
    "street": "40 Grove Street"
  },
  {
    "id": "0577bc6d-2115-4da6-a151-bf67b4e937e0",
    "name": "Post Falls Brewing",
    "brewery_type": "micro",
    "address_1": "112 N Spokane St",
    "address_2": null,
    "address_3": null,
    "city": "Post Falls",
    "state_province": "Idaho",
    "postal_code": "83854-9537",
    "country": "United States",
    "longitude": -116.9479708,
    "latitude": 47.7062358,
    "phone": "2087737301",
    "website_url": "http://postfallsbrewing.com",
    "state": "Idaho",
    "street": "112 N Spokane St"
  },
  {
    "id": "7b6da13b-deab-42c5-b315-f12fc4cced7e",
    "name": "Postdoc Brewing Company",
    "brewery_type": "micro",
    "address_1": "17625 NE 65th St Ste 100",
    "address_2": null,
    "address_3": null,
    "city": "Redmond",
    "state_province": "Washington",
    "postal_code": "98052-7908",
    "country": "United States",
    "longitude": -122.1050772,
    "latitude": 47.66392008,
    "phone": "4256584963",
    "website_url": "http://www.postdocbrewing.com",
    "state": "Washington",
    "street": "17625 NE 65th St Ste 100"
  },
  {
    "id": "dfa14d71-6c4f-4a62-9a73-907af8f4ed16",
    "name": "Potosi Brewing Co",
    "brewery_type": "micro",
    "address_1": "209 S Main St",
    "address_2": null,
    "address_3": null,
    "city": "Potosi",
    "state_province": "Wisconsin",
    "postal_code": "53820-9675",
    "country": "United States",
    "longitude": -90.72487192,
    "latitude": 42.6755069,
    "phone": "6087634002",
    "website_url": "http://www.potosibrewery.com",
    "state": "Wisconsin",
    "street": "209 S Main St"
  },
  {
    "id": "9bc3e2bc-71ab-40b6-87d5-6faea14596b1",
    "name": "Potosi Brewing Production Facility",
    "brewery_type": "micro",
    "address_1": "215 S Main St",
    "address_2": null,
    "address_3": null,
    "city": "Potosi",
    "state_province": "Wisconsin",
    "postal_code": "53820",
    "country": "United States",
    "longitude": -87.7836648,
    "latitude": 42.73182738,
    "phone": null,
    "website_url": null,
    "state": "Wisconsin",
    "street": "215 S Main St"
  },
  {
    "id": "6d5148c1-4534-45a3-ac5d-3464fce5f1bc",
    "name": "Powder Hollow Brewery",
    "brewery_type": "micro",
    "address_1": "504 Hazard Ave",
    "address_2": null,
    "address_3": null,
    "city": "Enfield",
    "state_province": "Connecticut",
    "postal_code": "06082-",
    "country": "United States",
    "longitude": -72.5778709,
    "latitude": 41.9896523,
    "phone": "8602050942",
    "website_url": "http://www.powderhollowbrewery.com",
    "state": "Connecticut",
    "street": "504 Hazard Ave"
  },
  {
    "id": "01cf04ff-5582-4664-baf2-83f3f3ddd932",
    "name": "Powderhaus Brewing",
    "brewery_type": "micro",
    "address_1": "9719 W Chinden Blvd",
    "address_2": null,
    "address_3": null,
    "city": "Garden City",
    "state_province": "Idaho",
    "postal_code": "83714-2008",
    "country": "United States",
    "longitude": -116.302435,
    "latitude": 43.657494,
    "phone": "2083764026",
    "website_url": "http://www.powderhausbrewing.com",
    "state": "Idaho",
    "street": "9719 W Chinden Blvd"
  },
  {
    "id": "bd88172f-055e-4db1-a5fa-73cc5827f9a7",
    "name": "Power House Brewing Co's Columbus Bar",
    "brewery_type": "brewpub",
    "address_1": "2735 N State Road 9",
    "address_2": null,
    "address_3": null,
    "city": "Columbus",
    "state_province": "Indiana",
    "postal_code": "47203-9648",
    "country": "United States",
    "longitude": null,
    "latitude": null,
    "phone": "8123758800",
    "website_url": "http://www.powerhousebrewingco.com",
    "state": "Indiana",
    "street": "2735 N State Road 9"
  },
  {
    "id": "38c7a835-2cf5-4e7e-b07a-58794ac59c99",
    "name": "Powerhouse Restaurant and Brewery",
    "brewery_type": "brewpub",
    "address_1": "454 E Main",
    "address_2": null,
    "address_3": null,
    "city": "Puyallup",
    "state_province": "Washington",
    "postal_code": "98372-3258",
    "country": "United States",
    "longitude": -122.28796837311,
    "latitude": 47.191696414014,
    "phone": "2538451370",
    "website_url": "http://www.powerhousebrewpub.com",
    "state": "Washington",
    "street": "454 E Main"
  },
  {
    "id": "13c71c4c-2ff7-4833-abaf-745311b9cd51",
    "name": "Prairie Artisan Ales",
    "brewery_type": "micro",
    "address_1": "3 NE 8th St",
    "address_2": null,
    "address_3": null,
    "city": "Oklahoma City",
    "state_province": "Oklahoma",
    "postal_code": "73104",
    "country": "United States",
    "longitude": -97.5117337,
    "latitude": 35.4762832,
    "phone": "4056020894",
    "website_url": "http://www.prairieales.com",
    "state": "Oklahoma",
    "street": "3 NE 8th St"
  },
  {
    "id": "6a13311e-fdd4-4385-a049-2de6a5d6ed11",
    "name": "Prairie Artisan Ales",
    "brewery_type": "micro",
    "address_1": "223 N Main St",
    "address_2": null,
    "address_3": null,
    "city": "Tulsa",
    "state_province": "Oklahoma",
    "postal_code": "74103",
    "country": "United States",
    "longitude": -95.9938821,
    "latitude": 36.1590862,
    "phone": "9189364395",
    "website_url": "http://www.prairiepub.com",
    "state": "Oklahoma",
    "street": "223 N Main St"
  },
  {
    "id": "37c4db32-da47-4e9f-81d1-40c9a6840c73",
    "name": "Prairie Krafts Brewing Company",
    "brewery_type": "micro",
    "address_1": "1310 Busch Pkwy",
    "address_2": null,
    "address_3": null,
    "city": "Buffalo Grove",
    "state_province": "Illinois",
    "postal_code": "60089-4505",
    "country": "United States",
    "longitude": null,
    "latitude": null,
    "phone": "2244342189",
    "website_url": "http://www.prairiekrafts.com",
    "state": "Illinois",
    "street": "1310 Busch Pkwy"
  },
  {
    "id": "4c60f800-2cec-4a26-8b1e-771b6e8b647b",
    "name": "Prairie Pride Brewery",
    "brewery_type": "micro",
    "address_1": "115 E South Front St",
    "address_2": null,
    "address_3": null,
    "city": "Grand Island",
    "state_province": "Nebraska",
    "postal_code": "68801-5917",
    "country": "United States",
    "longitude": -98.34025786,
    "latitude": 40.92675443,
    "phone": "3088505375",
    "website_url": "https://www.prairiepridebrewery.com",
    "state": "Nebraska",
    "street": "115 E South Front St"
  },
  {
    "id": "551c1130-152c-44d2-b645-772bed02915a",
    "name": "Prairie Street Brewing Co.",
    "brewery_type": "brewpub",
    "address_1": "200 Prairie St Ste 203",
    "address_2": null,
    "address_3": null,
    "city": "Rockford",
    "state_province": "Illinois",
    "postal_code": "61107-3967",
    "country": "United States",
    "longitude": -89.087658,
    "latitude": 42.273033,
    "phone": null,
    "website_url": "http://www.psbrewingco.com",
    "state": "Illinois",
    "street": "200 Prairie St Ste 203"
  },
  {
    "id": "53c24b39-49a6-495d-8048-4412389cb450",
    "name": "Prater Beer Garden",
    "brewery_type": "beergarden",
    "address_1": "Kastanienallee 7-9",
    "address_2": null,
    "address_3": null,
    "city": "Berlin",
    "state_province": "Berlin",
    "postal_code": "10435",
    "country": "Germany",
    "longitude": 52.5285752,
    "latitude": 13.3942421,
    "phone": null,
    "website_url": "https://www.prater-biergarten.de/",
    "state": "Berlin",
    "street": "Kastanienallee 7-9"
  },
  {
    "id": "f3277674-533f-49bc-8e1a-c8087d019d1b",
    "name": "Pratt Street Ale House",
    "brewery_type": "brewpub",
    "address_1": "206 W Pratt St",
    "address_2": null,
    "address_3": null,
    "city": "Baltimore",
    "state_province": "Maryland",
    "postal_code": "21201-2426",
    "country": "United States",
    "longitude": -76.61815436,
    "latitude": 39.28659055,
    "phone": "4102448900",
    "website_url": "http://www.oliverales.com",
    "state": "Maryland",
    "street": "206 W Pratt St"
  },
  {
    "id": "58336544-2f7c-4a30-8e39-d796906b3055",
    "name": "Praxis",
    "brewery_type": "brewpub",
    "address_1": "Urbaniza\u00e7\u00e3o Quinta da V\u00e1rzea",
    "address_2": "Lote 29",
    "address_3": null,
    "city": "Santa Clara",
    "state_province": "Coimbra",
    "postal_code": "3040-320",
    "country": "Portugal",
    "longitude": -8.4327192750351,
    "latitude": 40.194751103947,
    "phone": "+351 911 922 162",
    "website_url": "https://www.beerpraxis.com",
    "state": "Coimbra",
    "street": "Urbaniza\u00e7\u00e3o Quinta da V\u00e1rzea"
  },
  {
    "id": "95e02a51-f950-44e5-bd3d-1cdbbdbda3d5",
    "name": "Precarious Beer Project",
    "brewery_type": "micro",
    "address_1": "521 Prince George St",
    "address_2": null,
    "address_3": null,
    "city": "Williamsburg",
    "state_province": "Virginia",
    "postal_code": "23185-3621",
    "country": "United States",
    "longitude": -76.70845653,
    "latitude": 37.27279075,
    "phone": "6166388866",
    "website_url": "http://www.theamberox.com",
    "state": "Virginia",
    "street": "521 Prince George St"
  },
  {
    "id": "ab1a267c-6a92-4f19-b127-66065ad1b993",
    "name": "Prehistoric Brewing Company",
    "brewery_type": "micro",
    "address_1": "1816 S Glenstone Ave",
    "address_2": null,
    "address_3": null,
    "city": "Springfield",
    "state_province": "Missouri",
    "postal_code": "65804",
    "country": "United States",
    "longitude": -93.261483,
    "latitude": 37.181077,
    "phone": "4175011083",
    "website_url": "http://www.prehistoricbrewing.com",
    "state": "Missouri",
    "street": "1816 S Glenstone Ave"
  },
  {
    "id": "288a1501-5129-46e7-8c3e-1692cb0939b7",
    "name": "Prescott Brewing Co",
    "brewery_type": "brewpub",
    "address_1": "130 W Gurley St Ste A",
    "address_2": null,
    "address_3": null,
    "city": "Prescott",
    "state_province": "Arizona",
    "postal_code": "86301-3603",
    "country": "United States",
    "longitude": null,
    "latitude": null,
    "phone": "9287712795",
    "website_url": "http://www.prescottbrewingcompany.com",
    "state": "Arizona",
    "street": "130 W Gurley St Ste A"
  },
  {
    "id": "1b6e6fff-249d-4673-bf57-fa7af2aec4b1",
    "name": "Prescott Brewing Co - Production Facility",
    "brewery_type": "micro",
    "address_1": "6396 Lear Ln",
    "address_2": null,
    "address_3": null,
    "city": "Prescott",
    "state_province": "Arizona",
    "postal_code": "86301-9118",
    "country": "United States",
    "longitude": -112.4132617,
    "latitude": 34.649529,
    "phone": "9287712795",
    "website_url": "http://www.prescottbrewingcompany.com",
    "state": "Arizona",
    "street": "6396 Lear Ln"
  }
]