[
  {
    "id": "b5d8ac9a-0449-46e7-8eb8-c1078ee793bb",
    "name": "Apple Blossom Brewing Co",
    "brewery_type": "brewpub",
    "address_1": "1550 E Zion Rd",
    "address_2": null,
    "address_3": null,
    "city": "Fayetteville",
    "state_province": "Arkansas",
    "postal_code": "72703-5017",
    "country": "United States",
    "longitude": -94.1372796,
    "latitude": 36.1297079,
    "phone": "4792874344",
    "website_url": "http://www.appleblossombrewing.com",
    "state": "Arkansas",
    "street": "1550 E Zion Rd"
  },
  {
    "id": "12a02dc2-b34b-48cd-8e34-eac44554c0cf",
    "name": "Appleton Beer Factory",
    "brewery_type": "brewpub",
    "address_1": "603 W College Ave",
    "address_2": null,
    "address_3": null,
    "city": "Appleton",
    "state_province": "Wisconsin",
    "postal_code": "54911-5803",
    "country": "United States",
    "longitude": -88.4139148,
    "latitude": 44.26173602,
    "phone": "9203649931",
    "website_url": "http://www.appletonbeerfactory.com",
    "state": "Wisconsin",
    "street": "603 W College Ave"
  },
  {
    "id": "ea5535e7-94e9-4c24-baa4-32b15b495c8b",
    "name": "Apponaug Brewing",
    "brewery_type": "brewpub",
    "address_1": "334 Knight St",
    "address_2": null,
    "address_3": null,
    "city": "Warwick",
    "state_province": "Rhode Island",
    "postal_code": "02886",
    "country": "United States",
    "longitude": -71.4691256,
    "latitude": 41.7265254,
    "phone": "4016814321",
    "website_url": "http://www.apponaugbrewing.com",
    "state": "Rhode Island",
    "street": "334 Knight St"
  },
  {
    "id": "e04c1682-dba4-4366-ac2e-4a8dab19da3c",
    "name": "Aquabrew",
    "brewery_type": "brewpub",
    "address_1": "150 S L B J Dr",
    "address_2": null,
    "address_3": null,
    "city": "San Marcos",
    "state_province": "Texas",
    "postal_code": "78666-5506",
    "country": "United States",
    "longitude": null,
    "latitude": null,
    "phone": "5123532739",
    "website_url": "http://www.aqua-brew.com",
    "state": "Texas",
    "street": "150 S L B J Dr"
  },
  {
    "id": "61239a88-ebee-45d3-9794-12860e11259c",
    "name": "Aquatic Brewing LLC",
    "brewery_type": "planning",
    "address_1": null,
    "address_2": null,
    "address_3": null,
    "city": "Falmouth",
    "state_province": "Massachusetts",
    "postal_code": "02540-3299",
    "country": "United States",
    "longitude": null,
    "latitude": null,
    "phone": "5084442155",
    "website_url": "http://www.aquaticbrewing.com",
    "state": "Massachusetts",
    "street": null
  },
  {
    "id": "fc2ce5e0-8796-4749-9aba-8710cd557ccb",
    "name": "Aqueduct Brewing",
    "brewery_type": "micro",
    "address_1": "529 Grant St Ste 106",
    "address_2": null,
    "address_3": null,
    "city": "Akron",
    "state_province": "Ohio",
    "postal_code": "44311-1184",
    "country": "United States",
    "longitude": -81.51788487,
    "latitude": 41.0698532,
    "phone": "3306066583",
    "website_url": "http://www.aqueductbrewing.shutterfly.com",
    "state": "Ohio",
    "street": "529 Grant St Ste 106"
  },
  {
    "id": "e37a575c-5e11-4a2f-8e58-8fcce92e78ac",
    "name": "Aransas Pass Brewing Company, LLC",
    "brewery_type": "planning",
    "address_1": null,
    "address_2": null,
    "address_3": null,
    "city": "Aransas Pass",
    "state_province": "Texas",
    "postal_code": "78336-1920",
    "country": "United States",
    "longitude": null,
    "latitude": null,
    "phone": null,
    "website_url": null,
    "state": "Texas",
    "street": null
  },
  {
    "id": "e38d5dc2-4bf9-4627-b468-922baaa621ab",
    "name": "Arbeiter Brewing Company",
    "brewery_type": "planning",
    "address_1": null,
    "address_2": null,
    "address_3": null,
    "city": "Minneapolis",
    "state_province": "Minnesota",
    "postal_code": "55418-2325",
    "country": "United States",
    "longitude": null,
    "latitude": null,
    "phone": null,
    "website_url": "http://www.arbeiterbrewing.com",
    "state": "Minnesota",
    "street": null
  },
  {
    "id": "250d36ec-b9f2-46f4-a4d9-17216f6490b6",
    "name": "Arbor Brewing Co",
    "brewery_type": "brewpub",
    "address_1": "114 E Washington St",
    "address_2": null,
    "address_3": null,
    "city": "Ann Arbor",
    "state_province": "Michigan",
    "postal_code": "48104-1905",
    "country": "United States",
    "longitude": -83.74822471,
    "latitude": 42.28041029,
    "phone": "7342131393",
    "website_url": "http://www.arborbrewing.com",
    "state": "Michigan",
    "street": "114 E Washington St"
  },
  {
    "id": "90fa4058-a971-4fd5-8783-559c670cddde",
    "name": "Arbor Brewing Co. Microbrewery",
    "brewery_type": "micro",
    "address_1": "720 Norris St",
    "address_2": null,
    "address_3": null,
    "city": "Ypsilanti",
    "state_province": "Michigan",
    "postal_code": "48198-2825",
    "country": "United States",
    "longitude": -83.6099915,
    "latitude": 42.250158,
    "phone": "7344802739",
    "website_url": null,
    "state": "Michigan",
    "street": "720 Norris St"
  },
  {
    "id": "30561ae5-f2b9-4690-a94c-12bd52df29bb",
    "name": "Arcadia Brewing Co",
    "brewery_type": "micro",
    "address_1": "701 E Michigan Ave",
    "address_2": null,
    "address_3": null,
    "city": "Kalamazoo",
    "state_province": "Michigan",
    "postal_code": "49007-4946",
    "country": "United States",
    "longitude": -85.5715368,
    "latitude": 42.2950789,
    "phone": "2692760458",
    "website_url": "http://www.arcadiaales.com",
    "state": "Michigan",
    "street": "701 E Michigan Ave"
  },
  {
    "id": "084a0621-2a9d-4588-825e-5c5cebc4e8db",
    "name": "Arcadian Moon",
    "brewery_type": "brewpub",
    "address_1": "19203 Old Highway 40",
    "address_2": null,
    "address_3": null,
    "city": "Higginsville",
    "state_province": "Missouri",
    "postal_code": "64037",
    "country": "United States",
    "longitude": -93.773203,
    "latitude": 39.001467,
    "phone": "6605846661",
    "website_url": "http://www.arcadianmoon.com",
    "state": "Missouri",
    "street": "19203 Old Highway 40"
  },
  {
    "id": "43aa2e45-0b2a-473f-8696-7b9f63040279",
    "name": "Arcana Brewing Company",
    "brewery_type": "micro",
    "address_1": "5621 Palmer Way Ste C",
    "address_2": null,
    "address_3": null,
    "city": "Carlsbad",
    "state_province": "California",
    "postal_code": "92010-7254",
    "country": "United States",
    "longitude": -117.273876,
    "latitude": 33.14038605,
    "phone": null,
    "website_url": "http://www.arcanabrewing.com",
    "state": "California",
    "street": "5621 Palmer Way Ste C"
  },
  {
    "id": "76da304a-4094-4cae-929c-bae2ae18d24d",
    "name": "Arch Rock Brewing Co",
    "brewery_type": "micro",
    "address_1": "28779 Hunter Creek Loop",
    "address_2": null,
    "address_3": null,
    "city": "Gold Beach",
    "state_province": "Oregon",
    "postal_code": "97444-9626",
    "country": "United States",
    "longitude": -124.4155402,
    "latitude": 42.3898306,
    "phone": "5412470555",
    "website_url": "http://www.archrockbrewingcompany.com",
    "state": "Oregon",
    "street": "28779 Hunter Creek Loop"
  },
  {
    "id": "cf5055f4-59f8-4adf-b16c-b9233281bedf",
    "name": "Archaic Craft Brewery At Centro",
    "brewery_type": "brewpub",
    "address_1": "140 E Main St",
    "address_2": null,
    "address_3": null,
    "city": "Tustin",
    "state_province": "California",
    "postal_code": "92780-4408",
    "country": "United States",
    "longitude": -117.823173,
    "latitude": 33.7419754,
    "phone": "7142588817",
    "website_url": null,
    "state": "California",
    "street": "140 E Main St"
  },
  {
    "id": "ce1af2d9-e7d4-4d13-99f6-212067335f9e",
    "name": "Arches Brewing",
    "brewery_type": "micro",
    "address_1": "3361 Dogwood Dr",
    "address_2": null,
    "address_3": null,
    "city": "Hapeville",
    "state_province": "Georgia",
    "postal_code": "30354-1439",
    "country": "United States",
    "longitude": null,
    "latitude": null,
    "phone": "6786532739",
    "website_url": null,
    "state": "Georgia",
    "street": "3361 Dogwood Dr"
  },
  {
    "id": "d86d40e0-1a3f-4c34-9b07-002191bc0952",
    "name": "Archetype Brewing",
    "brewery_type": "micro",
    "address_1": "265 Haywood Rd",
    "address_2": null,
    "address_3": null,
    "city": "Asheville",
    "state_province": "North Carolina",
    "postal_code": "28806-4545",
    "country": "United States",
    "longitude": null,
    "latitude": null,
    "phone": "8285054177",
    "website_url": "http://www.archetypebrewing.com",
    "state": "North Carolina",
    "street": "265 Haywood Rd"
  },
  {
    "id": "fc552937-9245-4091-94b2-645ed0599756",
    "name": "Arclight Brewing Company",
    "brewery_type": "micro",
    "address_1": "544 N Main St",
    "address_2": null,
    "address_3": null,
    "city": "Watervliet",
    "state_province": "Michigan",
    "postal_code": "49098-9797",
    "country": "United States",
    "longitude": -86.25939238,
    "latitude": 42.19104832,
    "phone": "2693320718",
    "website_url": "http://www.arclightbrewing.com",
    "state": "Michigan",
    "street": "544 N Main St"
  },
  {
    "id": "596ac64f-9586-4b9c-8ca4-9e637be672ef",
    "name": "Arcpoint Brewing Co",
    "brewery_type": "micro",
    "address_1": null,
    "address_2": null,
    "address_3": null,
    "city": "Belchertown",
    "state_province": "Massachusetts",
    "postal_code": "01007-9305",
    "country": "United States",
    "longitude": null,
    "latitude": null,
    "phone": "5187964977",
    "website_url": "http://www.arcpointbrewco.com",
    "state": "Massachusetts",
    "street": null
  },
  {
    "id": "14e4b777-090d-46f9-8cfa-795c1201a191",
    "name": "Ardent Craft Ales",
    "brewery_type": "micro",
    "address_1": "3200 W Leigh St",
    "address_2": null,
    "address_3": null,
    "city": "Richmond",
    "state_province": "Virginia",
    "postal_code": "23230-4410",
    "country": "United States",
    "longitude": -77.47201237,
    "latitude": 37.5684425,
    "phone": "8043591605",
    "website_url": "http://www.ardentcraftales.com",
    "state": "Virginia",
    "street": "3200 W Leigh St"
  },
  {
    "id": "0b0b64c0-f10c-4252-8243-e5b9255e0b95",
    "name": "Ardent Spirits, Inc",
    "brewery_type": "planning",
    "address_1": null,
    "address_2": null,
    "address_3": null,
    "city": "Collinsville",
    "state_province": "Illinois",
    "postal_code": "62234",
    "country": "United States",
    "longitude": null,
    "latitude": null,
    "phone": "13143235530",
    "website_url": "http://Ardentspirits.com",
    "state": "Illinois",
    "street": null
  },
  {
    "id": "1914fbf9-74d3-4115-909e-fddcb112e227",
    "name": "Argilla Brewing Co @ Pietro's Pizza",
    "brewery_type": "brewpub",
    "address_1": "2667 Kirkwood Hwy",
    "address_2": null,
    "address_3": null,
    "city": "Newark",
    "state_province": "Delaware",
    "postal_code": "19711-7242",
    "country": "United States",
    "longitude": null,
    "latitude": null,
    "phone": "3027318200",
    "website_url": "http://www.argillabrewing.com",
    "state": "Delaware",
    "street": "2667 Kirkwood Hwy"
  },
  {
    "id": "7a5dc3de-6ec7-4407-94fa-3ea9a5b627aa",
    "name": "Argus Brewery",
    "brewery_type": "micro",
    "address_1": "11314 S Front Ave",
    "address_2": null,
    "address_3": null,
    "city": "Chicago",
    "state_province": "Illinois",
    "postal_code": "60628-5007",
    "country": "United States",
    "longitude": -87.61206845,
    "latitude": 41.68854885,
    "phone": "7739414050",
    "website_url": "http://www.argusbrewery.com",
    "state": "Illinois",
    "street": "11314 S Front Ave"
  },
  {
    "id": "9408064a-bc10-4e15-84d0-3ff698036d4f",
    "name": "Argyle Brewing Company",
    "brewery_type": "micro",
    "address_1": "1 Main St",
    "address_2": null,
    "address_3": null,
    "city": "Greenwich",
    "state_province": "New York",
    "postal_code": "12834-1209",
    "country": "United States",
    "longitude": -73.496758,
    "latitude": 43.08767125,
    "phone": "5183387405",
    "website_url": "http://www.argylebrewing.com",
    "state": "New York",
    "street": "1 Main St"
  },
  {
    "id": "264be80a-dc5e-40cf-93f9-cd4914656440",
    "name": "Arizona Craft Brewing",
    "brewery_type": "micro",
    "address_1": "473 Elgin Road, Suite BH",
    "address_2": null,
    "address_3": null,
    "city": "Elgin",
    "state_province": "Arizona",
    "postal_code": "85611",
    "country": "United States",
    "longitude": null,
    "latitude": null,
    "phone": "520369342",
    "website_url": null,
    "state": "Arizona",
    "street": "473 Elgin Road, Suite BH"
  },
  {
    "id": "701f00a8-fa71-4b74-9fb9-cf82c24c5b38",
    "name": "Arizona Wilderness Brewing",
    "brewery_type": "brewpub",
    "address_1": "721 N Arizona Ave",
    "address_2": null,
    "address_3": null,
    "city": "Gilbert",
    "state_province": "Arizona",
    "postal_code": "85233-3405",
    "country": "United States",
    "longitude": null,
    "latitude": null,
    "phone": "4804972739",
    "website_url": "http://Azwbeer.com",
    "state": "Arizona",
    "street": "721 N Arizona Ave"
  },
  {
    "id": "5acdc1a1-5631-4c03-960c-bd076237f124",
    "name": "Arkane Aleworks",
    "brewery_type": "micro",
    "address_1": "2480 E Bay Dr #23",
    "address_2": null,
    "address_3": null,
    "city": "Largo",
    "state_province": "Florida",
    "postal_code": "33771-2467",
    "country": "United States",
    "longitude": null,
    "latitude": null,
    "phone": "7272707117",
    "website_url": "http://www.arkanebeer.com",
    "state": "Florida",
    "street": "2480 E Bay Dr #23"
  },
  {
    "id": "5f887385-2c6a-4de6-8dec-68fb5c58029d",
    "name": "Arkose Brewery",
    "brewery_type": "micro",
    "address_1": "650 E Steel Loop",
    "address_2": null,
    "address_3": null,
    "city": "Palmer",
    "state_province": "Alaska",
    "postal_code": "99645-6689",
    "country": "United States",
    "longitude": -149.103408,
    "latitude": 61.582157,
    "phone": "9077462337",
    "website_url": "http://www.arkosebrewery.com",
    "state": "Alaska",
    "street": "650 E Steel Loop"
  },
  {
    "id": "4cc17a95-7020-43f2-bc23-b9d9ddd29a10",
    "name": "Arlington Club",
    "brewery_type": "micro",
    "address_1": "811 SW Salmon St",
    "address_2": null,
    "address_3": null,
    "city": "Portland",
    "state_province": "Oregon",
    "postal_code": "97205-3094",
    "country": "United States",
    "longitude": -122.6818596,
    "latitude": 45.51786855,
    "phone": "5032234141",
    "website_url": "http://www.thearlingtonclub.com",
    "state": "Oregon",
    "street": "811 SW Salmon St"
  },
  {
    "id": "6caf8832-1b1d-468a-a01e-87c9f82dcad7",
    "name": "Armada Brewing",
    "brewery_type": "contract",
    "address_1": "250 Bradley Street",
    "address_2": null,
    "address_3": null,
    "city": "East Haven",
    "state_province": "Connecticut",
    "postal_code": "06512",
    "country": "United States",
    "longitude": -72.87397563,
    "latitude": 41.29004301,
    "phone": "4754413759",
    "website_url": "http://www.armadabeer.com",
    "state": "Connecticut",
    "street": "250 Bradley Street"
  },
  {
    "id": "7e286282-9365-48c2-8bd2-1193bac62449",
    "name": "Armadillo Ale Works",
    "brewery_type": "micro",
    "address_1": "221 S Bell Ave",
    "address_2": null,
    "address_3": null,
    "city": "Denton",
    "state_province": "Texas",
    "postal_code": "76201-4259",
    "country": "United States",
    "longitude": -97.12830051,
    "latitude": 33.21286666,
    "phone": "9405804446",
    "website_url": "http://www.armadilloaleworks.com",
    "state": "Texas",
    "street": "221 S Bell Ave"
  },
  {
    "id": "d0dc210e-6f0e-4194-8791-dd2fe153843b",
    "name": "Armistice Brewing Company",
    "brewery_type": "micro",
    "address_1": "845 Marina Bay Pkwy Suite 1",
    "address_2": null,
    "address_3": null,
    "city": "Richmond",
    "state_province": "California",
    "postal_code": "94804-6420",
    "country": "United States",
    "longitude": -122.348274,
    "latitude": 37.91966864,
    "phone": "5102304966",
    "website_url": "http://www.armisticebrewing.com",
    "state": "California",
    "street": "845 Marina Bay Pkwy Suite 1"
  },
  {
    "id": "244d5454-88ea-41c3-b3b7-c4374e8b795c",
    "name": "Armour Brewing Company, LLC",
    "brewery_type": "brewpub",
    "address_1": "721 Main St",
    "address_2": null,
    "address_3": null,
    "city": "Armour",
    "state_province": "South Dakota",
    "postal_code": "57313-2122",
    "country": "United States",
    "longitude": -98.34450702,
    "latitude": 43.33084265,
    "phone": "4028901550",
    "website_url": "http://www.facebook.com/ArmourBrewingCompany",
    "state": "South Dakota",
    "street": "721 Main St"
  },
  {
    "id": "a19630e3-638c-4ab8-a305-36c4f1cb84f7",
    "name": "Armstrong Brewing Co",
    "brewery_type": "micro",
    "address_1": "415 Grand Ave Ste 103",
    "address_2": null,
    "address_3": null,
    "city": "South San Francisco",
    "state_province": "California",
    "postal_code": "94080-3614",
    "country": "United States",
    "longitude": -119.1925726,
    "latitude": 50.44703096,
    "phone": "6509898447",
    "website_url": "http://www.armstrongbrewing.com",
    "state": "California",
    "street": "415 Grand Ave Ste 103"
  },
  {
    "id": "d95ce7ad-97be-4a46-a9a0-85260f2bef4f",
    "name": "Around the Bend Beer Co.",
    "brewery_type": "contract",
    "address_1": "811 N Oak Park Ave",
    "address_2": null,
    "address_3": null,
    "city": "Oak Park",
    "state_province": "Illinois",
    "postal_code": "60302-1538",
    "country": "United States",
    "longitude": -87.79493034,
    "latitude": 41.90015593,
    "phone": "3129522339",
    "website_url": "http://www.atbbeerco.com",
    "state": "Illinois",
    "street": "811 N Oak Park Ave"
  },
  {
    "id": "03411879-9d3e-4e2b-82a5-d5d01935074f",
    "name": "Arrow Lodge Brewing",
    "brewery_type": "micro",
    "address_1": "720 E Arrow Hwy Ste C",
    "address_2": null,
    "address_3": null,
    "city": "Covina",
    "state_province": "California",
    "postal_code": "91722-2103",
    "country": "United States",
    "longitude": -117.8767215,
    "latitude": 34.105251,
    "phone": "6264832667",
    "website_url": "https://www.arrowlodgebrew.com/",
    "state": "California",
    "street": "720 E Arrow Hwy Ste C"
  },
  {
    "id": "118dd02b-488c-48a7-bfd0-7b49ee168f96",
    "name": "Arrowhead Ales Brewing Company",
    "brewery_type": "brewpub",
    "address_1": "2101 Calistoga Dr",
    "address_2": null,
    "address_3": null,
    "city": "New Lenox",
    "state_province": "Illinois",
    "postal_code": "60451-4826",
    "country": "United States",
    "longitude": -87.95726941,
    "latitude": 41.48205844,
    "phone": "8157176068",
    "website_url": "http://www.arrowheadales.com",
    "state": "Illinois",
    "street": "2101 Calistoga Dr"
  },
  {
    "id": "647378c3-df63-4da2-a88d-808943dcd4f9",
    "name": "Arrowood Farms",
    "brewery_type": "micro",
    "address_1": "236 Lower Whitfield Rd",
    "address_2": null,
    "address_3": null,
    "city": "Accord",
    "state_province": "New York",
    "postal_code": "12404-5809",
    "country": "United States",
    "longitude": -74.24891742,
    "latitude": 41.80666144,
    "phone": "8452530389",
    "website_url": "http://www.arrowoodfarms.com",
    "state": "New York",
    "street": "236 Lower Whitfield Rd"
  },
  {
    "id": "05549159-6724-478d-a976-4925533a40f2",
    "name": "Art History Brewing",
    "brewery_type": "micro",
    "address_1": "649 W State St",
    "address_2": null,
    "address_3": null,
    "city": "Geneva",
    "state_province": "Illinois",
    "postal_code": "60134",
    "country": "United States",
    "longitude": -88.312704761043,
    "latitude": 41.889484227325,
    "phone": "6303456274",
    "website_url": "https://arthistorybrewing.com",
    "state": "Illinois",
    "street": "649 W State St"
  },
  {
    "id": "174e828f-10aa-43b9-ba31-3c3f45001288",
    "name": "Artifex Brewing Company",
    "brewery_type": "micro",
    "address_1": "919 Calle Amanecer Ste A",
    "address_2": null,
    "address_3": null,
    "city": "San Clemente",
    "state_province": "California",
    "postal_code": "92673-6298",
    "country": "United States",
    "longitude": -117.6058963,
    "latitude": 33.44918353,
    "phone": "9494297805",
    "website_url": "http://www.artifexbrewing.com",
    "state": "California",
    "street": "919 Calle Amanecer Ste A"
  },
  {
    "id": "1d34d7cf-c2ce-4e07-aec2-930d3299c584",
    "name": "Artisan Owl Brewing Company",
    "brewery_type": "planning",
    "address_1": null,
    "address_2": null,
    "address_3": null,
    "city": "Ocean City",
    "state_province": "New Jersey",
    "postal_code": "08226-4237",
    "country": "United States",
    "longitude": null,
    "latitude": null,
    "phone": "2157402057",
    "website_url": null,
    "state": "New Jersey",
    "street": null
  },
  {
    "id": "e0783ffa-721d-45e2-9715-cbc1023a7d27",
    "name": "Artisan's Brewery & Italian Grill",
    "brewery_type": "brewpub",
    "address_1": "1171 Hooper Ave",
    "address_2": null,
    "address_3": null,
    "city": "Toms River",
    "state_province": "New Jersey",
    "postal_code": "08753-8305",
    "country": "United States",
    "longitude": -74.1880387,
    "latitude": 39.9625642,
    "phone": "7322447566",
    "website_url": "http://www.artisanstomsriver.com",
    "state": "New Jersey",
    "street": "1171 Hooper Ave"
  },
  {
    "id": "8fb6c630-7647-4a16-a55a-fde63c129636",
    "name": "Artisanal Brew Works",
    "brewery_type": "micro",
    "address_1": "41 Geyser Rd",
    "address_2": null,
    "address_3": null,
    "city": "Saratoga Springs",
    "state_province": "New York",
    "postal_code": "12866-9038",
    "country": "United States",
    "longitude": null,
    "latitude": null,
    "phone": "5185942337",
    "website_url": "http://www.artisanalbrewworks.com",
    "state": "New York",
    "street": "41 Geyser Rd"
  },
  {
    "id": "ed7c9e44-df88-4e3e-8ed2-54af6f4539e5",
    "name": "Arts District Brewing Company",
    "brewery_type": "brewpub",
    "address_1": "828 Traction Ave",
    "address_2": null,
    "address_3": null,
    "city": "Los Angeles",
    "state_province": "California",
    "postal_code": "90013-1816",
    "country": "United States",
    "longitude": -118.2357029,
    "latitude": 34.04505443,
    "phone": null,
    "website_url": null,
    "state": "California",
    "street": "828 Traction Ave"
  },
  {
    "id": "6f83ab76-9ebd-4b2c-a290-effaa2dca8b9",
    "name": "Arundel Brewery Ltd",
    "brewery_type": "brewpub",
    "address_1": "Lyminster Road",
    "address_2": null,
    "address_3": null,
    "city": "Arundel",
    "state_province": "West Sussex",
    "postal_code": "BN17 7QL",
    "country": "England",
    "longitude": -0.534301,
    "latitude": 50.839971,
    "phone": "1903733111",
    "website_url": "https://www.arundelbrewery.co.uk/",
    "state": "West Sussex",
    "street": "Lyminster Road"
  },
  {
    "id": "39b6533a-40a4-4ba1-a41e-dd8f381b7ed7",
    "name": "Arundel Cellars & Brewing Co",
    "brewery_type": "brewpub",
    "address_1": "11727 E Main Rd",
    "address_2": null,
    "address_3": null,
    "city": "North East",
    "state_province": "Pennsylvania",
    "postal_code": "16428-3635",
    "country": "United States",
    "longitude": -79.8216539,
    "latitude": 42.2195527,
    "phone": "8147251079",
    "website_url": "http://www.arundelcellars.com",
    "state": "Pennsylvania",
    "street": "11727 E Main Rd"
  },
  {
    "id": "ed6c7254-d6f6-40a1-a330-135a1e3a09ad",
    "name": "Arvon Brewing Co.",
    "brewery_type": "micro",
    "address_1": "3057 Broadway Ave SW",
    "address_2": null,
    "address_3": null,
    "city": "Grandville",
    "state_province": "Michigan",
    "postal_code": "49418-1528",
    "country": "United States",
    "longitude": -85.7720434,
    "latitude": 42.909272,
    "phone": "6162240086",
    "website_url": "http://www.arvonbrewingco.com",
    "state": "Michigan",
    "street": "3057 Broadway Ave SW"
  },
  {
    "id": "41f5672a-79ff-4559-9231-db2ecdcb2385",
    "name": "Asbury Park Brewery",
    "brewery_type": "micro",
    "address_1": "810 Sewall Ave",
    "address_2": null,
    "address_3": null,
    "city": "Asbury Park",
    "state_province": "New Jersey",
    "postal_code": "07712-6527",
    "country": "United States",
    "longitude": -74.01229282,
    "latitude": 40.21956661,
    "phone": "7324555571",
    "website_url": "http://www.asburyparkbrewery.com",
    "state": "New Jersey",
    "street": "810 Sewall Ave"
  },
  {
    "id": "ce507918-f969-4d44-a218-daca121c4bd0",
    "name": "Ascension Brewing Company",
    "brewery_type": "brewpub",
    "address_1": "42000 Grand River Ave",
    "address_2": null,
    "address_3": null,
    "city": "Novi",
    "state_province": "Michigan",
    "postal_code": "48375-1831",
    "country": "United States",
    "longitude": -83.4609783,
    "latitude": 42.4783271,
    "phone": "2483082093",
    "website_url": "http://www.ascension.beer",
    "state": "Michigan",
    "street": "42000 Grand River Ave"
  },
  {
    "id": "e337af00-da5a-4bcf-ab5d-d9d9252b8ae8",
    "name": "Asgard Brewing Company",
    "brewery_type": "micro",
    "address_1": "104 E 5th St",
    "address_2": null,
    "address_3": null,
    "city": "Columbia",
    "state_province": "Tennessee",
    "postal_code": "38401-3351",
    "country": "United States",
    "longitude": -87.03329688,
    "latitude": 35.6174542,
    "phone": "6158282218",
    "website_url": "http://www.asgardbrewery.com",
    "state": "Tennessee",
    "street": "104 E 5th St"
  }
]