[
  {
    "id": "394e227d-58e8-485e-b037-b587d9334bf3",
    "name": "Crew Brewing Company",
    "brewery_type": "micro",
    "address_1": "35 Thomas St",
    "address_2": null,
    "address_3": null,
    "city": "Limerick",
    "state_province": "Limerick",
    "postal_code": "V94 A5X4",
    "country": "Ireland",
    "longitude": -8.6258884,
    "latitude": 52.6619598,
    "phone": null,
    "website_url": "http://www.crewbrewing.ie/",
    "state": "Limerick",
    "street": "35 Thomas St"
  },
  {
    "id": "97bbffd0-e943-4b0d-b8e3-3246fe173a15",
    "name": "Cricket Hill Brewing Co. Inc.",
    "brewery_type": "micro",
    "address_1": "24 Kulick Rd",
    "address_2": null,
    "address_3": null,
    "city": "Fairfield",
    "state_province": "New Jersey",
    "postal_code": "07004-3308",
    "country": "United States",
    "longitude": -74.2963174,
    "latitude": 40.872626,
    "phone": "9732769415",
    "website_url": "http://www.crickethillbrewery.com",
    "state": "New Jersey",
    "street": "24 Kulick Rd"
  },
  {
    "id": "6660d8a1-2668-4096-9510-92ea23e6371e",
    "name": "Crime & Punishment Brewing Company",
    "brewery_type": "brewpub",
    "address_1": "2711 W Girard Ave",
    "address_2": null,
    "address_3": null,
    "city": "Philadelphia",
    "state_province": "Pennsylvania",
    "postal_code": "19130-1212",
    "country": "United States",
    "longitude": -75.1808422,
    "latitude": 39.9743646,
    "phone": "2152352739",
    "website_url": "http://www.crimeandpunishmentbrewery.com",
    "state": "Pennsylvania",
    "street": "2711 W Girard Ave"
  },
  {
    "id": "6e35969e-ccfc-4f69-b738-0748b0d3a591",
    "name": "Crisis Brewing LLC",
    "brewery_type": "micro",
    "address_1": "210 S Archibald Yell Blvd",
    "address_2": null,
    "address_3": null,
    "city": "Fayetteville",
    "state_province": "Arkansas",
    "postal_code": "72701-4459",
    "country": "United States",
    "longitude": -94.16087539,
    "latitude": 36.05959704,
    "phone": "4795822337",
    "website_url": "http://www.crisisbrew.com",
    "state": "Arkansas",
    "street": "210 S Archibald Yell Blvd"
  },
  {
    "id": "7b67ad3f-b68c-4fae-af3a-4a3aef7b7f74",
    "name": "Critz Farms Brewing & Cider Co.",
    "brewery_type": "micro",
    "address_1": "3232 Rippleton Rd",
    "address_2": null,
    "address_3": null,
    "city": "Cazenovia",
    "state_province": "New York",
    "postal_code": "13035-9693",
    "country": "United States",
    "longitude": -75.8746342,
    "latitude": 42.8805302,
    "phone": "3156623355",
    "website_url": "http://www.critzfarms.com",
    "state": "New York",
    "street": "3232 Rippleton Rd"
  },
  {
    "id": "ef8cb80a-8a31-4038-834a-a27874bfa9d8",
    "name": "Crooked Can Brewing Co",
    "brewery_type": "micro",
    "address_1": "426 W Plant St",
    "address_2": null,
    "address_3": null,
    "city": "Winter Garden",
    "state_province": "Florida",
    "postal_code": "34787-3014",
    "country": "United States",
    "longitude": -81.590376,
    "latitude": 28.5639024,
    "phone": null,
    "website_url": "http://www.crookedcan.com",
    "state": "Florida",
    "street": "426 W Plant St"
  },
  {
    "id": "9b94f17c-c19e-4a58-8621-a0beef7db4cd",
    "name": "Crooked Crab Brewing Company",
    "brewery_type": "micro",
    "address_1": "8251 Telegraph Rd",
    "address_2": null,
    "address_3": null,
    "city": "Odenton",
    "state_province": "Maryland",
    "postal_code": "21113",
    "country": "United States",
    "longitude": -76.69482405,
    "latitude": 39.09729159,
    "phone": "4435699187",
    "website_url": "http://www.cookedcrabbrewing.com",
    "state": "Maryland",
    "street": "8251 Telegraph Rd"
  },
  {
    "id": "59c2cac1-d48e-4ee3-bbea-8d19cc1cfcbe",
    "name": "Crooked Current Brewery",
    "brewery_type": "micro",
    "address_1": "560 Mineral Spring Ave Ste 2-112",
    "address_2": null,
    "address_3": null,
    "city": "Pawtucket",
    "state_province": "Rhode Island",
    "postal_code": "02860-8612",
    "country": "United States",
    "longitude": -71.4057415,
    "latitude": 41.8726983,
    "phone": "4014738312",
    "website_url": "http://www.crookedcurrentbrewery.com",
    "state": "Rhode Island",
    "street": "560 Mineral Spring Ave Ste 2-112"
  },
  {
    "id": "c4322724-2b2e-41bc-80bc-6d74e08bc915",
    "name": "Crooked Ewe Brewery & Ale House",
    "brewery_type": "brewpub",
    "address_1": "1047 Lincoln Way E",
    "address_2": null,
    "address_3": null,
    "city": "South Bend",
    "state_province": "Indiana",
    "postal_code": "46601-3726",
    "country": "United States",
    "longitude": null,
    "latitude": null,
    "phone": "5742170881",
    "website_url": "http://www.crookedewe.com",
    "state": "Indiana",
    "street": "1047 Lincoln Way E"
  },
  {
    "id": "c38f360f-89b2-427f-89b2-39c66b9cb9cd",
    "name": "Crooked Eye Brewery",
    "brewery_type": "micro",
    "address_1": "13 E Montgomery Ave Ste 2",
    "address_2": null,
    "address_3": null,
    "city": "Hatboro",
    "state_province": "Pennsylvania",
    "postal_code": "19040-2618",
    "country": "United States",
    "longitude": null,
    "latitude": null,
    "phone": "2152859253",
    "website_url": "http://crookedeyebrewery.com",
    "state": "Pennsylvania",
    "street": "13 E Montgomery Ave Ste 2"
  },
  {
    "id": "6ea64715-be41-4897-9b8a-496911ce26ec",
    "name": "Crooked Fence Brewing",
    "brewery_type": "micro",
    "address_1": "5220 N Sawyer Ave",
    "address_2": null,
    "address_3": null,
    "city": "Garden City",
    "state_province": "Idaho",
    "postal_code": "83714",
    "country": "United States",
    "longitude": -116.268704,
    "latitude": 43.646739,
    "phone": "2083757907",
    "website_url": "http://www.crookedfencebrewing.com",
    "state": "Idaho",
    "street": "5220 N Sawyer Ave"
  },
  {
    "id": "d0b18089-fdea-44aa-9b99-fe28ce55b4ea",
    "name": "Crooked Furrow Brewing",
    "brewery_type": "micro",
    "address_1": "2801 N Roberts Ave",
    "address_2": null,
    "address_3": null,
    "city": "Helena",
    "state_province": "Montana",
    "postal_code": "59601",
    "country": "United States",
    "longitude": null,
    "latitude": null,
    "phone": "4064225975",
    "website_url": "http://www.crookedfurrowbrewing.com",
    "state": "Montana",
    "street": "2801 N Roberts Ave"
  },
  {
    "id": "dd4507bb-0b17-429e-b3b8-f4065c53d487",
    "name": "Crooked Goat Brewing",
    "brewery_type": "micro",
    "address_1": "120 Morris St Ste 120",
    "address_2": null,
    "address_3": null,
    "city": "Sebastopol",
    "state_province": "California",
    "postal_code": "95472-3867",
    "country": "United States",
    "longitude": -122.8196789,
    "latitude": 38.40410225,
    "phone": "7078273893",
    "website_url": "http://www.crookedgoatbrewing.com",
    "state": "California",
    "street": "120 Morris St Ste 120"
  },
  {
    "id": "ae710b07-f1bc-42fa-a2ef-47e1ad43f5bf",
    "name": "Crooked Hammock Brewery",
    "brewery_type": "brewpub",
    "address_1": "36707 Crooked Hammock Way",
    "address_2": null,
    "address_3": null,
    "city": "Lewes",
    "state_province": "Delaware",
    "postal_code": "19958-4877",
    "country": "United States",
    "longitude": null,
    "latitude": null,
    "phone": null,
    "website_url": null,
    "state": "Delaware",
    "street": "36707 Crooked Hammock Way"
  },
  {
    "id": "74cbeded-8edb-49ef-95a4-f0a1cb372a7e",
    "name": "Crooked Handle Brewing Co.",
    "brewery_type": "micro",
    "address_1": "760 N Main St",
    "address_2": null,
    "address_3": null,
    "city": "Springboro",
    "state_province": "Ohio",
    "postal_code": "45066-8944",
    "country": "United States",
    "longitude": -84.23082816,
    "latitude": 39.57664643,
    "phone": "9377903450",
    "website_url": "http://www.crookedhandle.com",
    "state": "Ohio",
    "street": "760 N Main St"
  },
  {
    "id": "e7b3c72d-7795-4882-81ed-2c4362ed4ece",
    "name": "Crooked Label Brewing Company",
    "brewery_type": "micro",
    "address_1": "773 Village Way",
    "address_2": null,
    "address_3": null,
    "city": "Monroe",
    "state_province": "Washington",
    "postal_code": "98272-2171",
    "country": "United States",
    "longitude": -121.9807376,
    "latitude": 47.85092868,
    "phone": "3602178741",
    "website_url": "https://www.facebook.com/Crooked-Label-Brewing-Company-873921246124558/",
    "state": "Washington",
    "street": "773 Village Way"
  },
  {
    "id": "7eb998d5-80d4-4d93-9695-b1a3e6a8dbb5",
    "name": "Crooked Ladder Brewery",
    "brewery_type": "micro",
    "address_1": "70 W Main St",
    "address_2": null,
    "address_3": null,
    "city": "Riverhead",
    "state_province": "New York",
    "postal_code": "11901-2802",
    "country": "United States",
    "longitude": -72.66319867,
    "latitude": 40.91701672,
    "phone": "6319025335",
    "website_url": "http://www.crookedladderbrewingco.com",
    "state": "New York",
    "street": "70 W Main St"
  },
  {
    "id": "134c8b3a-98f6-436b-a31a-2d8b717f3d80",
    "name": "Crooked Lane Brewing Co",
    "brewery_type": "micro",
    "address_1": "536 Grass Valley Hwy",
    "address_2": null,
    "address_3": null,
    "city": "Auburn",
    "state_province": "California",
    "postal_code": "95603-3807",
    "country": "United States",
    "longitude": -121.0769384,
    "latitude": 38.90869888,
    "phone": "5306137434",
    "website_url": "http://www.crookedlanebrewing.com",
    "state": "California",
    "street": "536 Grass Valley Hwy"
  },
  {
    "id": "7ccad05b-4094-411f-8e22-e68cb5eb4bba",
    "name": "Crooked Letter Brewing Co",
    "brewery_type": "brewpub",
    "address_1": "503 Porter Ave",
    "address_2": null,
    "address_3": null,
    "city": "Ocean Springs",
    "state_province": "Mississippi",
    "postal_code": "39564",
    "country": "United States",
    "longitude": null,
    "latitude": null,
    "phone": "2282353994",
    "website_url": "http://www.crookedletterbrewery.com",
    "state": "Mississippi",
    "street": "503 Porter Ave"
  },
  {
    "id": "ba9ac1f0-2b7d-4cc2-ab55-9eaa479fee80",
    "name": "Crooked Pecker Brewing",
    "brewery_type": "planning",
    "address_1": null,
    "address_2": null,
    "address_3": null,
    "city": "Newbury",
    "state_province": "Ohio",
    "postal_code": "44065-9735",
    "country": "United States",
    "longitude": null,
    "latitude": null,
    "phone": "4404763427",
    "website_url": null,
    "state": "Ohio",
    "street": null
  },
  {
    "id": "903ba837-e27a-48b6-8287-da98c01e0b35",
    "name": "Crooked Rooster Brewery LLC.",
    "brewery_type": "micro",
    "address_1": "1478 S 6th St",
    "address_2": null,
    "address_3": null,
    "city": "Macclenny",
    "state_province": "Florida",
    "postal_code": "32063",
    "country": "United States",
    "longitude": -82.1223325,
    "latitude": 30.2707152,
    "phone": "9046532337",
    "website_url": "http://www.crookedroosterbrews.com",
    "state": "Florida",
    "street": "1478 S 6th St"
  },
  {
    "id": "7aa49d30-257e-4d82-9bfe-e7181f309a3d",
    "name": "Crooked Run Brewing",
    "brewery_type": "micro",
    "address_1": "205 Harrison St SE",
    "address_2": null,
    "address_3": null,
    "city": "Leesburg",
    "state_province": "Virginia",
    "postal_code": "20175-3702",
    "country": "United States",
    "longitude": -77.56287085,
    "latitude": 39.11226781,
    "phone": "5713752652",
    "website_url": "http://crookedrunbrewing.com",
    "state": "Virginia",
    "street": "205 Harrison St SE"
  },
  {
    "id": "e26fbcf7-5991-4cae-8c54-15a107fba85d",
    "name": "Crooked Stave Artisan Beer Project",
    "brewery_type": "micro",
    "address_1": "1441 W 46th Ave Unit 17",
    "address_2": null,
    "address_3": null,
    "city": "Denver",
    "state_province": "Colorado",
    "postal_code": "80211-2338",
    "country": "United States",
    "longitude": null,
    "latitude": null,
    "phone": "7205083292",
    "website_url": "http://www.crookedstave.com",
    "state": "Colorado",
    "street": "1441 W 46th Ave Unit 17"
  },
  {
    "id": "ee71a877-46d6-45a9-9e2d-6291f4609de6",
    "name": "Crooked Thumb Brewery",
    "brewery_type": "micro",
    "address_1": "555 10th Ave S",
    "address_2": null,
    "address_3": null,
    "city": "Safety Harbor",
    "state_province": "Florida",
    "postal_code": "34695-3821",
    "country": "United States",
    "longitude": -82.6986687,
    "latitude": 27.9874212,
    "phone": "7277245953",
    "website_url": "http://www.crookedthumbbrew.com",
    "state": "Florida",
    "street": "555 10th Ave S"
  },
  {
    "id": "8d2c978f-56a4-4df1-849f-93733f45cc21",
    "name": "Crooked Tongue Brewing",
    "brewery_type": "micro",
    "address_1": "2516 Benjamin Franklin Hwy",
    "address_2": null,
    "address_3": null,
    "city": "Edinburg",
    "state_province": "Pennsylvania",
    "postal_code": "16116-4302",
    "country": "United States",
    "longitude": null,
    "latitude": null,
    "phone": "7248563765",
    "website_url": "http://www.crookedtonguebrewing.com",
    "state": "Pennsylvania",
    "street": "2516 Benjamin Franklin Hwy"
  },
  {
    "id": "df821532-ffc3-417b-9b56-3de17c9bceac",
    "name": "Crooked Tooth Brewing Co.",
    "brewery_type": "micro",
    "address_1": "228 E 6th St",
    "address_2": null,
    "address_3": null,
    "city": "Tucson",
    "state_province": "Arizona",
    "postal_code": "85705-8424",
    "country": "United States",
    "longitude": -110.9677332,
    "latitude": 32.22762302,
    "phone": "5204445305",
    "website_url": "http://www.crookedtoothbrewing.com",
    "state": "Arizona",
    "street": "228 E 6th St"
  },
  {
    "id": "976f21bd-4435-4c9f-8342-451f89029b11",
    "name": "Cross Country Brewing",
    "brewery_type": "micro",
    "address_1": "320 E Allard St",
    "address_2": null,
    "address_3": null,
    "city": "Glendive",
    "state_province": "Montana",
    "postal_code": "59330-2719",
    "country": "United States",
    "longitude": -104.70579,
    "latitude": 47.11209,
    "phone": "4063772739",
    "website_url": null,
    "state": "Montana",
    "street": "320 E Allard St"
  },
  {
    "id": "f6c9d376-e9a6-412a-a3bf-cf47acf0b749",
    "name": "Cross Keys Brewing Co",
    "brewery_type": "micro",
    "address_1": "1038 N Main St",
    "address_2": null,
    "address_3": null,
    "city": "Williamstown",
    "state_province": "New Jersey",
    "postal_code": "08094-3161",
    "country": "United States",
    "longitude": -75.0079984,
    "latitude": 39.69627246,
    "phone": "8569066481",
    "website_url": "http://www.ckbcbeer.com",
    "state": "New Jersey",
    "street": "1038 N Main St"
  },
  {
    "id": "8360b304-8e43-49e6-ae58-d66e12df2c3e",
    "name": "Cross Plains Brewery Inc.",
    "brewery_type": "contract",
    "address_1": "2109 Hickory St",
    "address_2": null,
    "address_3": null,
    "city": "Cross Plains",
    "state_province": "Wisconsin",
    "postal_code": "53528-9700",
    "country": "United States",
    "longitude": -89.65293922,
    "latitude": 43.11427765,
    "phone": "6087983911",
    "website_url": "http://www.essersbest.com",
    "state": "Wisconsin",
    "street": "2109 Hickory St"
  },
  {
    "id": "49e104a3-2c71-4f23-ad40-628d6084d570",
    "name": "Cross-Eyed Owl Brewing Co.",
    "brewery_type": "micro",
    "address_1": "105 1st Ave NE",
    "address_2": null,
    "address_3": null,
    "city": "Decatur",
    "state_province": "Alabama",
    "postal_code": "35601-2301",
    "country": "United States",
    "longitude": -86.98663302,
    "latitude": 34.60412065,
    "phone": "2564310931",
    "website_url": "http://www.xeobrewing.com",
    "state": "Alabama",
    "street": "105 1st Ave NE"
  },
  {
    "id": "a3defe47-f327-4d0f-b2e8-ce85297dab21",
    "name": "Crossed Arrows Brewery",
    "brewery_type": "micro",
    "address_1": "1091 SW Fleet St",
    "address_2": null,
    "address_3": null,
    "city": "Oak Harbor",
    "state_province": "Washington",
    "postal_code": "98277-3168",
    "country": "United States",
    "longitude": -122.6658157317,
    "latitude": 48.289645059207,
    "phone": null,
    "website_url": "https://www.crossedarrowsbrewery.com/",
    "state": "Washington",
    "street": "1091 SW Fleet St"
  },
  {
    "id": "76c1cb37-657f-4367-901f-ae1fa7436562",
    "name": "Crossroads Brewing Co",
    "brewery_type": "brewpub",
    "address_1": "21 2nd St",
    "address_2": null,
    "address_3": null,
    "city": "Athens",
    "state_province": "New York",
    "postal_code": "12015-1327",
    "country": "United States",
    "longitude": -73.8100641,
    "latitude": 42.2605541,
    "phone": "5189452337",
    "website_url": "http://www.crossroadsbrewingco.com",
    "state": "New York",
    "street": "21 2nd St"
  },
  {
    "id": "10bd658f-7260-4535-9f5a-ecdaf3496444",
    "name": "Crosstown Brewing Company",
    "brewery_type": "micro",
    "address_1": "1264 Concourse Ave",
    "address_2": null,
    "address_3": null,
    "city": "Memphis",
    "state_province": "Tennessee",
    "postal_code": "38104-7022",
    "country": "United States",
    "longitude": -90.0129924,
    "latitude": 35.1515547,
    "phone": "9015297611",
    "website_url": "http://www.crosstownbeer.com",
    "state": "Tennessee",
    "street": "1264 Concourse Ave"
  },
  {
    "id": "20d95606-a290-43fb-b8a4-2319b269c943",
    "name": "Crow Hop Brewing Co. Ltd.",
    "brewery_type": "micro",
    "address_1": "214 E 4th St",
    "address_2": null,
    "address_3": null,
    "city": "Loveland",
    "state_province": "Colorado",
    "postal_code": "80537-5632",
    "country": "United States",
    "longitude": -105.0735144,
    "latitude": 40.39536486,
    "phone": "9706330643",
    "website_url": "http://www.crowhopbrewing.com",
    "state": "Colorado",
    "street": "214 E 4th St"
  },
  {
    "id": "b3a266ac-9340-4322-a7ca-3ec0062d59e5",
    "name": "Crow Peak Brewing Co",
    "brewery_type": "micro",
    "address_1": "125 W Highway 14",
    "address_2": null,
    "address_3": null,
    "city": "Spearfish",
    "state_province": "South Dakota",
    "postal_code": "57783-1150",
    "country": "United States",
    "longitude": -103.8706684,
    "latitude": 44.5175219,
    "phone": "6057170006",
    "website_url": "http://www.crowpeakbrewing.com",
    "state": "South Dakota",
    "street": "125 W Highway 14"
  },
  {
    "id": "35056c86-03bb-4790-8b27-5241f914f73d",
    "name": "Crowded Castle Brewing Co. Inc.",
    "brewery_type": "brewpub",
    "address_1": "242 Bridge St",
    "address_2": null,
    "address_3": null,
    "city": "Phoenixville",
    "state_province": "Pennsylvania",
    "postal_code": "19460-3450",
    "country": "United States",
    "longitude": -75.51762814,
    "latitude": 40.13370414,
    "phone": "4842520077",
    "website_url": "http://www.crowdedcastle.com",
    "state": "Pennsylvania",
    "street": "242 Bridge St"
  },
  {
    "id": "e57a94bd-f81c-409c-992d-6a093856121c",
    "name": "Crowing Hen",
    "brewery_type": "planning",
    "address_1": null,
    "address_2": null,
    "address_3": null,
    "city": "Carlton",
    "state_province": "Oregon",
    "postal_code": "97111-9668",
    "country": "United States",
    "longitude": -123.0986999,
    "latitude": 45.29153898,
    "phone": "5038520037",
    "website_url": null,
    "state": "Oregon",
    "street": null
  },
  {
    "id": "fba9c7a9-0edc-44d8-8fdb-0c8544987a17",
    "name": "Crown Brewing Co",
    "brewery_type": "brewpub",
    "address_1": "211 S East St",
    "address_2": null,
    "address_3": null,
    "city": "Crown Point",
    "state_province": "Indiana",
    "postal_code": "46307-4058",
    "country": "United States",
    "longitude": null,
    "latitude": null,
    "phone": "2196634545",
    "website_url": "http://www.crownbrewing.com",
    "state": "Indiana",
    "street": "211 S East St"
  },
  {
    "id": "5a29edb9-1db8-432e-b45c-1bd6588b6c5a",
    "name": "Crown Valley Brewing & Distilling Co",
    "brewery_type": "micro",
    "address_1": "23589 State Route Ww",
    "address_2": null,
    "address_3": null,
    "city": "Sainte Genevieve",
    "state_province": "Missouri",
    "postal_code": "63670-9039",
    "country": "United States",
    "longitude": -90.21257,
    "latitude": 37.777679,
    "phone": "5737569700",
    "website_url": "http://www.crownvalleybrewery.com",
    "state": "Missouri",
    "street": "23589 State Route Ww"
  },
  {
    "id": "d7d0c62b-5b9a-4317-9953-d125d066adc4",
    "name": "Crucible Brewing - Everett Foundry",
    "brewery_type": "micro",
    "address_1": "909 SE Everett Mall Way Ste D440",
    "address_2": null,
    "address_3": null,
    "city": "Everett",
    "state_province": "Washington",
    "postal_code": "98208-3755",
    "country": "United States",
    "longitude": -122.220239,
    "latitude": 47.911765,
    "phone": "4253747293",
    "website_url": "http://www.cruciblebrewing.com",
    "state": "Washington",
    "street": "909 SE Everett Mall Way Ste D440"
  },
  {
    "id": "6fd8fda4-acc3-447c-ae41-254d581bbe25",
    "name": "Crucible Brewing - Woodinville Forge",
    "brewery_type": "micro",
    "address_1": "12826 NE 178th St Ste C",
    "address_2": null,
    "address_3": null,
    "city": "Woodinville",
    "state_province": "Washington",
    "postal_code": "98072-8737",
    "country": "United States",
    "longitude": -122.167861,
    "latitude": 47.757935,
    "phone": "4254839855",
    "website_url": "http://www.cruciblebrewing.com",
    "state": "Washington",
    "street": "12826 NE 178th St Ste C"
  },
  {
    "id": "96380a97-d12b-423e-9a03-a42991ecfb16",
    "name": "Crue Brew Brewery",
    "brewery_type": "micro",
    "address_1": "95 Ryan Dr Ste 6",
    "address_2": null,
    "address_3": null,
    "city": "Raynham",
    "state_province": "Massachusetts",
    "postal_code": "02767-1992",
    "country": "United States",
    "longitude": null,
    "latitude": null,
    "phone": "5082726090",
    "website_url": "http://www.cruebrewbrewery.com",
    "state": "Massachusetts",
    "street": "95 Ryan Dr Ste 6"
  },
  {
    "id": "731ea370-dfdb-4e79-a63f-b7acd4e32481",
    "name": "Crux Fermentation Project",
    "brewery_type": "regional",
    "address_1": "50 SW Division St",
    "address_2": null,
    "address_3": null,
    "city": "Bend",
    "state_province": "Oregon",
    "postal_code": "97702-1600",
    "country": "United States",
    "longitude": -121.3079657,
    "latitude": 44.05092629,
    "phone": "5413887558",
    "website_url": "http://www.cruxfermentation.com",
    "state": "Oregon",
    "street": "50 SW Division St"
  },
  {
    "id": "eff4b8a3-9aef-4d32-bce1-593b1935aa67",
    "name": "Crux Fermentation Project - Crux2",
    "brewery_type": "micro",
    "address_1": "63065 NE 18th St",
    "address_2": null,
    "address_3": null,
    "city": "Bend",
    "state_province": "Oregon",
    "postal_code": "97701-9981",
    "country": "United States",
    "longitude": -121.2824469,
    "latitude": 44.08947729,
    "phone": null,
    "website_url": null,
    "state": "Oregon",
    "street": "63065 NE 18th St"
  },
  {
    "id": "1d2b23a3-7fdf-4f47-b96d-36bd027fe822",
    "name": "Cruz Blanca Brewery",
    "brewery_type": "brewpub",
    "address_1": "904 W Randolph St",
    "address_2": null,
    "address_3": null,
    "city": "Chicago",
    "state_province": "Illinois",
    "postal_code": "60607-2208",
    "country": "United States",
    "longitude": -87.6501403,
    "latitude": 41.8846013,
    "phone": "3127331975",
    "website_url": "http://www.cruzblanca.com",
    "state": "Illinois",
    "street": "904 W Randolph St"
  },
  {
    "id": "534c0a74-1e1a-422a-894a-1fe55ea95af4",
    "name": "Crying Eagle Brewing Company",
    "brewery_type": "micro",
    "address_1": "1165 E McNeese St",
    "address_2": null,
    "address_3": null,
    "city": "Lake Charles",
    "state_province": "Louisiana",
    "postal_code": "70607-4753",
    "country": "United States",
    "longitude": -93.20515133,
    "latitude": 30.17626439,
    "phone": "3379904871",
    "website_url": "http://www.cryingeagle.com",
    "state": "Louisiana",
    "street": "1165 E McNeese St"
  },
  {
    "id": "52177169-ec91-4785-8c44-d8fbb2d2ed2b",
    "name": "Crystal Ball Brewing",
    "brewery_type": "micro",
    "address_1": "1612 W King St",
    "address_2": null,
    "address_3": null,
    "city": "York",
    "state_province": "Pennsylvania",
    "postal_code": "17404-5618",
    "country": "United States",
    "longitude": -76.76273652,
    "latitude": 39.94891984,
    "phone": null,
    "website_url": "http://www.crystalballbrewing.com",
    "state": "Pennsylvania",
    "street": "1612 W King St"
  },
  {
    "id": "e7828fc7-72e4-4f74-b2e5-afedfedf49c7",
    "name": "Crystal Coast Brewing Company LLC",
    "brewery_type": "micro",
    "address_1": "702 Arendell St",
    "address_2": null,
    "address_3": null,
    "city": "Morehead City",
    "state_province": "North Carolina",
    "postal_code": "28557-4234",
    "country": "United States",
    "longitude": -76.71137408,
    "latitude": 34.72105219,
    "phone": "7044513618",
    "website_url": "http://www.CrystalCoastBrewingCompany.com",
    "state": "North Carolina",
    "street": "702 Arendell St"
  },
  {
    "id": "e8cad295-e28e-4bb1-8101-5de1049846b2",
    "name": "Crystal Lake Brewing Co.",
    "brewery_type": "micro",
    "address_1": "150 N Main St",
    "address_2": null,
    "address_3": null,
    "city": "Crystal Lake",
    "state_province": "Illinois",
    "postal_code": "60014-4433",
    "country": "United States",
    "longitude": -88.316204,
    "latitude": 42.2413125,
    "phone": null,
    "website_url": null,
    "state": "Illinois",
    "street": "150 N Main St"
  },
  {
    "id": "313df964-9854-4ab9-9733-c29aad544c45",
    "name": "Crystal Springs Brewing Co",
    "brewery_type": "micro",
    "address_1": "657 S Taylor Ave",
    "address_2": null,
    "address_3": null,
    "city": "Louisville",
    "state_province": "Colorado",
    "postal_code": "80027-3063",
    "country": "United States",
    "longitude": -105.119781,
    "latitude": 39.964883,
    "phone": "3038845602",
    "website_url": "http://www.crystalspringsbrewing.com",
    "state": "Colorado",
    "street": "657 S Taylor Ave"
  }
]