[
  {
    "id": "a1a02e31-20d5-47dc-8a57-607f4b6d77e4",
    "name": "Maplewood Brewing Company",
    "brewery_type": "micro",
    "address_1": "2717 N Maplewood Ave",
    "address_2": null,
    "address_3": null,
    "city": "Chicago",
    "state_province": "Illinois",
    "postal_code": "60647-1930",
    "country": "United States",
    "longitude": -87.69106414,
    "latitude": 41.93075205,
    "phone": "7732701061",
    "website_url": "http://www.maplewoodbrew.com",
    "state": "Illinois",
    "street": "2717 N Maplewood Ave"
  },
  {
    "id": "45a4d916-2bc4-4e46-8d7a-d7e994f0d3fb",
    "name": "Marble Brewery - Mav Lab",
    "brewery_type": "micro",
    "address_1": "9904 Montgomery Blvd NE",
    "address_2": null,
    "address_3": null,
    "city": "Albuquerque",
    "state_province": "New Mexico",
    "postal_code": "87111-3554",
    "country": "United States",
    "longitude": -106.5308452,
    "latitude": 35.13056812,
    "phone": "5053234030",
    "website_url": null,
    "state": "New Mexico",
    "street": "9904 Montgomery Blvd NE"
  },
  {
    "id": "90ecf47b-00b7-4b34-8ce3-2a704d6eddd6",
    "name": "Marble Brewery - Production",
    "brewery_type": "regional",
    "address_1": "111 Marble Ave NW",
    "address_2": null,
    "address_3": null,
    "city": "Albuquerque",
    "state_province": "New Mexico",
    "postal_code": "87102-2315",
    "country": "United States",
    "longitude": -106.6467287,
    "latitude": 35.0928224,
    "phone": "5052432739",
    "website_url": "http://www.marblebrewery.com",
    "state": "New Mexico",
    "street": "111 Marble Ave NW"
  },
  {
    "id": "2f2409c0-09db-4b7b-b68d-4eb5076226bc",
    "name": "Marblehead Brewing Company",
    "brewery_type": "micro",
    "address_1": "124 Pleasant St",
    "address_2": null,
    "address_3": null,
    "city": "Marblehead",
    "state_province": "Massachusetts",
    "postal_code": "01945",
    "country": "United States",
    "longitude": -70.8573661,
    "latitude": 42.50125386,
    "phone": "7817970211",
    "website_url": "http://www.marbleheadbrewing.co",
    "state": "Massachusetts",
    "street": "124 Pleasant St"
  },
  {
    "id": "09c1d107-87d3-491f-9968-7591abf6010a",
    "name": "MARCA BREWING",
    "brewery_type": "micro",
    "address_1": "3\u22127\u221228 Kita-Horie 1F",
    "address_2": null,
    "address_3": null,
    "city": "Osaka",
    "state_province": "Osaka",
    "postal_code": "550-0014",
    "country": "Japan",
    "longitude": 135.4886683,
    "latitude": 34.67439921,
    "phone": "81667109487",
    "website_url": "https://beermarca.com/",
    "state": "Osaka",
    "street": "3\u22127\u221228 Kita-Horie 1F"
  },
  {
    "id": "8acae3ab-9840-4619-9f8b-873d262ff38e",
    "name": "March First Brewing",
    "brewery_type": "brewpub",
    "address_1": "7885 E Kemper Rd",
    "address_2": null,
    "address_3": null,
    "city": "Cincinnati",
    "state_province": "Ohio",
    "postal_code": "45249-1622",
    "country": "United States",
    "longitude": null,
    "latitude": null,
    "phone": "5135620759",
    "website_url": "http://www.marchfirstbrewing.com",
    "state": "Ohio",
    "street": "7885 E Kemper Rd"
  },
  {
    "id": "efb2d5d8-8c2c-4e53-adec-156c22f79eed",
    "name": "March Hare Brewing",
    "brewery_type": "planning",
    "address_1": null,
    "address_2": null,
    "address_3": null,
    "city": "Parker",
    "state_province": "Colorado",
    "postal_code": "80134-3627",
    "country": "United States",
    "longitude": null,
    "latitude": null,
    "phone": "3039606020",
    "website_url": null,
    "state": "Colorado",
    "street": null
  },
  {
    "id": "c440f494-5670-4510-9624-d1707fa1e2b7",
    "name": "Mare Island Brewing Co.",
    "brewery_type": "brewpub",
    "address_1": "289 Mare Island Way",
    "address_2": null,
    "address_3": null,
    "city": "Vallejo",
    "state_province": "California",
    "postal_code": "94590-5801",
    "country": "United States",
    "longitude": -122.2631011,
    "latitude": 38.0998706,
    "phone": "7075563000",
    "website_url": "http://www.mareislandbrewingco.com",
    "state": "California",
    "street": "289 Mare Island Way"
  },
  {
    "id": "6ec5c9d0-34df-4a2e-b041-ff956ce3d98a",
    "name": "Marietta Brewing Co",
    "brewery_type": "brewpub",
    "address_1": "167 Front St",
    "address_2": null,
    "address_3": null,
    "city": "Marietta",
    "state_province": "Ohio",
    "postal_code": "45750-3125",
    "country": "United States",
    "longitude": -81.45339993,
    "latitude": 39.41184635,
    "phone": "7403732739",
    "website_url": "http://www.mariettabrewingcompany.com",
    "state": "Ohio",
    "street": "167 Front St"
  },
  {
    "id": "36d25eb4-d6b7-4783-bce1-568b5839f402",
    "name": "Marin Brewing Co",
    "brewery_type": "brewpub",
    "address_1": "1809 Larkspur Landing Cir",
    "address_2": null,
    "address_3": null,
    "city": "Larkspur",
    "state_province": "California",
    "postal_code": "94939-1801",
    "country": "United States",
    "longitude": -122.5068874,
    "latitude": 37.9458177,
    "phone": "4154614677",
    "website_url": "http://www.marinbrewing.com",
    "state": "California",
    "street": "1809 Larkspur Landing Cir"
  },
  {
    "id": "f2e26a12-0265-4335-91fe-c04f7035ee4b",
    "name": "Maritime Pacific Brewing Co",
    "brewery_type": "micro",
    "address_1": "1111 NW Ballard Way",
    "address_2": null,
    "address_3": null,
    "city": "Seattle",
    "state_province": "Washington",
    "postal_code": "98107-4639",
    "country": "United States",
    "longitude": -122.371641,
    "latitude": 47.66347198,
    "phone": "2067826181",
    "website_url": "http://www.maritimebrewery.com",
    "state": "Washington",
    "street": "1111 NW Ballard Way"
  },
  {
    "id": "e9673697-3229-45ee-bab1-6889e63ccffe",
    "name": "Mark Twain Brewing Company",
    "brewery_type": "brewpub",
    "address_1": "422 N Main St",
    "address_2": null,
    "address_3": null,
    "city": "Hannibal",
    "state_province": "Missouri",
    "postal_code": "63401-3324",
    "country": "United States",
    "longitude": -91.35744225,
    "latitude": 39.71293685,
    "phone": "5734061300",
    "website_url": "http://www.marktwainbrewery.com",
    "state": "Missouri",
    "street": "422 N Main St"
  },
  {
    "id": "1cf8e00c-e42d-428a-8be5-d8fdfeccc21e",
    "name": "Marker 48 Brewing LLC",
    "brewery_type": "micro",
    "address_1": "12147 Cortez Blvd",
    "address_2": null,
    "address_3": null,
    "city": "Brooksville",
    "state_province": "Florida",
    "postal_code": "34613-5551",
    "country": "United States",
    "longitude": -82.4012824,
    "latitude": 28.5396995,
    "phone": "3526062509",
    "website_url": "http://www.marker48.com",
    "state": "Florida",
    "street": "12147 Cortez Blvd"
  },
  {
    "id": "c87c9776-065c-4ce0-8042-9113c7995915",
    "name": "Market Cross Pub & Brewery",
    "brewery_type": "micro",
    "address_1": "113 N Hanover St",
    "address_2": null,
    "address_3": null,
    "city": "Carlisle",
    "state_province": "Pennsylvania",
    "postal_code": "17013-2422",
    "country": "United States",
    "longitude": -77.18872886,
    "latitude": 40.20335743,
    "phone": "7172581234",
    "website_url": "http://www.marketcrosspub.com",
    "state": "Pennsylvania",
    "street": "113 N Hanover St"
  },
  {
    "id": "cbff0c83-0ea9-4114-bb4c-96d372c21365",
    "name": "Market Garden Brewery",
    "brewery_type": "micro",
    "address_1": "1849 W 24th St",
    "address_2": null,
    "address_3": null,
    "city": "Cleveland",
    "state_province": "Ohio",
    "postal_code": "44113",
    "country": "United States",
    "longitude": -81.70272815,
    "latitude": 41.48573746,
    "phone": "2166214000",
    "website_url": null,
    "state": "Ohio",
    "street": "1849 W 24th St"
  },
  {
    "id": "2634ae09-4e13-4aa7-b0f1-dfcecf935a42",
    "name": "Market Garden Brewery",
    "brewery_type": "micro",
    "address_1": "1947 W 25th St",
    "address_2": null,
    "address_3": null,
    "city": "Cleveland",
    "state_province": "Ohio",
    "postal_code": "44113-3418",
    "country": "United States",
    "longitude": -81.7036495,
    "latitude": 41.4848964,
    "phone": "2166214000",
    "website_url": "http://www.marketgardenbrewery.com",
    "state": "Ohio",
    "street": "1947 W 25th St"
  },
  {
    "id": "d14e2dee-999d-4983-a9cd-5d74d35af35b",
    "name": "Market Street Brewing Co",
    "brewery_type": "brewpub",
    "address_1": "63 W Market St # 65",
    "address_2": null,
    "address_3": null,
    "city": "Corning",
    "state_province": "New York",
    "postal_code": "14830-2526",
    "country": "United States",
    "longitude": -77.0571571,
    "latitude": 42.143984,
    "phone": "6079362337",
    "website_url": "http://www.936-beer.com",
    "state": "New York",
    "street": "63 W Market St # 65"
  },
  {
    "id": "db1b4d4d-31e9-468d-8fae-2c033f6fcbe4",
    "name": "Market Street Public House",
    "brewery_type": "brewpub",
    "address_1": "200 Market St",
    "address_2": null,
    "address_3": null,
    "city": "Denton",
    "state_province": "Maryland",
    "postal_code": "21629-1037",
    "country": "United States",
    "longitude": -75.831804,
    "latitude": 38.886037,
    "phone": "4104794720",
    "website_url": "http://www.marketstreet.pub",
    "state": "Maryland",
    "street": "200 Market St"
  },
  {
    "id": "e8c1c4c5-6835-418a-af97-d85a7e73335f",
    "name": "Marley's Brewery",
    "brewery_type": "brewpub",
    "address_1": "1323 Columbia Blvd",
    "address_2": null,
    "address_3": null,
    "city": "Bloomsburg",
    "state_province": "Pennsylvania",
    "postal_code": "17815-8860",
    "country": "United States",
    "longitude": -76.4477386,
    "latitude": 41.0013964,
    "phone": "5707849600",
    "website_url": "http://www.marleysbrewery.com",
    "state": "Pennsylvania",
    "street": "1323 Columbia Blvd"
  },
  {
    "id": "05330622-853a-411b-8e86-a8c167bf58ae",
    "name": "Marsh Island Brewing Company",
    "brewery_type": "micro",
    "address_1": "2 Main St",
    "address_2": null,
    "address_3": null,
    "city": "Orono",
    "state_province": "Maine",
    "postal_code": "04473-4004",
    "country": "United States",
    "longitude": -68.671416,
    "latitude": 44.884496,
    "phone": "2078661277",
    "website_url": "http://www.marshislandbrewing.com",
    "state": "Maine",
    "street": "2 Main St"
  },
  {
    "id": "3abc62ca-39c8-4fb3-a9bd-9bc343bf5ea2",
    "name": "Marshall Brewing Co, LLC",
    "brewery_type": "micro",
    "address_1": "1742 E 6th St",
    "address_2": null,
    "address_3": null,
    "city": "Tulsa",
    "state_province": "Oklahoma",
    "postal_code": "74104",
    "country": "United States",
    "longitude": -95.9650788,
    "latitude": 36.1516146,
    "phone": "9182928781",
    "website_url": "http://www.marshallbrewing.com",
    "state": "Oklahoma",
    "street": "1742 E 6th St"
  },
  {
    "id": "f4fee96e-e540-44f0-9e7a-177758d1f2ec",
    "name": "Marshall Wharf Brewing Co",
    "brewery_type": "micro",
    "address_1": "40 Marshall Wharf",
    "address_2": null,
    "address_3": null,
    "city": "Belfast",
    "state_province": "Maine",
    "postal_code": "04915-6835",
    "country": "United States",
    "longitude": null,
    "latitude": null,
    "phone": "2073381707",
    "website_url": "http://www.marshallwharf.com",
    "state": "Maine",
    "street": "40 Marshall Wharf"
  },
  {
    "id": "40add606-afd1-430a-b274-2af693e0e5aa",
    "name": "Martha's Exchange Restaurant and Brewery",
    "brewery_type": "brewpub",
    "address_1": "185 Main St",
    "address_2": null,
    "address_3": null,
    "city": "Nashua",
    "state_province": "New Hampshire",
    "postal_code": "03060-2701",
    "country": "United States",
    "longitude": -71.46548181,
    "latitude": 42.7604446,
    "phone": "6038838781",
    "website_url": "http://www.marthas-exchange.com",
    "state": "New Hampshire",
    "street": "185 Main St"
  },
  {
    "id": "1c357f75-dc18-43cf-bcc4-45e1089b6086",
    "name": "Martin City Brewing Company",
    "brewery_type": "micro",
    "address_1": "500 E 135th St",
    "address_2": null,
    "address_3": null,
    "city": "Kansas City",
    "state_province": "Missouri",
    "postal_code": "64145-1672",
    "country": "United States",
    "longitude": -94.590214,
    "latitude": 38.882691,
    "phone": "8162682222",
    "website_url": "http://www.martincitybrewing.com",
    "state": "Missouri",
    "street": "500 E 135th St"
  },
  {
    "id": "e64276ac-2aa7-404a-a538-212734a0eb84",
    "name": "Martin City Brewing Company Pizza and Taproom",
    "brewery_type": "brewpub",
    "address_1": "354 SW Blue Pkwy",
    "address_2": null,
    "address_3": null,
    "city": "Lees Summit",
    "state_province": "Missouri",
    "postal_code": "64063",
    "country": "United States",
    "longitude": -94.388546,
    "latitude": 38.916883,
    "phone": "8164345100",
    "website_url": "http://www.martincitybrewingcompany.com",
    "state": "Missouri",
    "street": "354 SW Blue Pkwy"
  },
  {
    "id": "90ea9a74-74a3-46b7-bada-c336227ef480",
    "name": "Martin House Brewing Company",
    "brewery_type": "micro",
    "address_1": "220 S Sylvania Ave Ste 209",
    "address_2": null,
    "address_3": null,
    "city": "Fort Worth",
    "state_province": "Texas",
    "postal_code": "76111-2232",
    "country": "United States",
    "longitude": null,
    "latitude": null,
    "phone": "8172220177",
    "website_url": "http://www.martinhousebrewing.com",
    "state": "Texas",
    "street": "220 S Sylvania Ave Ste 209"
  },
  {
    "id": "a74e31ee-d113-4a2b-9daf-5d1c6a06aefb",
    "name": "Marz Community Brewing",
    "brewery_type": "proprietor",
    "address_1": "3630 S Iron St",
    "address_2": null,
    "address_3": null,
    "city": "Chicago",
    "state_province": "Illinois",
    "postal_code": "60609",
    "country": "United States",
    "longitude": -87.6595253,
    "latitude": 41.827819,
    "phone": null,
    "website_url": "http://www.marzbrewing.com",
    "state": "Illinois",
    "street": "3630 S Iron St"
  },
  {
    "id": "d73817c1-57a4-403a-89d4-00533aecf05d",
    "name": "Marzoni's Brick Oven and Brewery",
    "brewery_type": "brewpub",
    "address_1": "165 Patch Way Rd",
    "address_2": null,
    "address_3": null,
    "city": "Duncansville",
    "state_province": "Pennsylvania",
    "postal_code": "16635-8431",
    "country": "United States",
    "longitude": null,
    "latitude": null,
    "phone": "8146951300",
    "website_url": "http://www.marzonis.com",
    "state": "Pennsylvania",
    "street": "165 Patch Way Rd"
  },
  {
    "id": "7239ab18-8f23-4c56-9b53-27187bc0ab6b",
    "name": "Masala Bar",
    "brewery_type": "bar",
    "address_1": "723 East Coast Road",
    "address_2": null,
    "address_3": null,
    "city": "Singapore",
    "state_province": "Singapore",
    "postal_code": "459071",
    "country": "Singapore",
    "longitude": 1.3125188161613,
    "latitude": 103.922957,
    "phone": "+65 6282 4648",
    "website_url": "https://www.masalaabar.com/",
    "state": "Singapore",
    "street": "723 East Coast Road"
  },
  {
    "id": "e5f2a11d-9da7-40ad-b4c1-7ec2da6c7083",
    "name": "Mascher Brewing Co.",
    "brewery_type": "planning",
    "address_1": null,
    "address_2": null,
    "address_3": null,
    "city": "Aurora",
    "state_province": "Colorado",
    "postal_code": "80014-8226",
    "country": "United States",
    "longitude": null,
    "latitude": null,
    "phone": "8329482020",
    "website_url": "http://www.mascher.beer/",
    "state": "Colorado",
    "street": null
  },
  {
    "id": "57d8c1a8-2932-4735-88d1-eba02bd05e4e",
    "name": "Mash Brewing Company",
    "brewery_type": "closed",
    "address_1": "122 N George St",
    "address_2": null,
    "address_3": null,
    "city": "Charles Town",
    "state_province": "West Virginia",
    "postal_code": "25414-1502",
    "country": "United States",
    "longitude": -77.86015133,
    "latitude": 39.28926882,
    "phone": "6812521788",
    "website_url": "http://www.mashbrewingcompany.com",
    "state": "West Virginia",
    "street": "122 N George St"
  },
  {
    "id": "43d60f58-3534-41f2-b65c-905f8dd67ca4",
    "name": "Mash Cult Brewing",
    "brewery_type": "micro",
    "address_1": "6823 Burlington Pike",
    "address_2": null,
    "address_3": null,
    "city": "Florence",
    "state_province": "Kentucky",
    "postal_code": "41042-1616",
    "country": "United States",
    "longitude": -84.6436665,
    "latitude": 39.0008541,
    "phone": "8593714466",
    "website_url": null,
    "state": "Kentucky",
    "street": "6823 Burlington Pike"
  },
  {
    "id": "b41d9c2b-b22e-4744-acdc-6ab0c5ca383f",
    "name": "Mash House Restaurant & Brewery",
    "brewery_type": "brewpub",
    "address_1": "4150 Sycamore Dairy Rd",
    "address_2": null,
    "address_3": null,
    "city": "Fayetteville",
    "state_province": "North Carolina",
    "postal_code": "28303-3459",
    "country": "United States",
    "longitude": -78.95654831,
    "latitude": 35.07468171,
    "phone": "9108679223",
    "website_url": "http://www.themashhouse.com",
    "state": "North Carolina",
    "street": "4150 Sycamore Dairy Rd"
  },
  {
    "id": "24ca52df-8487-4992-aaa9-f5e36a3f5297",
    "name": "Mash Lab Brewing",
    "brewery_type": "micro",
    "address_1": "4395 Highland Meadows Pkwy",
    "address_2": null,
    "address_3": null,
    "city": "Windsor",
    "state_province": "Colorado",
    "postal_code": "80550-8007",
    "country": "United States",
    "longitude": -104.9677936,
    "latitude": 40.4386998,
    "phone": "9702629225",
    "website_url": "http://www.mashlabbrewing.com",
    "state": "Colorado",
    "street": "4395 Highland Meadows Pkwy"
  },
  {
    "id": "6eda5cd6-c8c7-4297-bd3f-b3e9aa2013a0",
    "name": "Mash Monkeys Brewing Company",
    "brewery_type": "micro",
    "address_1": "920 U.S. Highway 1 Unit 1",
    "address_2": null,
    "address_3": null,
    "city": "Sebastian",
    "state_province": "Florida",
    "postal_code": "32958",
    "country": "United States",
    "longitude": null,
    "latitude": null,
    "phone": "7725716283",
    "website_url": "http://Www.mashmonkeysbrewing.com",
    "state": "Florida",
    "street": "920 U.S. Highway 1 Unit 1"
  },
  {
    "id": "5e5efe9d-03bb-44f0-838e-b8e0cd2c99a2",
    "name": "MashCraft Brewing",
    "brewery_type": "micro",
    "address_1": "1140 N State Road 135 Ste M",
    "address_2": null,
    "address_3": null,
    "city": "Greenwood",
    "state_province": "Indiana",
    "postal_code": "46142-1016",
    "country": "United States",
    "longitude": null,
    "latitude": null,
    "phone": "3172154578",
    "website_url": "http://www.mashcraft.com",
    "state": "Indiana",
    "street": "1140 N State Road 135 Ste M"
  },
  {
    "id": "c816f568-d053-473a-8820-fa7cf9b8fa7f",
    "name": "Mason Ale Works",
    "brewery_type": "micro",
    "address_1": "2002 S Coast Hwy",
    "address_2": null,
    "address_3": null,
    "city": "Oceanside",
    "state_province": "California",
    "postal_code": "92054-6535",
    "country": "United States",
    "longitude": -117.358767,
    "latitude": 33.171842,
    "phone": "8583958809",
    "website_url": "http://www.masonaleworks.com",
    "state": "California",
    "street": "2002 S Coast Hwy"
  },
  {
    "id": "c73bb5c8-f1cc-4554-9b58-9878ce1c8554",
    "name": "Mason City Brewing",
    "brewery_type": "micro",
    "address_1": "28 E State St",
    "address_2": null,
    "address_3": null,
    "city": "Mason City",
    "state_province": "Iowa",
    "postal_code": "50401-3318",
    "country": "United States",
    "longitude": -93.20033373,
    "latitude": 43.15160788,
    "phone": "6414231080",
    "website_url": "http://www.masoncitybrewing.com",
    "state": "Iowa",
    "street": "28 E State St"
  },
  {
    "id": "7ed9bc5e-2062-476c-810f-8c5a9833df9d",
    "name": "Mason Jar Lager Co.",
    "brewery_type": "micro",
    "address_1": "341 Broad St # 151",
    "address_2": null,
    "address_3": null,
    "city": "Fuquay Varina",
    "state_province": "North Carolina",
    "postal_code": "27526-1703",
    "country": "United States",
    "longitude": -78.8026696,
    "latitude": 35.6015909,
    "phone": "9195575303",
    "website_url": "http://www.masonjarlagerco.com",
    "state": "North Carolina",
    "street": "341 Broad St # 151"
  },
  {
    "id": "4b1d8776-79c5-40c4-9baf-a6ba63f9ba2a",
    "name": "Mason's Brewing Company",
    "brewery_type": "micro",
    "address_1": "15 Hardy St",
    "address_2": null,
    "address_3": null,
    "city": "Brewer",
    "state_province": "Maine",
    "postal_code": "04412-2207",
    "country": "United States",
    "longitude": -68.76957092,
    "latitude": 44.79146596,
    "phone": "2079896300",
    "website_url": "http://www.masonsbrewingcompany.com",
    "state": "Maine",
    "street": "15 Hardy St"
  },
  {
    "id": "d124427e-32a9-4946-a033-6fe93b09d6d8",
    "name": "Mast Landing Brewing Company",
    "brewery_type": "micro",
    "address_1": "920 Main St",
    "address_2": null,
    "address_3": null,
    "city": "Westbrook",
    "state_province": "Maine",
    "postal_code": "04092-2862",
    "country": "United States",
    "longitude": -70.36920486,
    "latitude": 43.676947,
    "phone": "2077126051",
    "website_url": "http://www.mastlandingbrewing.com",
    "state": "Maine",
    "street": "920 Main St"
  },
  {
    "id": "c4ef8974-6ae8-43c3-9e51-01f8e0317622",
    "name": "Masters BrewHouse",
    "brewery_type": "brewpub",
    "address_1": "831 S Main St Suite M",
    "address_2": null,
    "address_3": null,
    "city": "Deer Park",
    "state_province": "Washington",
    "postal_code": "99006",
    "country": "United States",
    "longitude": -117.4756027,
    "latitude": 47.94576147,
    "phone": "5096353508",
    "website_url": "https://deerparkcraftbeer.com",
    "state": "Washington",
    "street": "831 S Main St Suite M"
  },
  {
    "id": "cefd9035-5695-4a1e-97bb-8d449468797a",
    "name": "Masthead Brewing Co",
    "brewery_type": "brewpub",
    "address_1": "1261 Superior Ave E",
    "address_2": null,
    "address_3": null,
    "city": "Cleveland",
    "state_province": "Ohio",
    "postal_code": "44114-3204",
    "country": "United States",
    "longitude": -81.6853889,
    "latitude": 41.5041432,
    "phone": "4192604770",
    "website_url": "http://www.mastheadbrewingco.com",
    "state": "Ohio",
    "street": "1261 Superior Ave E"
  },
  {
    "id": "8342cc4f-2867-423c-be9c-5384b7e8a3f7",
    "name": "Mastiff Brewery",
    "brewery_type": "planning",
    "address_1": null,
    "address_2": null,
    "address_3": null,
    "city": "Middle River",
    "state_province": "Maryland",
    "postal_code": "21220-2818",
    "country": "United States",
    "longitude": null,
    "latitude": null,
    "phone": "3023127011",
    "website_url": null,
    "state": "Maryland",
    "street": null
  },
  {
    "id": "95ace274-f4ca-4490-a5f3-0f5e68930f84",
    "name": "Mastry's Brewing Co",
    "brewery_type": "micro",
    "address_1": "7701 Blind Pass Rd",
    "address_2": null,
    "address_3": null,
    "city": "St Pete Beach",
    "state_province": "Florida",
    "postal_code": "33706-1726",
    "country": "United States",
    "longitude": -82.751357,
    "latitude": 27.74434,
    "phone": "7272028045",
    "website_url": "http://www.mastrysbrewingco.com",
    "state": "Florida",
    "street": "7701 Blind Pass Rd"
  },
  {
    "id": "304126ea-a12e-4685-9e26-be36742f8d64",
    "name": "Matanuska Brewing Company - Downtown Brewpub",
    "brewery_type": "brewpub",
    "address_1": "535 W 3rd Ave",
    "address_2": null,
    "address_3": null,
    "city": "Anchorage",
    "state_province": "Alaska",
    "postal_code": "99501",
    "country": "United States",
    "longitude": -149.893012,
    "latitude": 61.219744,
    "phone": "9078656995",
    "website_url": "https://matanuskabrewingcompany.com",
    "state": "Alaska",
    "street": "535 W 3rd Ave"
  },
  {
    "id": "3fba9614-8dae-420b-b024-4f0387278a64",
    "name": "Matanuska Brewing Company - Eagle River",
    "brewery_type": "brewpub",
    "address_1": "11901 Old Glenn Hwy",
    "address_2": null,
    "address_3": null,
    "city": "Eagle River",
    "state_province": "Alaska",
    "postal_code": "99577",
    "country": "United States",
    "longitude": -149.568403,
    "latitude": 61.328403,
    "phone": "9076963000",
    "website_url": "https://matanuskabrewingcompany.com",
    "state": "Alaska",
    "street": "11901 Old Glenn Hwy"
  },
  {
    "id": "3515eba4-8e81-4e9a-924d-a9b03ffe0072",
    "name": "Matanuska Brewing Company - Midtown Brewpub",
    "brewery_type": "brewpub",
    "address_1": "2830 C St",
    "address_2": null,
    "address_3": null,
    "city": "Anchorage",
    "state_province": "Alaska",
    "postal_code": "99503",
    "country": "United States",
    "longitude": -149.888563,
    "latitude": 61.195228,
    "phone": "9076772531",
    "website_url": "https://matanuskabrewingcompany.com",
    "state": "Alaska",
    "street": "2830 C St"
  },
  {
    "id": "d9913c2c-03cb-435b-b091-3576446e23b9",
    "name": "Matchless Brewing",
    "brewery_type": "micro",
    "address_1": "8036 River Dr SE Ste 208",
    "address_2": null,
    "address_3": null,
    "city": "Tumwater",
    "state_province": "Washington",
    "postal_code": "98501-6814",
    "country": "United States",
    "longitude": -122.884827,
    "latitude": 46.97137083,
    "phone": "5033173284",
    "website_url": "http://www.matchlessbrewing.com",
    "state": "Washington",
    "street": "8036 River Dr SE Ste 208"
  },
  {
    "id": "452434ec-1c9b-4167-a29c-ccb99ea7df05",
    "name": "Matchstick Brewing Company",
    "brewery_type": "closed",
    "address_1": null,
    "address_2": null,
    "address_3": null,
    "city": "Coeur D Alene",
    "state_province": "Idaho",
    "postal_code": "83815",
    "country": "United States",
    "longitude": null,
    "latitude": null,
    "phone": null,
    "website_url": "http://www.matchstickbrewing.com",
    "state": "Idaho",
    "street": null
  }
]