[
  {
    "id": "d76e7016-097d-481d-a510-effd1d4fcd6d",
    "name": "True Symmetry Brewing Company",
    "brewery_type": "micro",
    "address_1": "315 Marina Ctr",
    "address_2": null,
    "address_3": null,
    "city": "Suisun City",
    "state_province": "California",
    "postal_code": "94585-2518",
    "country": "United States",
    "longitude": -122.0345391,
    "latitude": 38.24359051,
    "phone": "7072026000",
    "website_url": "http://Www.truesymmetry.beer",
    "state": "California",
    "street": "315 Marina Ctr"
  },
  {
    "id": "97ae87b9-74f3-40c8-8773-967c92450fa5",
    "name": "True Vine Brewing Company",
    "brewery_type": "micro",
    "address_1": "219 S Englewood Ave",
    "address_2": null,
    "address_3": null,
    "city": "Tyler",
    "state_province": "Texas",
    "postal_code": "75702-6926",
    "country": "United States",
    "longitude": -95.31600025,
    "latitude": 32.34866425,
    "phone": "9036000124",
    "website_url": "http://www.truevinebrewing.com",
    "state": "Texas",
    "street": "219 S Englewood Ave"
  },
  {
    "id": "4e46363e-54f7-454f-91e7-2aa59c95361d",
    "name": "True West Brewing Company",
    "brewery_type": "brewpub",
    "address_1": "525 Massachusetts Ave Ste 107",
    "address_2": null,
    "address_3": null,
    "city": "Acton",
    "state_province": "Massachusetts",
    "postal_code": "01720-2962",
    "country": "United States",
    "longitude": null,
    "latitude": null,
    "phone": "9782061600",
    "website_url": "http://www.brewtruewest.com",
    "state": "Massachusetts",
    "street": "525 Massachusetts Ave Ste 107"
  },
  {
    "id": "239ded16-d444-429b-b6d7-fd30631c05d1",
    "name": "Trumer Brewery",
    "brewery_type": "regional",
    "address_1": "1404 4th St",
    "address_2": null,
    "address_3": null,
    "city": "Berkeley",
    "state_province": "California",
    "postal_code": "94710-1323",
    "country": "United States",
    "longitude": -122.3030265,
    "latitude": 37.87686526,
    "phone": "5105261160",
    "website_url": "http://www.trumer-international.com",
    "state": "California",
    "street": "1404 4th St"
  },
  {
    "id": "fdc05c0a-59db-4ffd-b289-10996f4d9e2f",
    "name": "Trusty Brewing Co.",
    "brewery_type": "brewpub",
    "address_1": "114 E Evergreen Blvd",
    "address_2": null,
    "address_3": null,
    "city": "Vancouver",
    "state_province": "Washington",
    "postal_code": "98660-3219",
    "country": "United States",
    "longitude": -122.6707614,
    "latitude": 45.6289331,
    "phone": "3602580413",
    "website_url": "http://www.trustybrewing.com",
    "state": "Washington",
    "street": "114 E Evergreen Blvd"
  },
  {
    "id": "e512a4c1-76aa-485e-b12a-331ff2859f2a",
    "name": "Truth Or Consequences Brewing Company",
    "brewery_type": "micro",
    "address_1": "410 N Broadway St",
    "address_2": null,
    "address_3": null,
    "city": "Truth or Consequences",
    "state_province": "New Mexico",
    "postal_code": "87901-2836",
    "country": "United States",
    "longitude": null,
    "latitude": null,
    "phone": "5752970289",
    "website_url": "http://www.torc.beer",
    "state": "New Mexico",
    "street": "410 N Broadway St"
  },
  {
    "id": "d5b1d385-bb34-4a69-a37c-7c6c41894029",
    "name": "TRVE Brewing Co",
    "brewery_type": "micro",
    "address_1": "2600 W. 2nd Ave Unit 8",
    "address_2": null,
    "address_3": null,
    "city": "Denver",
    "state_province": "Colorado",
    "postal_code": "80219",
    "country": "United States",
    "longitude": null,
    "latitude": null,
    "phone": "3033511021",
    "website_url": "http://trvebrewing.com",
    "state": "Colorado",
    "street": "2600 W. 2nd Ave Unit 8"
  },
  {
    "id": "0bd2b60b-f75e-4a26-a93e-e7b1277a004d",
    "name": "TRVE Brewing Co. - The Acid Temple",
    "brewery_type": "micro",
    "address_1": "2600 W. 2nd Ave Unit 8",
    "address_2": null,
    "address_3": null,
    "city": "Denver",
    "state_province": "Colorado",
    "postal_code": "80219",
    "country": "United States",
    "longitude": null,
    "latitude": null,
    "phone": "3033511021",
    "website_url": null,
    "state": "Colorado",
    "street": "2600 W. 2nd Ave Unit 8"
  },
  {
    "id": "020aa383-378b-43d0-b91a-f8b4e5641be1",
    "name": "TTs Old Iron Brewery",
    "brewery_type": "micro",
    "address_1": "154 S Madison St",
    "address_2": null,
    "address_3": null,
    "city": "Spokane",
    "state_province": "Washington",
    "postal_code": "99201-4542",
    "country": "United States",
    "longitude": -117.4281651,
    "latitude": 47.655248,
    "phone": null,
    "website_url": "http://www.ttsoldironbrewery.com",
    "state": "Washington",
    "street": "154 S Madison St"
  },
  {
    "id": "36e4c1c9-8ffe-4096-9153-765a99550f2b",
    "name": "Tuckahoe Brewing Co",
    "brewery_type": "micro",
    "address_1": "3092 English Creek Ave",
    "address_2": null,
    "address_3": null,
    "city": "Egg Harbor Township",
    "state_province": "New Jersey",
    "postal_code": "08234-5245",
    "country": "United States",
    "longitude": -74.61365675,
    "latitude": 39.42606663,
    "phone": "6096452739",
    "website_url": "http://www.tuckahoebrewing.com",
    "state": "New Jersey",
    "street": "3092 English Creek Ave"
  },
  {
    "id": "bee37e69-0e10-4076-849a-fd6ee2d5f35f",
    "name": "Tucked Away Brewing",
    "brewery_type": "planning",
    "address_1": null,
    "address_2": null,
    "address_3": null,
    "city": "Manassas",
    "state_province": "Virginia",
    "postal_code": "22010",
    "country": "United States",
    "longitude": null,
    "latitude": null,
    "phone": "9373712176",
    "website_url": null,
    "state": "Virginia",
    "street": null
  },
  {
    "id": "443536da-82d9-447f-811f-0d3e069e9086",
    "name": "Tucker Brewing Company",
    "brewery_type": "micro",
    "address_1": "2003 S Bibb Dr",
    "address_2": null,
    "address_3": null,
    "city": "Tucker",
    "state_province": "Georgia",
    "postal_code": "30084-6240",
    "country": "United States",
    "longitude": -84.20758809,
    "latitude": 33.84269209,
    "phone": "8337522400",
    "website_url": "http://www.tuckerbrewing.com",
    "state": "Georgia",
    "street": "2003 S Bibb Dr"
  },
  {
    "id": "568fcb4a-f5cd-4554-84b1-8ce90052e21d",
    "name": "Tuckerman Brewing Co",
    "brewery_type": "micro",
    "address_1": "66 Hobbs St",
    "address_2": null,
    "address_3": null,
    "city": "Conway",
    "state_province": "New Hampshire",
    "postal_code": "03818-1058",
    "country": "United States",
    "longitude": -71.12983196,
    "latitude": 43.97582858,
    "phone": "6034475400",
    "website_url": "http://www.tuckermanbrewing.com",
    "state": "New Hampshire",
    "street": "66 Hobbs St"
  },
  {
    "id": "c90a15c5-1a4d-495a-94f5-62fe78425b81",
    "name": "Tujax Tavern",
    "brewery_type": "brewpub",
    "address_1": "103 S Grove St",
    "address_2": null,
    "address_3": null,
    "city": "Delton",
    "state_province": "Michigan",
    "postal_code": "49046-9470",
    "country": "United States",
    "longitude": -85.407991,
    "latitude": 42.496258,
    "phone": "2696238310",
    "website_url": null,
    "state": "Michigan",
    "street": "103 S Grove St"
  },
  {
    "id": "7b08b3ee-5d16-47fa-ac17-7d7dee9c0ba0",
    "name": "Tumbledown Brewing LLC",
    "brewery_type": "micro",
    "address_1": "805 Farmington Falls Rd Ste 7",
    "address_2": null,
    "address_3": null,
    "city": "Farmington",
    "state_province": "Maine",
    "postal_code": "04938-6454",
    "country": "United States",
    "longitude": null,
    "latitude": null,
    "phone": "2079440697",
    "website_url": "http://www.tumbledownbrewing.com",
    "state": "Maine",
    "street": "805 Farmington Falls Rd Ste 7"
  },
  {
    "id": "ad99d8ce-7e57-4544-89e7-894eaaf58457",
    "name": "Tumbleroot Brewery And Distillery",
    "brewery_type": "micro",
    "address_1": "32 Bisbee Court Unit 3-4",
    "address_2": null,
    "address_3": null,
    "city": "Santa Fe",
    "state_province": "New Mexico",
    "postal_code": "87508",
    "country": "United States",
    "longitude": null,
    "latitude": null,
    "phone": "5052217894",
    "website_url": "http://www.tumblerootbreweryanddistillery.com",
    "state": "New Mexico",
    "street": "32 Bisbee Court Unit 3-4"
  },
  {
    "id": "6aae0645-3f00-46f7-89d2-9ebd4aad9cd2",
    "name": "Tumbleweed Brewing and Wine Company",
    "brewery_type": "brewpub",
    "address_1": "124 S Main St",
    "address_2": null,
    "address_3": null,
    "city": "Yuma",
    "state_province": "Colorado",
    "postal_code": "80759",
    "country": "United States",
    "longitude": -102.7238865,
    "latitude": 40.12462759,
    "phone": "9706302818",
    "website_url": "http://www.tumbleweedbrewing.com",
    "state": "Colorado",
    "street": "124 S Main St"
  },
  {
    "id": "7decf5ce-3597-4b0a-84c9-da60ad030a2e",
    "name": "Tun Tavern Brewery and Restaurant",
    "brewery_type": "brewpub",
    "address_1": "2 Convention Blvd Ste 3",
    "address_2": null,
    "address_3": null,
    "city": "Atlantic City",
    "state_province": "New Jersey",
    "postal_code": "08401-4137",
    "country": "United States",
    "longitude": null,
    "latitude": null,
    "phone": "6093477800",
    "website_url": "http://www.tuntavern.com",
    "state": "New Jersey",
    "street": "2 Convention Blvd Ste 3"
  },
  {
    "id": "498f8ea8-f909-4378-b437-7be8f5d01993",
    "name": "Tuned Up Brewing Company",
    "brewery_type": "micro",
    "address_1": "135 N Main St",
    "address_2": null,
    "address_3": null,
    "city": "Spring City",
    "state_province": "Pennsylvania",
    "postal_code": "19475-1874",
    "country": "United States",
    "longitude": -75.54752163,
    "latitude": 40.17990279,
    "phone": "6103063182",
    "website_url": null,
    "state": "Pennsylvania",
    "street": "135 N Main St"
  },
  {
    "id": "b0ff46ea-e5fe-4086-9773-8632ecf1ff28",
    "name": "Tunnel Vision Brewery",
    "brewery_type": "brewpub",
    "address_1": "5699 S Lake Shore Dr",
    "address_2": null,
    "address_3": null,
    "city": "Harbor Springs",
    "state_province": "Michigan",
    "postal_code": "49740-9784",
    "country": "United States",
    "longitude": -85.065042,
    "latitude": 45.471828,
    "phone": "2315263276",
    "website_url": "http://www.pondhill.com",
    "state": "Michigan",
    "street": "5699 S Lake Shore Dr"
  },
  {
    "id": "ed15a267-a12c-4343-a94f-46ee2488c42a",
    "name": "Tuppers Hop Pocket Ale",
    "brewery_type": "contract",
    "address_1": "6404 Redwing Rd",
    "address_2": null,
    "address_3": null,
    "city": "Bethesda",
    "state_province": "Maryland",
    "postal_code": "20817-5920",
    "country": "United States",
    "longitude": null,
    "latitude": null,
    "phone": "3012292027",
    "website_url": "http://www.tuppersbeers.com",
    "state": "Maryland",
    "street": "6404 Redwing Rd"
  },
  {
    "id": "898d4d98-92c7-4e57-9b3f-310a60bc45c9",
    "name": "Tupps Brewery",
    "brewery_type": "micro",
    "address_1": "721 Anderson St",
    "address_2": null,
    "address_3": null,
    "city": "McKinney",
    "state_province": "Texas",
    "postal_code": "75069-7149",
    "country": "United States",
    "longitude": -96.61169549,
    "latitude": 33.18370422,
    "phone": "2147045039",
    "website_url": "http://www.tuppsbrewery.com",
    "state": "Texas",
    "street": "721 Anderson St"
  },
  {
    "id": "b6631112-1916-4334-a5cf-f2937c70a976",
    "name": "Turgua Brewing Co",
    "brewery_type": "micro",
    "address_1": "27 Firefly Hollow Dr",
    "address_2": null,
    "address_3": null,
    "city": "Fairview",
    "state_province": "North Carolina",
    "postal_code": "28730-1648",
    "country": "United States",
    "longitude": null,
    "latitude": null,
    "phone": "8282220984",
    "website_url": "http://www.turguabrewing.com",
    "state": "North Carolina",
    "street": "27 Firefly Hollow Dr"
  },
  {
    "id": "41b29d2c-64d2-4b0e-948c-66f6a93fc226",
    "name": "Turkey Forrest Brewing",
    "brewery_type": "micro",
    "address_1": "1848 Airline Dr. Suite C",
    "address_2": null,
    "address_3": null,
    "city": "Houston",
    "state_province": "Texas",
    "postal_code": "77009",
    "country": "United States",
    "longitude": null,
    "latitude": null,
    "phone": null,
    "website_url": null,
    "state": "Texas",
    "street": "1848 Airline Dr. Suite C"
  },
  {
    "id": "af9086ee-bd51-4290-a609-8d3e35806c40",
    "name": "Turkey Hill Brewing Co Pub",
    "brewery_type": "brewpub",
    "address_1": "991 Central Rd",
    "address_2": null,
    "address_3": null,
    "city": "Bloomsburg",
    "state_province": "Pennsylvania",
    "postal_code": "17815-8990",
    "country": "United States",
    "longitude": null,
    "latitude": null,
    "phone": "5703878422",
    "website_url": "http://www.turkeyhillbrewing.com",
    "state": "Pennsylvania",
    "street": "991 Central Rd"
  },
  {
    "id": "ffe5f5cd-242c-4da3-96ed-d8468a342284",
    "name": "Turn 2 Brewing Company Inc.",
    "brewery_type": "planning",
    "address_1": null,
    "address_2": null,
    "address_3": null,
    "city": "Sebring",
    "state_province": "Florida",
    "postal_code": "33872-9253",
    "country": "United States",
    "longitude": null,
    "latitude": null,
    "phone": null,
    "website_url": "http://www.turn2brew.com",
    "state": "Florida",
    "street": null
  },
  {
    "id": "940232f8-d664-42b4-aa8c-2b663d877252",
    "name": "Turnagain Brewing",
    "brewery_type": "micro",
    "address_1": "7920 King St",
    "address_2": null,
    "address_3": null,
    "city": "Anchorage",
    "state_province": "Alaska",
    "postal_code": "99518-3058",
    "country": "United States",
    "longitude": -149.878675,
    "latitude": 61.14944,
    "phone": "9076462337",
    "website_url": "https://www.turnagainbrewing.com",
    "state": "Alaska",
    "street": "7920 King St"
  },
  {
    "id": "b7130d67-9eb1-48e8-9c28-0fc26e4b2bd5",
    "name": "Turning Point Beer, LLC",
    "brewery_type": "micro",
    "address_1": "1307 Brown Trl",
    "address_2": null,
    "address_3": null,
    "city": "Bedford",
    "state_province": "Texas",
    "postal_code": "76022-6401",
    "country": "United States",
    "longitude": null,
    "latitude": null,
    "phone": "8179251131",
    "website_url": "http://Www.turningpointbeer.com",
    "state": "Texas",
    "street": "1307 Brown Trl"
  },
  {
    "id": "f8891e9b-c233-4c2c-aa2f-fb0a59d06dce",
    "name": "Turtle Anarchy Brewing Co",
    "brewery_type": "micro",
    "address_1": "5901 California Ave Ste 105",
    "address_2": null,
    "address_3": null,
    "city": "Nashville",
    "state_province": "Tennessee",
    "postal_code": "37209-1370",
    "country": "United States",
    "longitude": -86.85861737,
    "latitude": 36.16458388,
    "phone": null,
    "website_url": "http://www.turtleanarchy.com",
    "state": "Tennessee",
    "street": "5901 California Ave Ste 105"
  },
  {
    "id": "e4230c83-bfbc-4e17-a3da-7966a859d4af",
    "name": "Turtle Mountain Brewing Co",
    "brewery_type": "brewpub",
    "address_1": "905 36th Pl SE Ste C",
    "address_2": null,
    "address_3": null,
    "city": "Rio Rancho",
    "state_province": "New Mexico",
    "postal_code": "87124-4850",
    "country": "United States",
    "longitude": null,
    "latitude": null,
    "phone": "5059949497",
    "website_url": "http://www.turtlemountainbrewing.com",
    "state": "New Mexico",
    "street": "905 36th Pl SE Ste C"
  },
  {
    "id": "7c79df16-b284-4388-99f8-7960b6d66504",
    "name": "Turtle Stack Brewery",
    "brewery_type": "micro",
    "address_1": "125 2nd St S",
    "address_2": null,
    "address_3": null,
    "city": "La Crosse",
    "state_province": "Wisconsin",
    "postal_code": "54601-3206",
    "country": "United States",
    "longitude": -91.2539366,
    "latitude": 43.81301528,
    "phone": "6085192284",
    "website_url": "http://www.turtlestackbrewery.com",
    "state": "Wisconsin",
    "street": "125 2nd St S"
  },
  {
    "id": "d80aff0a-64a7-4a7f-b609-4386dc7a1d59",
    "name": "Turtle Swamp Brewing",
    "brewery_type": "micro",
    "address_1": "3377 Washington St",
    "address_2": null,
    "address_3": null,
    "city": "Jamaica Plain",
    "state_province": "Massachusetts",
    "postal_code": "02130-2617",
    "country": "United States",
    "longitude": -71.1123668,
    "latitude": 42.3014592,
    "phone": "6175220038",
    "website_url": "http://www.turtleswampbrewing.com",
    "state": "Massachusetts",
    "street": "3377 Washington St"
  },
  {
    "id": "f1f61792-e88e-4d36-8892-fa9ddc7499f8",
    "name": "Tusculum Farm Enterprises, LLC",
    "brewery_type": "planning",
    "address_1": null,
    "address_2": null,
    "address_3": null,
    "city": "Laytonsville",
    "state_province": "Maryland",
    "postal_code": "20882-2117",
    "country": "United States",
    "longitude": null,
    "latitude": null,
    "phone": "8337332216",
    "website_url": "http://tusculumfarm.com",
    "state": "Maryland",
    "street": null
  },
  {
    "id": "5891a22a-ac15-4646-a0bb-4b9127899213",
    "name": "Tusculum Holdings, LLC",
    "brewery_type": "planning",
    "address_1": null,
    "address_2": null,
    "address_3": null,
    "city": "Boerne",
    "state_province": "Texas",
    "postal_code": "78006-2334",
    "country": "United States",
    "longitude": null,
    "latitude": null,
    "phone": "3612286227",
    "website_url": "http://www.tusculumbrewing.com",
    "state": "Texas",
    "street": null
  },
  {
    "id": "5a17161e-23d6-4b05-bf60-70b4fbdbbadf",
    "name": "Tustin Brewing Co",
    "brewery_type": "brewpub",
    "address_1": "13011 Newport Ave Ste 100",
    "address_2": null,
    "address_3": null,
    "city": "Tustin",
    "state_province": "California",
    "postal_code": "92780-3517",
    "country": "United States",
    "longitude": -117.8107616,
    "latitude": 33.75003812,
    "phone": "7146652337",
    "website_url": "http://www.tustinbrewery.com",
    "state": "California",
    "street": "13011 Newport Ave Ste 100"
  },
  {
    "id": "e1bdce52-7dc7-4377-a5c2-4506452da993",
    "name": "Tuthilltown Spirits",
    "brewery_type": "planning",
    "address_1": null,
    "address_2": null,
    "address_3": null,
    "city": "Gardiner",
    "state_province": "New York",
    "postal_code": "12525-5528",
    "country": "United States",
    "longitude": null,
    "latitude": null,
    "phone": "8452551527",
    "website_url": null,
    "state": "New York",
    "street": null
  },
  {
    "id": "6c0d332d-0cb5-4b00-aa81-d04650eefe9a",
    "name": "TUYA SuperBrewing Co.",
    "brewery_type": "planning",
    "address_1": null,
    "address_2": null,
    "address_3": null,
    "city": "Santa Cruz",
    "state_province": "California",
    "postal_code": "95062-1411",
    "country": "United States",
    "longitude": -122.0297182,
    "latitude": 36.974201,
    "phone": "8444878892",
    "website_url": "http://www.tuyasuperbrew.com",
    "state": "California",
    "street": null
  },
  {
    "id": "ce6068ab-2993-4129-a451-c304506f817a",
    "name": "TW Pitchers Brewing Co",
    "brewery_type": "contract",
    "address_1": "1329 17th Ave",
    "address_2": null,
    "address_3": null,
    "city": "San Francisco",
    "state_province": "California",
    "postal_code": "94122-1912",
    "country": "United States",
    "longitude": -122.4750486,
    "latitude": 37.76307771,
    "phone": "4159992009",
    "website_url": "http://www.twpitchers.com",
    "state": "California",
    "street": "1329 17th Ave"
  },
  {
    "id": "6fa0be54-2886-4a87-98cf-189e9432310c",
    "name": "Twain's Brewpub & Billiards",
    "brewery_type": "brewpub",
    "address_1": "211 E Trinity Pl",
    "address_2": null,
    "address_3": null,
    "city": "Decatur",
    "state_province": "Georgia",
    "postal_code": "30030-3414",
    "country": "United States",
    "longitude": -84.294616,
    "latitude": 33.77228,
    "phone": "4043730063",
    "website_url": "http://www.twains.net",
    "state": "Georgia",
    "street": "211 E Trinity Pl"
  },
  {
    "id": "4203409e-7d4b-4ca0-8adc-c7f24ecceacc",
    "name": "Tweaking Frog Brewing Company",
    "brewery_type": "micro",
    "address_1": "211 Main St Ste A",
    "address_2": null,
    "address_3": null,
    "city": "Farmingdale",
    "state_province": "New York",
    "postal_code": "11735-2675",
    "country": "United States",
    "longitude": null,
    "latitude": null,
    "phone": "6318975509",
    "website_url": "http://www.tweakingfrogbrewing.com",
    "state": "New York",
    "street": "211 Main St Ste A"
  },
  {
    "id": "0b083637-2a0d-46e0-b0be-f86aa755a92e",
    "name": "Twelve String Brewing Co",
    "brewery_type": "closed",
    "address_1": "11616 E Montgomery Dr Ste 26",
    "address_2": null,
    "address_3": null,
    "city": "Spokane",
    "state_province": "Washington",
    "postal_code": "99206-6608",
    "country": "United States",
    "longitude": -117.24896931727,
    "latitude": 47.677533941406,
    "phone": "5092413697",
    "website_url": "http://www.twelvestringbrewingco.com",
    "state": "Washington",
    "street": "11616 E Montgomery Dr Ste 26"
  },
  {
    "id": "4a8da7bd-80fb-4b2f-9447-eee7bd87781f",
    "name": "Twenty Below Brewing @ Twenty Tap",
    "brewery_type": "brewpub",
    "address_1": "5406 N College Ave",
    "address_2": null,
    "address_3": null,
    "city": "Indianapolis",
    "state_province": "Indiana",
    "postal_code": "46220-3126",
    "country": "United States",
    "longitude": -86.1449174,
    "latitude": 39.8095687,
    "phone": "3176028840",
    "website_url": "http://www.twentytap.com",
    "state": "Indiana",
    "street": "5406 N College Ave"
  },
  {
    "id": "84f3121a-293b-4a1e-89c8-c7fa0ca735d5",
    "name": "Twenty-Six Acres Brewing Company",
    "brewery_type": "micro",
    "address_1": "7285 Westwinds Blvd NW",
    "address_2": null,
    "address_3": null,
    "city": "Concord",
    "state_province": "North Carolina",
    "postal_code": "28027-3310",
    "country": "United States",
    "longitude": -80.72192703,
    "latitude": 35.38617748,
    "phone": "9802772337",
    "website_url": "http://www.26acres.com",
    "state": "North Carolina",
    "street": "7285 Westwinds Blvd NW"
  },
  {
    "id": "e53fb44b-d194-49f0-9549-c8355297616d",
    "name": "TwentyNine Brewpub",
    "brewery_type": "brewpub",
    "address_1": "1775 Marion-Waldo Rd",
    "address_2": null,
    "address_3": null,
    "city": "Marion",
    "state_province": "Ohio",
    "postal_code": "43302",
    "country": "United States",
    "longitude": -83.1163533,
    "latitude": 40.55509204,
    "phone": "7407514586",
    "website_url": null,
    "state": "Ohio",
    "street": "1775 Marion-Waldo Rd"
  },
  {
    "id": "dbcac9db-5ede-49f9-8990-64616e5d3352",
    "name": "Twin Barns Brewing Co",
    "brewery_type": "brewpub",
    "address_1": "99 Main St",
    "address_2": null,
    "address_3": null,
    "city": "North Woodstock",
    "state_province": "New Hampshire",
    "postal_code": "03262",
    "country": "United States",
    "longitude": null,
    "latitude": null,
    "phone": "6037457068",
    "website_url": "https://www.twinbarnsbrewing.com/",
    "state": "New Hampshire",
    "street": "99 Main St"
  },
  {
    "id": "6382851d-cf32-4ba2-b725-6d8732fa4fcc",
    "name": "Twin Creeks Brewing Company",
    "brewery_type": "micro",
    "address_1": "111 S Pollard St",
    "address_2": null,
    "address_3": null,
    "city": "Vinton",
    "state_province": "Virginia",
    "postal_code": "24179-2414",
    "country": "United States",
    "longitude": -79.8974689,
    "latitude": 37.28075143,
    "phone": "5404000882",
    "website_url": "http://www.twincreeksbrewing.com",
    "state": "Virginia",
    "street": "111 S Pollard St"
  },
  {
    "id": "9e9f44ff-cb3e-4e58-b8b0-ce820379abc1",
    "name": "Twin Elephant Brewing Company",
    "brewery_type": "micro",
    "address_1": "13 Watchung Ave Ste 103",
    "address_2": null,
    "address_3": null,
    "city": "Chatham",
    "state_province": "New Jersey",
    "postal_code": "07928-2759",
    "country": "United States",
    "longitude": null,
    "latitude": null,
    "phone": "9735079862",
    "website_url": "http://www.twinelephant.com",
    "state": "New Jersey",
    "street": "13 Watchung Ave Ste 103"
  },
  {
    "id": "50f520a2-4a7e-4c39-90b2-e440e7d38c49",
    "name": "Twin Lakes Brewing Co",
    "brewery_type": "micro",
    "address_1": "405 Marsh Ln Ste 7",
    "address_2": null,
    "address_3": null,
    "city": "Wilmington",
    "state_province": "Delaware",
    "postal_code": "19804-2445",
    "country": "United States",
    "longitude": null,
    "latitude": null,
    "phone": "3029952337",
    "website_url": "http://www.twinlakesbrewingcompany.com",
    "state": "Delaware",
    "street": "405 Marsh Ln Ste 7"
  },
  {
    "id": "44113b77-122d-4680-85e7-cc0662cc6da0",
    "name": "Twin Leaf Brewery",
    "brewery_type": "micro",
    "address_1": "144 Coxe Ave",
    "address_2": null,
    "address_3": null,
    "city": "Asheville",
    "state_province": "North Carolina",
    "postal_code": "28801-4026",
    "country": "United States",
    "longitude": -82.55454185,
    "latitude": 35.58942485,
    "phone": "8283332221",
    "website_url": "http://www.twinleafbrewery.com",
    "state": "North Carolina",
    "street": "144 Coxe Ave"
  },
  {
    "id": "3d49e8be-de9a-4688-8483-9ffdf3037bf3",
    "name": "Twin Oast Brewing",
    "brewery_type": "brewpub",
    "address_1": "3630 NE Catawba Rd",
    "address_2": null,
    "address_3": null,
    "city": "Catawba Island",
    "state_province": "Ohio",
    "postal_code": "43452",
    "country": "United States",
    "longitude": -82.832581,
    "latitude": 41.578044,
    "phone": "4195736126",
    "website_url": "http://www.twinoast.com",
    "state": "Ohio",
    "street": "3630 NE Catawba Rd"
  }
]