[
  {
    "id": "1ab10b5b-580b-489d-bd88-30680ab16001",
    "name": "The Brew On Broadway (The BoB)",
    "brewery_type": "micro",
    "address_1": "3445 S Broadway",
    "address_2": null,
    "address_3": null,
    "city": "Englewood",
    "state_province": "Colorado",
    "postal_code": "80113-2528",
    "country": "United States",
    "longitude": -104.98772,
    "latitude": 39.65416792,
    "phone": "3037815665",
    "website_url": "http://www.thebrewonbroadway.com",
    "state": "Colorado",
    "street": "3445 S Broadway"
  },
  {
    "id": "f81bd42b-4d02-42e4-b298-4329ff834d6e",
    "name": "The Brewer's Art / Old Line Brewery LLC",
    "brewery_type": "brewpub",
    "address_1": "1106 N Charles St",
    "address_2": null,
    "address_3": null,
    "city": "Baltimore",
    "state_province": "Maryland",
    "postal_code": "21201-5557",
    "country": "United States",
    "longitude": -76.6146068,
    "latitude": 39.303716,
    "phone": null,
    "website_url": "http://www.thebrewersart.com",
    "state": "Maryland",
    "street": "1106 N Charles St"
  },
  {
    "id": "80d67009-9e36-46d8-ae11-c35fb9842c0d",
    "name": "The Brewer's Cabinet",
    "brewery_type": "micro",
    "address_1": "475 S Arlington Ave Ste 1C",
    "address_2": null,
    "address_3": null,
    "city": "Reno",
    "state_province": "Nevada",
    "postal_code": "89501-2099",
    "country": "United States",
    "longitude": null,
    "latitude": null,
    "phone": "7753487481",
    "website_url": "http://www.thebrewerscabinet.com",
    "state": "Nevada",
    "street": "475 S Arlington Ave Ste 1C"
  },
  {
    "id": "3e4ab49b-b18d-4c12-bbe7-81c213b4b44f",
    "name": "The Brewer's Table",
    "brewery_type": "micro",
    "address_1": "4715 E 5th St",
    "address_2": null,
    "address_3": null,
    "city": "Austin",
    "state_province": "Texas",
    "postal_code": "78702-5033",
    "country": "United States",
    "longitude": -97.7043433,
    "latitude": 30.2529441,
    "phone": "5126199569",
    "website_url": "http://www.caskandcoal.com",
    "state": "Texas",
    "street": "4715 E 5th St"
  },
  {
    "id": "c3c643f4-c7a0-4fbc-9e53-952dbecb228e",
    "name": "The Brewers Collective",
    "brewery_type": "micro",
    "address_1": "1460 N Clinton Ave Unit N",
    "address_2": null,
    "address_3": null,
    "city": "Bay Shore",
    "state_province": "New York",
    "postal_code": "11706-4058",
    "country": "United States",
    "longitude": null,
    "latitude": null,
    "phone": "6316659000",
    "website_url": "http://www.thebrewerscollective.com",
    "state": "New York",
    "street": "1460 N Clinton Ave Unit N"
  },
  {
    "id": "91037e0d-5b3d-4355-8f0c-f7f7a1878a17",
    "name": "The Brewers of Nye Hill Farm",
    "brewery_type": "micro",
    "address_1": "250 Middletown Rd",
    "address_2": null,
    "address_3": null,
    "city": "Roxbury",
    "state_province": "New Hampshire",
    "postal_code": "03431-8705",
    "country": "United States",
    "longitude": null,
    "latitude": null,
    "phone": "6037623110",
    "website_url": "http://nyehillbrewers.com/",
    "state": "New Hampshire",
    "street": "250 Middletown Rd"
  },
  {
    "id": "362dfc1d-37c8-414e-8a10-4908793c8b28",
    "name": "The Brewery At Bacchus",
    "brewery_type": "brewpub",
    "address_1": "4 S Chestnut St",
    "address_2": null,
    "address_3": null,
    "city": "New Paltz",
    "state_province": "New York",
    "postal_code": "12561-1902",
    "country": "United States",
    "longitude": -74.0867508,
    "latitude": 41.7472558,
    "phone": "8452558636",
    "website_url": "http://www.bacchusnewpaltz.com",
    "state": "New York",
    "street": "4 S Chestnut St"
  },
  {
    "id": "819a5d53-05f9-4356-9ff0-0dbe579b1910",
    "name": "The Brewery At Hershey",
    "brewery_type": "micro",
    "address_1": "598 Schoolhouse Rd",
    "address_2": null,
    "address_3": null,
    "city": "Middletown",
    "state_province": "Pennsylvania",
    "postal_code": "17057-4029",
    "country": "United States",
    "longitude": null,
    "latitude": null,
    "phone": "7179441569",
    "website_url": "http://www.vineyardathershey.com",
    "state": "Pennsylvania",
    "street": "598 Schoolhouse Rd"
  },
  {
    "id": "82867821-92a6-473b-95b6-027fa9fd1a36",
    "name": "The Brewery B\u00c3\u00b6ser Geist Brewing Co., LLC",
    "brewery_type": "micro",
    "address_1": "1250 Simon Blvd Unit K100",
    "address_2": null,
    "address_3": null,
    "city": "Easton",
    "state_province": "Pennsylvania",
    "postal_code": "18042-1474",
    "country": "United States",
    "longitude": null,
    "latitude": null,
    "phone": "4842938005",
    "website_url": null,
    "state": "Pennsylvania",
    "street": "1250 Simon Blvd Unit K100"
  },
  {
    "id": "a5b2f288-bb2b-40c1-a64c-2294f3826b01",
    "name": "The Brewery LBK",
    "brewery_type": "brewpub",
    "address_1": "1204 Broadway #104",
    "address_2": null,
    "address_3": null,
    "city": "Lubbock",
    "state_province": "Texas",
    "postal_code": "79401",
    "country": "United States",
    "longitude": null,
    "latitude": null,
    "phone": "8069939378",
    "website_url": "http://www.thebrewerylbk.com",
    "state": "Texas",
    "street": "1204 Broadway #104"
  },
  {
    "id": "672c1658-8b3c-4810-93ed-456aecf76845",
    "name": "The Brewery of Broken Dreams",
    "brewery_type": "micro",
    "address_1": "8319 Pleasant Valley Rd",
    "address_2": null,
    "address_3": null,
    "city": "Hammondsport",
    "state_province": "New York",
    "postal_code": "14840-9549",
    "country": "United States",
    "longitude": null,
    "latitude": null,
    "phone": "6072244050",
    "website_url": "http://www.thebreweryofbrokendreams.com",
    "state": "New York",
    "street": "8319 Pleasant Valley Rd"
  },
  {
    "id": "b887c0e4-e2d9-47ad-973a-3953303f959f",
    "name": "The Brewhouse",
    "brewery_type": "brewpub",
    "address_1": "229 W Montecito St",
    "address_2": null,
    "address_3": null,
    "city": "Santa Barbara",
    "state_province": "California",
    "postal_code": "93101-3824",
    "country": "United States",
    "longitude": -119.6954247,
    "latitude": 34.41245574,
    "phone": "8059632739",
    "website_url": "http://www.brewhousesb.com",
    "state": "California",
    "street": "229 W Montecito St"
  },
  {
    "id": "da8e968d-6500-4045-b090-e41648db457d",
    "name": "The Brewing Lair",
    "brewery_type": "micro",
    "address_1": "67007 CA Hwy 70",
    "address_2": null,
    "address_3": null,
    "city": "Blairsden",
    "state_province": "California",
    "postal_code": "96103-1651",
    "country": "United States",
    "longitude": -120.6140437,
    "latitude": 39.78456595,
    "phone": "5303940940",
    "website_url": "http://www.thebrewinglair.com",
    "state": "California",
    "street": "67007 CA Hwy 70"
  },
  {
    "id": "7bdcbe2a-d562-4fb6-b427-fc0768b5a4c9",
    "name": "The Brewing Projekt",
    "brewery_type": "micro",
    "address_1": "1807 N Oxford Ave",
    "address_2": null,
    "address_3": null,
    "city": "Eau Claire",
    "state_province": "Wisconsin",
    "postal_code": "54703-5187",
    "country": "United States",
    "longitude": -91.50950908,
    "latitude": 44.81894024,
    "phone": "7154562486",
    "website_url": "http://www.thebrewingprojekt.com",
    "state": "Wisconsin",
    "street": "1807 N Oxford Ave"
  },
  {
    "id": "dcea5b62-4138-4d5e-8789-0cfbf48bb21d",
    "name": "The Brewtorium",
    "brewery_type": "brewpub",
    "address_1": "6015 Dillard Cir Ste A",
    "address_2": null,
    "address_3": null,
    "city": "Austin",
    "state_province": "Texas",
    "postal_code": "78752-4440",
    "country": "United States",
    "longitude": null,
    "latitude": null,
    "phone": "5125240323",
    "website_url": "http://www.thebrewtorium.com",
    "state": "Texas",
    "street": "6015 Dillard Cir Ste A"
  },
  {
    "id": "50530753-54b2-41d2-9d48-cab429a76c7c",
    "name": "The Brick Oven Brewpub",
    "brewery_type": "brewpub",
    "address_1": "604 Canton Rd",
    "address_2": null,
    "address_3": null,
    "city": "Akron",
    "state_province": "Ohio",
    "postal_code": "44312-2513",
    "country": "United States",
    "longitude": -81.43734194,
    "latitude": 41.04719534,
    "phone": "3304757005",
    "website_url": "http://www.thebrickovenbrewpub.com",
    "state": "Ohio",
    "street": "604 Canton Rd"
  },
  {
    "id": "8b52964c-3c8f-4dbf-a85a-362a3d46f947",
    "name": "The Bronx Brewery",
    "brewery_type": "micro",
    "address_1": "856 E 136th St",
    "address_2": null,
    "address_3": null,
    "city": "Bronx",
    "state_province": "New York",
    "postal_code": "10454-3509",
    "country": "United States",
    "longitude": -73.91064054,
    "latitude": 40.801861,
    "phone": "7184021000",
    "website_url": "http://www.thebronxbrewery.com",
    "state": "New York",
    "street": "856 E 136th St"
  },
  {
    "id": "903035db-879f-49a4-b67a-87a96ffb8f14",
    "name": "The Bunkhouse Brewery",
    "brewery_type": "micro",
    "address_1": "1216 W Lincoln St Ste A",
    "address_2": null,
    "address_3": null,
    "city": "Bozeman",
    "state_province": "Montana",
    "postal_code": "59715-5417",
    "country": "United States",
    "longitude": null,
    "latitude": null,
    "phone": "4065772074",
    "website_url": "http://www.bunkhousebrewery.com",
    "state": "Montana",
    "street": "1216 W Lincoln St Ste A"
  },
  {
    "id": "18ac6fc1-dc25-49ba-b4a3-63d8139270af",
    "name": "The Cleveland Brewery",
    "brewery_type": "micro",
    "address_1": "777 E 185th St",
    "address_2": null,
    "address_3": null,
    "city": "Cleveland",
    "state_province": "Ohio",
    "postal_code": "44119-2170",
    "country": "United States",
    "longitude": -81.549766,
    "latitude": 41.586428,
    "phone": "2165346992",
    "website_url": "http://Www.facebook.com/216brew",
    "state": "Ohio",
    "street": "777 E 185th St"
  },
  {
    "id": "6700cd5c-5360-4455-9fec-da2092e85b27",
    "name": "The Collective Brewing Project",
    "brewery_type": "micro",
    "address_1": "112 Saint Louis Ave",
    "address_2": null,
    "address_3": null,
    "city": "Fort Worth",
    "state_province": "Texas",
    "postal_code": "76104-1228",
    "country": "United States",
    "longitude": -97.32879227,
    "latitude": 32.74352324,
    "phone": null,
    "website_url": null,
    "state": "Texas",
    "street": "112 Saint Louis Ave"
  },
  {
    "id": "a3307ec6-4c65-49fb-85e2-8fc48bd2b95c",
    "name": "The Common Beer Company",
    "brewery_type": "planning",
    "address_1": null,
    "address_2": null,
    "address_3": null,
    "city": "Mason",
    "state_province": "Ohio",
    "postal_code": "45040",
    "country": "United States",
    "longitude": null,
    "latitude": null,
    "phone": "5136580170",
    "website_url": "https://commonbeercompany.com/",
    "state": "Ohio",
    "street": null
  },
  {
    "id": "292d1371-649e-4412-b2c5-8b9eeaf71cb3",
    "name": "The Courtyard Brewery",
    "brewery_type": "micro",
    "address_1": "1020 Erato St",
    "address_2": null,
    "address_3": null,
    "city": "New Orleans",
    "state_province": "Louisiana",
    "postal_code": "70130-4112",
    "country": "United States",
    "longitude": -90.07054452,
    "latitude": 29.9387632,
    "phone": null,
    "website_url": "http://www.courtyardbrew.com",
    "state": "Louisiana",
    "street": "1020 Erato St"
  },
  {
    "id": "3bc1f7aa-5b64-4398-9e78-d8b4158dcd3b",
    "name": "The Craft Of Brewing",
    "brewery_type": "micro",
    "address_1": "21140 Ashburn Crossing Drive, Suite 170",
    "address_2": null,
    "address_3": null,
    "city": "Ashburn",
    "state_province": "Virginia",
    "postal_code": "20147",
    "country": "United States",
    "longitude": null,
    "latitude": null,
    "phone": "7036873932",
    "website_url": "http://www.thecraftob.com",
    "state": "Virginia",
    "street": "21140 Ashburn Crossing Drive, Suite 170"
  },
  {
    "id": "456665eb-9672-4143-bdc5-d93b36286b60",
    "name": "The Crafter Space",
    "brewery_type": "contract",
    "address_1": "1550 N Warren Ave Apt 114",
    "address_2": null,
    "address_3": null,
    "city": "Milwaukee",
    "state_province": "Wisconsin",
    "postal_code": "53202-2298",
    "country": "United States",
    "longitude": null,
    "latitude": null,
    "phone": "4144188888",
    "website_url": "http://www.thecrafterspace.com",
    "state": "Wisconsin",
    "street": "1550 N Warren Ave Apt 114"
  },
  {
    "id": "9be11eab-ae69-429a-abc0-39489d6500a0",
    "name": "The Crossings Restaurant and Brewpub",
    "brewery_type": "brewpub",
    "address_1": "45 Main St",
    "address_2": null,
    "address_3": null,
    "city": "Putnam",
    "state_province": "Connecticut",
    "postal_code": "06260-1917",
    "country": "United States",
    "longitude": -71.9081681,
    "latitude": 41.9144568,
    "phone": "8609283663",
    "website_url": "http://www.thecrossingsbrewpub.com",
    "state": "Connecticut",
    "street": "45 Main St"
  },
  {
    "id": "fcfb5072-290a-4da6-b833-4d7b215fd3cf",
    "name": "The Dam Brewhouse, LLC",
    "brewery_type": "micro",
    "address_1": "1323 New Hampshire Rte 175",
    "address_2": null,
    "address_3": null,
    "city": "Campton",
    "state_province": "New Hampshire",
    "postal_code": "03223",
    "country": "United States",
    "longitude": null,
    "latitude": null,
    "phone": "6037264500",
    "website_url": "https://www.dambrewhouse.com/",
    "state": "New Hampshire",
    "street": "1323 New Hampshire Rte 175"
  },
  {
    "id": "7a1e5180-8345-42e8-a691-259e477be6a4",
    "name": "The Dancing Fox",
    "brewery_type": "brewpub",
    "address_1": "203 S School St",
    "address_2": null,
    "address_3": null,
    "city": "Lodi",
    "state_province": "California",
    "postal_code": "95240-3511",
    "country": "United States",
    "longitude": -121.3878496,
    "latitude": 38.097198,
    "phone": "2093662634",
    "website_url": "http://www.dancingfoxwinery.com",
    "state": "California",
    "street": "203 S School St"
  },
  {
    "id": "5963489b-f01b-4c19-8182-9cbf59185b34",
    "name": "The Depot Craft Brewery Distillery",
    "brewery_type": "brewpub",
    "address_1": "325 E 4th St",
    "address_2": null,
    "address_3": null,
    "city": "Reno",
    "state_province": "Nevada",
    "postal_code": "89512-3313",
    "country": "United States",
    "longitude": -119.809561,
    "latitude": 39.53112425,
    "phone": "7757374330",
    "website_url": "http://www.thedepotreno.com",
    "state": "Nevada",
    "street": "325 E 4th St"
  },
  {
    "id": "ad43dd25-02a6-4196-b268-afb686787e37",
    "name": "The Distant Whistle Brewhouse",
    "brewery_type": "micro",
    "address_1": "118 S Main St",
    "address_2": null,
    "address_3": null,
    "city": "Vicksburg",
    "state_province": "Michigan",
    "postal_code": "49097-1289",
    "country": "United States",
    "longitude": -85.53248776,
    "latitude": 42.11909502,
    "phone": "2693707549",
    "website_url": "http://www.distantwhistle.com",
    "state": "Michigan",
    "street": "118 S Main St"
  },
  {
    "id": "8db55e6b-421c-4881-a5fc-8f016dad9c5f",
    "name": "The Downlands Brewery",
    "brewery_type": "micro",
    "address_1": "Henfield Road",
    "address_2": null,
    "address_3": null,
    "city": "Shoreham-by-Sea",
    "state_province": "West Sussex",
    "postal_code": "BN5 9XR",
    "country": "England",
    "longitude": -0.272849,
    "latitude": 50.899278,
    "phone": "1273495596",
    "website_url": "http://www.downlandsbrewery.com/",
    "state": "West Sussex",
    "street": "Henfield Road"
  },
  {
    "id": "74fbfde8-1486-4bb9-b7c9-7f4b27f32b27",
    "name": "The Dreamchaser's Brewery",
    "brewery_type": "micro",
    "address_1": "115 E North Main St",
    "address_2": null,
    "address_3": null,
    "city": "Waxhaw",
    "state_province": "North Carolina",
    "postal_code": "28173-6029",
    "country": "United States",
    "longitude": -80.74349914,
    "latitude": 34.92524057,
    "phone": "7048437326",
    "website_url": "http://www.dreamchasersbrewery.com",
    "state": "North Carolina",
    "street": "115 E North Main St"
  },
  {
    "id": "1cfb29de-b3b9-4814-a0c6-09ef223e9702",
    "name": "The Engineer Brewery",
    "brewery_type": "micro",
    "address_1": "Burnt Oak Road",
    "address_2": null,
    "address_3": null,
    "city": "Uckfield",
    "state_province": "East Sussex",
    "postal_code": "TN22 4AE",
    "country": "England",
    "longitude": 0.135118,
    "latitude": 51.019254,
    "phone": "7841669096",
    "website_url": "http://theengineerbrewery.co.uk/",
    "state": "East Sussex",
    "street": "Burnt Oak Road"
  },
  {
    "id": "7be712d0-50c7-471a-b289-3f0fc999a7c4",
    "name": "The Explorium Brewpub",
    "brewery_type": "brewpub",
    "address_1": "5300 S 76th St Unit 1450A",
    "address_2": null,
    "address_3": null,
    "city": "Greendale",
    "state_province": "Wisconsin",
    "postal_code": "53129-1102",
    "country": "United States",
    "longitude": null,
    "latitude": null,
    "phone": "4145537702",
    "website_url": "http://exploriumbrew.com",
    "state": "Wisconsin",
    "street": "5300 S 76th St Unit 1450A"
  },
  {
    "id": "bd598dba-c81d-48ce-b166-e0fd9d255ef1",
    "name": "The Farm Brewery At Broad Run",
    "brewery_type": "micro",
    "address_1": "16015 John Marshall Hwy",
    "address_2": null,
    "address_3": null,
    "city": "Broad Run",
    "state_province": "Virginia",
    "postal_code": "20137-2250",
    "country": "United States",
    "longitude": null,
    "latitude": null,
    "phone": "7037533548",
    "website_url": "http://www.thefarmatbroadrun.com",
    "state": "Virginia",
    "street": "16015 John Marshall Hwy"
  },
  {
    "id": "d2495538-5a9c-465e-b6ff-54a3959c44bd",
    "name": "The FarmHouse Brewery",
    "brewery_type": "micro",
    "address_1": "14 George St",
    "address_2": null,
    "address_3": null,
    "city": "Owego",
    "state_province": "New York",
    "postal_code": "13827-1084",
    "country": "United States",
    "longitude": -76.26950941,
    "latitude": 42.11123746,
    "phone": "6072272676",
    "website_url": "http://www.thefarmhousebrewery.com",
    "state": "New York",
    "street": "14 George St"
  },
  {
    "id": "e019cd27-ea77-40a7-a8a8-a95fc86b284d",
    "name": "The Fat Cat Beer Co",
    "brewery_type": "contract",
    "address_1": "7979 Ivanhoe Ave Ste 555",
    "address_2": null,
    "address_3": null,
    "city": "La Jolla",
    "state_province": "California",
    "postal_code": "92037-4570",
    "country": "United States",
    "longitude": -117.272443,
    "latitude": 32.84869008,
    "phone": null,
    "website_url": "http://www.fatcatbeers.com",
    "state": "California",
    "street": "7979 Ivanhoe Ave Ste 555"
  },
  {
    "id": "109e48c5-be0e-48f6-a017-4269bf6f51c2",
    "name": "The Federal Brewing Company",
    "brewery_type": "micro",
    "address_1": "102 S Main St",
    "address_2": null,
    "address_3": null,
    "city": "Federalsburg",
    "state_province": "Maryland",
    "postal_code": "21632-1215",
    "country": "United States",
    "longitude": -75.77333325,
    "latitude": 38.69360488,
    "phone": null,
    "website_url": "http://www.fedbrew.com",
    "state": "Maryland",
    "street": "102 S Main St"
  },
  {
    "id": "c368a4c0-8cf7-4bfb-9f64-257afa2bc416",
    "name": "The Feinics Company, Inc.",
    "brewery_type": "planning",
    "address_1": null,
    "address_2": null,
    "address_3": null,
    "city": "Pollock Pines",
    "state_province": "California",
    "postal_code": "95726-9751",
    "country": "United States",
    "longitude": -120.5776645,
    "latitude": 38.7497125,
    "phone": "9163003049",
    "website_url": null,
    "state": "California",
    "street": null
  },
  {
    "id": "85d23a93-4a1d-4d11-9d34-9789de79e400",
    "name": "The Fermentorium",
    "brewery_type": "brewpub",
    "address_1": "7481 Hwy 60",
    "address_2": null,
    "address_3": null,
    "city": "Cedarburg",
    "state_province": "Wisconsin",
    "postal_code": "53012-9702",
    "country": "United States",
    "longitude": null,
    "latitude": null,
    "phone": null,
    "website_url": null,
    "state": "Wisconsin",
    "street": "7481 Hwy 60"
  },
  {
    "id": "2d83cc3f-3967-41ae-a3b9-7cd75c40edc3",
    "name": "The Filling Station Microbrewery",
    "brewery_type": "micro",
    "address_1": "642 Railroad Pl",
    "address_2": null,
    "address_3": null,
    "city": "Traverse City",
    "state_province": "Michigan",
    "postal_code": "49686-3633",
    "country": "United States",
    "longitude": -85.609476,
    "latitude": 44.7580963,
    "phone": "2319468168",
    "website_url": "http://www.thefillingstationmicrobrewery.com",
    "state": "Michigan",
    "street": "642 Railroad Pl"
  },
  {
    "id": "5ed2480b-7aeb-4218-97f7-17fa1294e0f6",
    "name": "The FILO Brewing Co Ltd",
    "brewery_type": "micro",
    "address_1": "Old London Road",
    "address_2": null,
    "address_3": null,
    "city": "Hastings",
    "state_province": "East Sussex",
    "postal_code": "TN34 3HA",
    "country": "England",
    "longitude": 0.596217,
    "latitude": 50.860814,
    "phone": "1424420212",
    "website_url": "http://www.filobrewing.co.uk/",
    "state": "East Sussex",
    "street": "Old London Road"
  },
  {
    "id": "b8428a9b-a712-4d05-8c6c-c585b4125371",
    "name": "The Florida Brewery",
    "brewery_type": "regional",
    "address_1": "202 Gandy Rd",
    "address_2": null,
    "address_3": null,
    "city": "Auburndale",
    "state_province": "Florida",
    "postal_code": "33823-2726",
    "country": "United States",
    "longitude": null,
    "latitude": null,
    "phone": "8639651825",
    "website_url": "http://www.floridabrewery.com",
    "state": "Florida",
    "street": "202 Gandy Rd"
  },
  {
    "id": "e453ccc9-949f-4194-9257-05b54018e698",
    "name": "The Food Works",
    "brewery_type": "planning",
    "address_1": null,
    "address_2": null,
    "address_3": null,
    "city": "Brooklyn",
    "state_province": "New York",
    "postal_code": "11206",
    "country": "United States",
    "longitude": null,
    "latitude": null,
    "phone": "6178512133",
    "website_url": "http://www.thefoodworks.com",
    "state": "New York",
    "street": null
  },
  {
    "id": "70f0eb6a-e379-461c-bd9b-b05edf10af98",
    "name": "The Fox Brewpub",
    "brewery_type": "brewpub",
    "address_1": "310 S Carson St",
    "address_2": null,
    "address_3": null,
    "city": "Carson City",
    "state_province": "Nevada",
    "postal_code": "89701-4754",
    "country": "United States",
    "longitude": -119.7708155,
    "latitude": 39.1269616,
    "phone": "7758831369",
    "website_url": "http://www.foxbrewpub.com",
    "state": "Nevada",
    "street": "310 S Carson St"
  },
  {
    "id": "e2fde1d1-117d-4d92-8e0d-ad638d9d8152",
    "name": "The Franciscan Well Brewery",
    "brewery_type": "regional",
    "address_1": "Riverpark House",
    "address_2": "Marina Commercial Park",
    "address_3": "Centre Park Rd",
    "city": "Cork",
    "state_province": "Cork",
    "postal_code": "T12 HW3W",
    "country": "Ireland",
    "longitude": -8.4755419,
    "latitude": 51.9005854,
    "phone": "+353 1 629 4101",
    "website_url": "http://www.franciscanwellbrewery.com/en/index",
    "state": "Cork",
    "street": "Riverpark House"
  },
  {
    "id": "8f5eb3b7-777a-497b-b05b-55ee4c337c76",
    "name": "The Freefolk Brewery Taproom",
    "brewery_type": "micro",
    "address_1": "1690 Court St",
    "address_2": null,
    "address_3": null,
    "city": "Fayetteville",
    "state_province": "West Virginia",
    "postal_code": "25840-6818",
    "country": "United States",
    "longitude": -81.110004338389,
    "latitude": 38.086476379912,
    "phone": "3045746094",
    "website_url": "http://www.freefolkbrew.com",
    "state": "West Virginia",
    "street": "1690 Court St"
  },
  {
    "id": "65db24ef-49b5-4099-941f-cd0c4ea1b425",
    "name": "The Freehouse",
    "brewery_type": "brewpub",
    "address_1": "701 Washington Ave N Ste 101",
    "address_2": null,
    "address_3": null,
    "city": "Minneapolis",
    "state_province": "Minnesota",
    "postal_code": "55401-2820",
    "country": "United States",
    "longitude": null,
    "latitude": null,
    "phone": "6123397011",
    "website_url": "http://www.freehousempls.com",
    "state": "Minnesota",
    "street": "701 Washington Ave N Ste 101"
  },
  {
    "id": "6a79cd82-1833-4c70-ac8f-808dc79b6f7a",
    "name": "The Glass Jug",
    "brewery_type": "micro",
    "address_1": "5410 Nc Highway 55 Ste V",
    "address_2": null,
    "address_3": null,
    "city": "Durham",
    "state_province": "North Carolina",
    "postal_code": "27713-7802",
    "country": "United States",
    "longitude": null,
    "latitude": null,
    "phone": "9198186907",
    "website_url": "http://www.glass-jug.com",
    "state": "North Carolina",
    "street": "5410 Nc Highway 55 Ste V"
  },
  {
    "id": "bb6b4099-eb69-44f4-bf01-199037dc1d1e",
    "name": "The Good Beer Company, Inc.",
    "brewery_type": "micro",
    "address_1": "309 W 4th St",
    "address_2": null,
    "address_3": null,
    "city": "Santa Ana",
    "state_province": "California",
    "postal_code": "92701-4502",
    "country": "United States",
    "longitude": -117.8699581,
    "latitude": 33.74807823,
    "phone": "7147142988",
    "website_url": "http://www.thegoodbeerco.com",
    "state": "California",
    "street": "309 W 4th St"
  },
  {
    "id": "ed927788-4e38-4875-9fcf-49cc2ca5410c",
    "name": "The Good Shepherds Brewing Co",
    "brewery_type": "micro",
    "address_1": "31 Loop Rd Ste 1",
    "address_2": null,
    "address_3": null,
    "city": "Auburn",
    "state_province": "New York",
    "postal_code": "13021-3823",
    "country": "United States",
    "longitude": null,
    "latitude": null,
    "phone": "3154066498",
    "website_url": "http://www.shepsbeer.com",
    "state": "New York",
    "street": "31 Loop Rd Ste 1"
  }
]