[
  {
    "id": "7f026cf2-8653-4960-b505-6feb41506385",
    "name": "The Good Society",
    "brewery_type": "brewpub",
    "address_1": "2701 California Ave SW Unit A",
    "address_2": null,
    "address_3": null,
    "city": "Seattle",
    "state_province": "Washington",
    "postal_code": "98116-2510",
    "country": "United States",
    "longitude": -122.38712295961,
    "latitude": 47.579315043339,
    "phone": "2064203528",
    "website_url": "https://www.goodsocietybeer.com",
    "state": "Washington",
    "street": "2701 California Ave SW Unit A"
  },
  {
    "id": "8f03bd5e-8c09-43f3-b69b-f5e45f61e9db",
    "name": "The Grain Shed",
    "brewery_type": "brewpub",
    "address_1": "1026 E Newark Ave",
    "address_2": null,
    "address_3": null,
    "city": "Spokane",
    "state_province": "Washington",
    "postal_code": "99202",
    "country": "United States",
    "longitude": -117.3948236,
    "latitude": 47.64927782,
    "phone": "5092413853",
    "website_url": "http://www.thegrainshed.coop",
    "state": "Washington",
    "street": "1026 E Newark Ave"
  },
  {
    "id": "3ff96c05-f45e-4806-9a08-919b262c8385",
    "name": "The Grateful Gnome Sandwich Shoppe and Brewery",
    "brewery_type": "brewpub",
    "address_1": "4369 Stuart St",
    "address_2": null,
    "address_3": null,
    "city": "Denver",
    "state_province": "Colorado",
    "postal_code": "80212-2335",
    "country": "United States",
    "longitude": -105.0432655,
    "latitude": 39.7764426,
    "phone": "7205986863",
    "website_url": "http://www.thegratefulgnome.com",
    "state": "Colorado",
    "street": "4369 Stuart St"
  },
  {
    "id": "a079d8be-71e9-41b7-a139-5b08b2ccaeb4",
    "name": "The Gribble Brewery",
    "brewery_type": "brewpub",
    "address_1": "Gribble Lane",
    "address_2": null,
    "address_3": null,
    "city": "Chichester",
    "state_province": "West Sussex",
    "postal_code": "PO20 2BP",
    "country": "England",
    "longitude": -0.723958,
    "latitude": 50.838143,
    "phone": "1243786893",
    "website_url": "http://gribbleinn.co.uk/",
    "state": "West Sussex",
    "street": "Gribble Lane"
  },
  {
    "id": "e8090627-f973-4ff3-b23d-947bfa7228b1",
    "name": "The Guardian Brewing Company",
    "brewery_type": "micro",
    "address_1": "514 E Jackson Street",
    "address_2": null,
    "address_3": null,
    "city": "Muncie",
    "state_province": "Indiana",
    "postal_code": "47305",
    "country": "United States",
    "longitude": -85.38148786,
    "latitude": 40.19281286,
    "phone": "7652738918",
    "website_url": "http://www.theguardianbrewingco.com",
    "state": "Indiana",
    "street": "514 E Jackson Street"
  },
  {
    "id": "c4320b4a-ef3c-4700-8ce3-26cf9c624099",
    "name": "The Guild Brewing Co - Pawtucket Beer Hall",
    "brewery_type": "brewpub",
    "address_1": "461 Main St",
    "address_2": null,
    "address_3": null,
    "city": "Pawtucket",
    "state_province": "Rhode Island",
    "postal_code": "02860-2913",
    "country": "United States",
    "longitude": -71.3890045,
    "latitude": 41.8767586,
    "phone": "4017241241",
    "website_url": "https://www.theguildpawtucket.com",
    "state": "Rhode Island",
    "street": "461 Main St"
  },
  {
    "id": "c948fdb4-2d63-4bf2-9da8-0e0d37038136",
    "name": "The Guild Brewing Co - Warren",
    "brewery_type": "brewpub",
    "address_1": "99 Water St Ste2",
    "address_2": null,
    "address_3": null,
    "city": "Warren",
    "state_province": "Rhode Island",
    "postal_code": "02885",
    "country": "United States",
    "longitude": -71.28731013,
    "latitude": 41.73399952,
    "phone": "4012524275",
    "website_url": "https://www.theguildwarren.com",
    "state": "Rhode Island",
    "street": "99 Water St Ste2"
  },
  {
    "id": "79e9e59b-e943-4b3a-ab0b-a72501845feb",
    "name": "The Half Wall Brewery",
    "brewery_type": "brewpub",
    "address_1": "1887 SR 44",
    "address_2": null,
    "address_3": null,
    "city": "New Smyrna Beach",
    "state_province": "Florida",
    "postal_code": "32168",
    "country": "United States",
    "longitude": null,
    "latitude": null,
    "phone": "3864268410",
    "website_url": "http://www.halfwallbrewery.com",
    "state": "Florida",
    "street": "1887 SR 44"
  },
  {
    "id": "40446a01-7d11-416b-9551-43903a30249e",
    "name": "The Harmony Inn",
    "brewery_type": "brewpub",
    "address_1": "230 Mercer St",
    "address_2": null,
    "address_3": null,
    "city": "Harmony",
    "state_province": "Pennsylvania",
    "postal_code": "16037-6812",
    "country": "United States",
    "longitude": -80.12650213,
    "latitude": 40.8029435,
    "phone": null,
    "website_url": null,
    "state": "Pennsylvania",
    "street": "230 Mercer St"
  },
  {
    "id": "46840bf5-a825-4e7e-ad18-e52039e9dac9",
    "name": "The Heavy Metal Brewing Co.",
    "brewery_type": "brewpub",
    "address_1": "809 Macarthur Blvd",
    "address_2": null,
    "address_3": null,
    "city": "Vancouver",
    "state_province": "Washington",
    "postal_code": "98661-7013",
    "country": "United States",
    "longitude": -122.6171177,
    "latitude": 45.6275368,
    "phone": "3602581691",
    "website_url": "http://www.theheavymetalbrewingco.com",
    "state": "Washington",
    "street": "809 Macarthur Blvd"
  },
  {
    "id": "c464fe8a-4d1f-4a15-822f-2276616d719c",
    "name": "The Hidden Mother Brewery",
    "brewery_type": "micro",
    "address_1": "412 W Sharp Ave",
    "address_2": null,
    "address_3": null,
    "city": "Spokane",
    "state_province": "Washington",
    "postal_code": "99201-2421",
    "country": "United States",
    "longitude": -117.417792,
    "latitude": 47.669775,
    "phone": "5099193595",
    "website_url": "https://thehiddenmotherbrewery.com",
    "state": "Washington",
    "street": "412 W Sharp Ave"
  },
  {
    "id": "fedd7659-93ad-477b-b1fd-114ea7286a0b",
    "name": "The Highway Brewing Co.",
    "brewery_type": "brewpub",
    "address_1": "209 W Houghton Ave",
    "address_2": null,
    "address_3": null,
    "city": "West Branch",
    "state_province": "Michigan",
    "postal_code": "48661-1219",
    "country": "United States",
    "longitude": -84.23751651,
    "latitude": 44.27635208,
    "phone": "9897090716",
    "website_url": "http://www.highwaybrewingco.com",
    "state": "Michigan",
    "street": "209 W Houghton Ave"
  },
  {
    "id": "dfa5640f-a31b-4bad-b1d9-3143e94c22ea",
    "name": "The Hold By Revelry Brewing",
    "brewery_type": "micro",
    "address_1": "36 Romney St",
    "address_2": null,
    "address_3": null,
    "city": "Charleston",
    "state_province": "South Carolina",
    "postal_code": "29403-3825",
    "country": "United States",
    "longitude": -79.94569372,
    "latitude": 32.80761336,
    "phone": null,
    "website_url": "http://www.revelrybrewingco.com",
    "state": "South Carolina",
    "street": "36 Romney St"
  },
  {
    "id": "3e3b3dea-1b7c-4306-b685-c1ba4b854d44",
    "name": "The Hop Brewery",
    "brewery_type": "brewpub",
    "address_1": "203 W Market St",
    "address_2": null,
    "address_3": null,
    "city": "Christopher",
    "state_province": "Illinois",
    "postal_code": "62822",
    "country": "United States",
    "longitude": -89.05481692,
    "latitude": 37.97270012,
    "phone": "8667244677",
    "website_url": "http://www.thehopbrewery.com",
    "state": "Illinois",
    "street": "203 W Market St"
  },
  {
    "id": "0f478977-9d95-4cf4-b296-2713196ec923",
    "name": "The Hop Haus",
    "brewery_type": "micro",
    "address_1": "2568 SW Orchard Ct",
    "address_2": null,
    "address_3": null,
    "city": "Gresham",
    "state_province": "Oregon",
    "postal_code": "97080-9532",
    "country": "United States",
    "longitude": -122.4497736,
    "latitude": 45.4787523,
    "phone": "5033108113",
    "website_url": null,
    "state": "Oregon",
    "street": "2568 SW Orchard Ct"
  },
  {
    "id": "dceed539-92fe-42e7-8ca6-09eef06e3a2b",
    "name": "The Humble Pint",
    "brewery_type": "planning",
    "address_1": null,
    "address_2": null,
    "address_3": null,
    "city": "Round Rock",
    "state_province": "Texas",
    "postal_code": "78681-5504",
    "country": "United States",
    "longitude": null,
    "latitude": null,
    "phone": "5129475913",
    "website_url": "http://www.humblepint.com",
    "state": "Texas",
    "street": null
  },
  {
    "id": "ab5e80a9-bfeb-45b4-8f08-89d975fd90d8",
    "name": "The Intrepid Sojourner Beer Project",
    "brewery_type": "micro",
    "address_1": "925 W 8th Ave",
    "address_2": null,
    "address_3": null,
    "city": "Denver",
    "state_province": "Colorado",
    "postal_code": "80204-4333",
    "country": "United States",
    "longitude": -104.9993865,
    "latitude": 39.7291386,
    "phone": "8122498792",
    "website_url": "http://sojournerbeers.com",
    "state": "Colorado",
    "street": "925 W 8th Ave"
  },
  {
    "id": "aa332036-3ce5-47dc-aa9b-73b2b457b3d3",
    "name": "The Jolly Fox Brewery",
    "brewery_type": "planning",
    "address_1": null,
    "address_2": null,
    "address_3": null,
    "city": "Pittsburg",
    "state_province": "Kansas",
    "postal_code": "66762",
    "country": "United States",
    "longitude": null,
    "latitude": null,
    "phone": null,
    "website_url": "http://Www.thejollyfoxbrrewery.com",
    "state": "Kansas",
    "street": null
  },
  {
    "id": "16025731-a854-4661-8786-8151d8db7f15",
    "name": "The Jolly Scholar",
    "brewery_type": "brewpub",
    "address_1": "11111 Euclid Ave",
    "address_2": null,
    "address_3": null,
    "city": "Cleveland",
    "state_province": "Ohio",
    "postal_code": "44106-1715",
    "country": "United States",
    "longitude": -81.60836498,
    "latitude": 41.5074076,
    "phone": "2163680090",
    "website_url": "http://www.thejollyscholar.com",
    "state": "Ohio",
    "street": "11111 Euclid Ave"
  },
  {
    "id": "0fd552f9-4945-4187-94c4-5372e3f645a5",
    "name": "The Kiln Brewery",
    "brewery_type": "micro",
    "address_1": "Selsfield Road",
    "address_2": null,
    "address_3": null,
    "city": "East Grinstead",
    "state_province": "West Sussex",
    "postal_code": "RH19 4QS",
    "country": "England",
    "longitude": -0.070719,
    "latitude": 51.079995,
    "phone": "7800556729",
    "website_url": "https://www.thekilnbrewery.co.uk/",
    "state": "West Sussex",
    "street": "Selsfield Road"
  },
  {
    "id": "be30234d-bd7e-4525-80d6-bf4c1f3bcb57",
    "name": "The Knickerbocker/ New Holland Brewing",
    "brewery_type": "brewpub",
    "address_1": "417 Bridge St NW",
    "address_2": null,
    "address_3": null,
    "city": "Grand Rapids",
    "state_province": "Michigan",
    "postal_code": "49504-5305",
    "country": "United States",
    "longitude": -85.68044312,
    "latitude": 42.97068214,
    "phone": "6163455642",
    "website_url": null,
    "state": "Michigan",
    "street": "417 Bridge St NW"
  },
  {
    "id": "dd538cde-772c-4874-8f51-586d93474068",
    "name": "The Knuckle Brewing Company",
    "brewery_type": "brewpub",
    "address_1": "918 Harley Davidson Way",
    "address_2": null,
    "address_3": null,
    "city": "Sturgis",
    "state_province": "South Dakota",
    "postal_code": "57785-8511",
    "country": "United States",
    "longitude": -103.5124614,
    "latitude": 44.41556787,
    "phone": "6055619846",
    "website_url": "http://www.theknuckle.com",
    "state": "South Dakota",
    "street": "918 Harley Davidson Way"
  },
  {
    "id": "1c99b221-b06b-460d-abd9-530efa711fb2",
    "name": "The Koontz Lake Brewing Company",
    "brewery_type": "brewpub",
    "address_1": "7747 N State Road 23",
    "address_2": null,
    "address_3": null,
    "city": "Walkerton",
    "state_province": "Indiana",
    "postal_code": "46574-9360",
    "country": "United States",
    "longitude": null,
    "latitude": null,
    "phone": "5745862019",
    "website_url": null,
    "state": "Indiana",
    "street": "7747 N State Road 23"
  },
  {
    "id": "a56d515f-cf35-4f04-a0df-e8b57260580d",
    "name": "The Laboratory Mill Brewery",
    "brewery_type": "micro",
    "address_1": "848 Southfork Rd",
    "address_2": null,
    "address_3": null,
    "city": "Lincolnton",
    "state_province": "North Carolina",
    "postal_code": "28092",
    "country": "United States",
    "longitude": null,
    "latitude": null,
    "phone": null,
    "website_url": null,
    "state": "North Carolina",
    "street": "848 Southfork Rd"
  },
  {
    "id": "5c34509f-9eb7-4321-ba65-68eefc23c536",
    "name": "The Laird Arcade Brewery",
    "brewery_type": "micro",
    "address_1": "114 S Washington St Ste D",
    "address_2": null,
    "address_3": null,
    "city": "Tiffin",
    "state_province": "Ohio",
    "postal_code": "44883-3915",
    "country": "United States",
    "longitude": null,
    "latitude": null,
    "phone": "4196186489",
    "website_url": null,
    "state": "Ohio",
    "street": "114 S Washington St Ste D"
  },
  {
    "id": "5ba7b38b-b805-4d49-a671-194a2c7975bf",
    "name": "The Langham Brewery llp",
    "brewery_type": "micro",
    "address_1": "Langham Lane",
    "address_2": null,
    "address_3": null,
    "city": "Petworth",
    "state_province": "West Sussex",
    "postal_code": "GU28 9BU",
    "country": "England",
    "longitude": -0.679379,
    "latitude": 50.994711,
    "phone": "1798860861",
    "website_url": "https://langhambrewery.co.uk/",
    "state": "West Sussex",
    "street": "Langham Lane"
  },
  {
    "id": "eea8a695-5e5e-4eb4-8c36-38ef70799787",
    "name": "The Larimer Beer Company",
    "brewery_type": "contract",
    "address_1": "3620 Newport St",
    "address_2": null,
    "address_3": null,
    "city": "Denver",
    "state_province": "Colorado",
    "postal_code": "80207-1508",
    "country": "United States",
    "longitude": -104.9093487,
    "latitude": 39.76773768,
    "phone": "7205076369",
    "website_url": "http://www.thelarimer.com",
    "state": "Colorado",
    "street": "3620 Newport St"
  },
  {
    "id": "b4bad111-e8f4-45ac-bb74-c3dbac3cdceb",
    "name": "The Levee Brewing Company, Inc",
    "brewery_type": "planning",
    "address_1": null,
    "address_2": null,
    "address_3": null,
    "city": "Valdese",
    "state_province": "North Carolina",
    "postal_code": "28690",
    "country": "United States",
    "longitude": null,
    "latitude": null,
    "phone": "8383901041",
    "website_url": "http://www.theleveepub.com",
    "state": "North Carolina",
    "street": null
  },
  {
    "id": "81af98d0-0d70-4e84-8b4f-2804dd75e227",
    "name": "The Livery",
    "brewery_type": "brewpub",
    "address_1": "190 5th St",
    "address_2": null,
    "address_3": null,
    "city": "Benton Harbor",
    "state_province": "Michigan",
    "postal_code": "49022-3484",
    "country": "United States",
    "longitude": -86.45330019,
    "latitude": 42.11813538,
    "phone": "2699258760",
    "website_url": "http://www.liverybrew.com",
    "state": "Michigan",
    "street": "190 5th St"
  },
  {
    "id": "ed81bb82-b081-445b-98f2-0af438ce3ddc",
    "name": "The Lodge Restaurant & Microbrewery",
    "brewery_type": "brewpub",
    "address_1": "29042 Hide AWay Hills Rd",
    "address_2": null,
    "address_3": null,
    "city": "Sugar Grove",
    "state_province": "Ohio",
    "postal_code": "43155",
    "country": "United States",
    "longitude": null,
    "latitude": null,
    "phone": "7405697944",
    "website_url": "http://www.hideawayhillslodge.com",
    "state": "Ohio",
    "street": "29042 Hide AWay Hills Rd"
  },
  {
    "id": "c091b80f-b526-406a-80bf-efe69faa3df0",
    "name": "The Lone Girl Brewing Company",
    "brewery_type": "brewpub",
    "address_1": "114 E Main St Ste 101",
    "address_2": null,
    "address_3": null,
    "city": "Waunakee",
    "state_province": "Wisconsin",
    "postal_code": "53597-1274",
    "country": "United States",
    "longitude": null,
    "latitude": null,
    "phone": "6088507175",
    "website_url": "http://www.thelonegirl.com",
    "state": "Wisconsin",
    "street": "114 E Main St Ste 101"
  },
  {
    "id": "1659960d-4953-4546-8008-e7f54c0fbdc7",
    "name": "The Lone Wolfe Brewing Co.",
    "brewery_type": "brewpub",
    "address_1": "36 Mill St",
    "address_2": null,
    "address_3": null,
    "city": "Wolfeboro",
    "state_province": "New Hampshire",
    "postal_code": "03894-4485",
    "country": "United States",
    "longitude": -71.21503305,
    "latitude": 43.58572415,
    "phone": "6035151273",
    "website_url": "http://www.thelonewolfe.com",
    "state": "New Hampshire",
    "street": "36 Mill St"
  },
  {
    "id": "f940396c-fb8a-4849-a6b2-7d4a4653208f",
    "name": "The Long Man Brewery",
    "brewery_type": "micro",
    "address_1": "Church Farm",
    "address_2": null,
    "address_3": null,
    "city": "Polegate",
    "state_province": "East Sussex",
    "postal_code": "BN26 5RA",
    "country": "England",
    "longitude": 0.160243,
    "latitude": 50.799904,
    "phone": "1323871850",
    "website_url": "https://www.longmanbrewery.com/",
    "state": "East Sussex",
    "street": "Church Farm"
  },
  {
    "id": "e9d9ae5d-f068-4cc5-bced-56218eb3f528",
    "name": "The Lost Borough Brewing Company",
    "brewery_type": "micro",
    "address_1": "543 Atlantic Ave",
    "address_2": null,
    "address_3": null,
    "city": "Rochester",
    "state_province": "New York",
    "postal_code": "14609-7316",
    "country": "United States",
    "longitude": -77.56856467,
    "latitude": 43.15638738,
    "phone": "5854718122",
    "website_url": "http://www.lostboroughbrewing.com",
    "state": "New York",
    "street": "543 Atlantic Ave"
  },
  {
    "id": "64bfb175-46f6-421c-9771-7fffb984c4c7",
    "name": "The Lost Druid",
    "brewery_type": "planning",
    "address_1": null,
    "address_2": null,
    "address_3": null,
    "city": "Atlanta",
    "state_province": "Georgia",
    "postal_code": "30307-2758",
    "country": "United States",
    "longitude": null,
    "latitude": null,
    "phone": null,
    "website_url": null,
    "state": "Georgia",
    "street": null
  },
  {
    "id": "9250d166-8224-4a1b-a75f-7470c2f7a268",
    "name": "The Mack House Brewpub",
    "brewery_type": "brewpub",
    "address_1": "9118 W State Road 84",
    "address_2": null,
    "address_3": null,
    "city": "Davie",
    "state_province": "Florida",
    "postal_code": "33324-4416",
    "country": "United States",
    "longitude": null,
    "latitude": null,
    "phone": "9544745040",
    "website_url": "http://www.themackhouse.com",
    "state": "Florida",
    "street": "9118 W State Road 84"
  },
  {
    "id": "a30a71ca-d8c6-4413-b939-f38667f4ef6e",
    "name": "The Malai Kitchen",
    "brewery_type": "brewpub",
    "address_1": "3699 McKinney Ave Ste 319",
    "address_2": null,
    "address_3": null,
    "city": "Dallas",
    "state_province": "Texas",
    "postal_code": "75204-4563",
    "country": "United States",
    "longitude": -96.796677,
    "latitude": 32.808204,
    "phone": "2145997857",
    "website_url": "http://www.malaikitchen.com",
    "state": "Texas",
    "street": "3699 McKinney Ave Ste 319"
  },
  {
    "id": "392f102d-b772-47ab-bed8-641e5b70a2b6",
    "name": "The Manhattan Project Beer Company",
    "brewery_type": "micro",
    "address_1": "15103 Surveyor Blvd",
    "address_2": null,
    "address_3": null,
    "city": "Addison",
    "state_province": "Texas",
    "postal_code": "75001-4316",
    "country": "United States",
    "longitude": -96.845846,
    "latitude": 32.951222,
    "phone": null,
    "website_url": "http://www.manhattanproject.beer",
    "state": "Texas",
    "street": "15103 Surveyor Blvd"
  },
  {
    "id": "0f1463ef-9547-4387-bcdd-cf2704a1f035",
    "name": "The Maple Grille LLC",
    "brewery_type": "brewpub",
    "address_1": "13105 Gratiot Rd",
    "address_2": null,
    "address_3": null,
    "city": "Hemlock",
    "state_province": "Michigan",
    "postal_code": "48626-8444",
    "country": "United States",
    "longitude": -84.1741049,
    "latitude": 43.4157758,
    "phone": null,
    "website_url": null,
    "state": "Michigan",
    "street": "13105 Gratiot Rd"
  },
  {
    "id": "5d3e644a-e243-4bfb-ba06-f62b21bb94e7",
    "name": "The Mason Jar Brewing Company",
    "brewery_type": "micro",
    "address_1": "29683 New Hub Dr Ste A",
    "address_2": null,
    "address_3": null,
    "city": "Menifee",
    "state_province": "California",
    "postal_code": "92586-6545",
    "country": "United States",
    "longitude": -117.1772064,
    "latitude": 33.68931288,
    "phone": "9512445277",
    "website_url": "http://www.masonjarbrewing.com",
    "state": "California",
    "street": "29683 New Hub Dr Ste A"
  },
  {
    "id": "419f3a76-0970-4e3b-90f9-e242deb0a782",
    "name": "The Millworks Brewery",
    "brewery_type": "brewpub",
    "address_1": "340 Verbeke St",
    "address_2": null,
    "address_3": null,
    "city": "Harrisburg",
    "state_province": "Pennsylvania",
    "postal_code": "17102-2052",
    "country": "United States",
    "longitude": -76.8874206,
    "latitude": 40.270538,
    "phone": "7176954888",
    "website_url": "http://www.millworksharrisburg.com",
    "state": "Pennsylvania",
    "street": "340 Verbeke St"
  },
  {
    "id": "f49b6091-444c-46ea-99d6-e798815ab4ee",
    "name": "The Mitten Brewing Co",
    "brewery_type": "brewpub",
    "address_1": "527 Leonard St NW",
    "address_2": null,
    "address_3": null,
    "city": "Grand Rapids",
    "state_province": "Michigan",
    "postal_code": "49504-4278",
    "country": "United States",
    "longitude": -85.68101,
    "latitude": 42.98507733,
    "phone": "6166085612",
    "website_url": "http://www.mittenbrewing.com",
    "state": "Michigan",
    "street": "527 Leonard St NW"
  },
  {
    "id": "7550c372-1e49-49f5-b7d9-764e260fdba5",
    "name": "The Mitten Brewing Company - Saugatuck",
    "brewery_type": "brewpub",
    "address_1": "329 Water St",
    "address_2": null,
    "address_3": null,
    "city": "Saugatuck",
    "state_province": "Michigan",
    "postal_code": "49453",
    "country": "United States",
    "longitude": -86.20524129,
    "latitude": 42.65689129,
    "phone": "6166085612",
    "website_url": null,
    "state": "Michigan",
    "street": "329 Water St"
  },
  {
    "id": "4d0ab1cf-bb3a-4432-8108-3bd91cb900d4",
    "name": "The Mitten Brewing Company Production Facility",
    "brewery_type": "micro",
    "address_1": "540 Leonard St NW",
    "address_2": null,
    "address_3": null,
    "city": "Grand Rapids",
    "state_province": "Michigan",
    "postal_code": "49504-4260",
    "country": "United States",
    "longitude": -85.68100276,
    "latitude": 42.98491266,
    "phone": null,
    "website_url": null,
    "state": "Michigan",
    "street": "540 Leonard St NW"
  },
  {
    "id": "91557e74-fcdb-496c-b10c-43a488ae4e11",
    "name": "The Neighborhood Beer Co.",
    "brewery_type": "closed",
    "address_1": "156 Epping Rd",
    "address_2": null,
    "address_3": null,
    "city": "Exeter",
    "state_province": "New Hampshire",
    "postal_code": "03833-4521",
    "country": "United States",
    "longitude": -70.97431918,
    "latitude": 42.99880009,
    "phone": "6035126228",
    "website_url": "http://nhbeerco.com",
    "state": "New Hampshire",
    "street": "156 Epping Rd"
  },
  {
    "id": "ea79cbe7-681e-4d92-8604-85cb892834ae",
    "name": "The New Buffalo Brewing Co. Inc",
    "brewery_type": "contract",
    "address_1": "11163 Main St",
    "address_2": null,
    "address_3": null,
    "city": "Clarence",
    "state_province": "New York",
    "postal_code": "14031-1701",
    "country": "United States",
    "longitude": -78.57052941,
    "latitude": 42.98442517,
    "phone": "7162007275",
    "website_url": "http://www.newbuffalobrewing.com",
    "state": "New York",
    "street": "11163 Main St"
  },
  {
    "id": "2198a974-f3cd-4290-83b7-a3d0600ad12d",
    "name": "The North Slope Brewing Company",
    "brewery_type": "brewpub",
    "address_1": "2439 Sr 309 Hwy",
    "address_2": null,
    "address_3": null,
    "city": "Dallas",
    "state_province": "Pennsylvania",
    "postal_code": "18612-9251",
    "country": "United States",
    "longitude": null,
    "latitude": null,
    "phone": "5702554012",
    "website_url": "http://www.northslopebrewing.com",
    "state": "Pennsylvania",
    "street": "2439 Sr 309 Hwy"
  },
  {
    "id": "5e3c3edf-7aa5-4c52-92ef-769f6ac6e918",
    "name": "The Norwich Inn - Jasper Murdock's Alehouse",
    "brewery_type": "brewpub",
    "address_1": "325 Main St",
    "address_2": null,
    "address_3": null,
    "city": "Norwich",
    "state_province": "Vermont",
    "postal_code": "05055-9453",
    "country": "United States",
    "longitude": -72.3091387,
    "latitude": 43.7150119,
    "phone": "8026491143",
    "website_url": "http://www.norwichinn.com",
    "state": "Vermont",
    "street": "325 Main St"
  },
  {
    "id": "ef7f6bae-48fd-4583-b5cf-342c7a5987fe",
    "name": "The Old Bakery Beer Company",
    "brewery_type": "brewpub",
    "address_1": "400 Landmarks Blvd",
    "address_2": null,
    "address_3": null,
    "city": "Alton",
    "state_province": "Illinois",
    "postal_code": "62002-2405",
    "country": "United States",
    "longitude": null,
    "latitude": null,
    "phone": "6184631470",
    "website_url": null,
    "state": "Illinois",
    "street": "400 Landmarks Blvd"
  },
  {
    "id": "5de171b9-729f-4203-bdb5-33aca95fdd46",
    "name": "The Olde Mecklenburg Brewery",
    "brewery_type": "regional",
    "address_1": "4150 Yancey Rd",
    "address_2": null,
    "address_3": null,
    "city": "Charlotte",
    "state_province": "North Carolina",
    "postal_code": "28217-1738",
    "country": "United States",
    "longitude": -80.88195345,
    "latitude": 35.18741705,
    "phone": "7045255644",
    "website_url": "http://www.oldemeckbrew.com",
    "state": "North Carolina",
    "street": "4150 Yancey Rd"
  }
]