[
  {
    "id": "f25ef908-5b80-4cab-8aa1-76c508e3d884",
    "name": "Siskiyou Brew Works",
    "brewery_type": "brewpub",
    "address_1": "110 Squawvalley Rd",
    "address_2": null,
    "address_3": null,
    "city": "McCloud",
    "state_province": "California",
    "postal_code": "96057",
    "country": "United States",
    "longitude": -122.1357595,
    "latitude": 41.25073304,
    "phone": "5309255894",
    "website_url": "http://www.siskiyoubrewworks.com",
    "state": "California",
    "street": "110 Squawvalley Rd"
  },
  {
    "id": "598e9aa4-8f65-40e9-a2eb-d6822fbdaacb",
    "name": "Sister Lakes Brewing Company",
    "brewery_type": "brewpub",
    "address_1": "92500 County Road 690",
    "address_2": null,
    "address_3": null,
    "city": "Dowagiac",
    "state_province": "Michigan",
    "postal_code": "49047-9021",
    "country": "United States",
    "longitude": null,
    "latitude": null,
    "phone": "2693325135",
    "website_url": "http://www.sisterlakesbrewing.com",
    "state": "Michigan",
    "street": "92500 County Road 690"
  },
  {
    "id": "f2fd7e1b-85a7-4a6e-9351-41e1c9b7f18f",
    "name": "Sisyphus Brewing",
    "brewery_type": "micro",
    "address_1": "712 Ontario Ave W",
    "address_2": null,
    "address_3": null,
    "city": "Minneapolis",
    "state_province": "Minnesota",
    "postal_code": "55403-1138",
    "country": "United States",
    "longitude": -93.28833571,
    "latitude": 44.973158,
    "phone": "6124448674",
    "website_url": "http://www.sisyphusbrewing.com",
    "state": "Minnesota",
    "street": "712 Ontario Ave W"
  },
  {
    "id": "ce1a4d63-206c-4e4e-a835-543ee2e9306f",
    "name": "Siuslaw Brewing",
    "brewery_type": "micro",
    "address_1": "16558 Alsea Hwy",
    "address_2": null,
    "address_3": null,
    "city": "Alsea",
    "state_province": "Oregon",
    "postal_code": "97324-9624",
    "country": "United States",
    "longitude": -123.6906645,
    "latitude": 44.353359,
    "phone": "5417401606",
    "website_url": null,
    "state": "Oregon",
    "street": "16558 Alsea Hwy"
  },
  {
    "id": "5f6f3cb4-e720-4a25-885e-903f1341049a",
    "name": "Six Car Pub",
    "brewery_type": "planning",
    "address_1": null,
    "address_2": null,
    "address_3": null,
    "city": "Amarillo",
    "state_province": "Texas",
    "postal_code": "79106",
    "country": "United States",
    "longitude": null,
    "latitude": null,
    "phone": "8062206881",
    "website_url": "http://www.sixcarpub.com",
    "state": "Texas",
    "street": null
  },
  {
    "id": "3f3ccd69-bd9e-41fe-aaf2-48d0f3277cfa",
    "name": "Six Harbors Brewing Company",
    "brewery_type": "proprietor",
    "address_1": "243 New York Ave.",
    "address_2": null,
    "address_3": null,
    "city": "Huntington",
    "state_province": "New York",
    "postal_code": "11743-2719",
    "country": "United States",
    "longitude": -73.4253168,
    "latitude": 40.8749628,
    "phone": "5166803528",
    "website_url": null,
    "state": "New York",
    "street": "243 New York Ave."
  },
  {
    "id": "937b7b68-c9da-4466-851f-14a583a95844",
    "name": "Six Mile Bridge Brewery",
    "brewery_type": "micro",
    "address_1": "11841 Dorsett Rd",
    "address_2": null,
    "address_3": null,
    "city": "Maryland Heights",
    "state_province": "Missouri",
    "postal_code": "63043-2503",
    "country": "United States",
    "longitude": -90.43182572,
    "latitude": 38.714489,
    "phone": "3149422211",
    "website_url": "http://www.sixmilebridgebeer.com",
    "state": "Missouri",
    "street": "11841 Dorsett Rd"
  },
  {
    "id": "54b5bff4-c4a8-4c4d-869e-2068e0ed37ac",
    "name": "Six Rivers Brewery",
    "brewery_type": "brewpub",
    "address_1": "1300 Central Ave",
    "address_2": null,
    "address_3": null,
    "city": "McKinleyville",
    "state_province": "California",
    "postal_code": "95519-6429",
    "country": "United States",
    "longitude": -124.1003888,
    "latitude": 40.9260642,
    "phone": null,
    "website_url": null,
    "state": "California",
    "street": "1300 Central Ave"
  },
  {
    "id": "c8751600-8370-4ce2-b405-9c39238a2f17",
    "name": "Six Ten Brewing",
    "brewery_type": "micro",
    "address_1": "7052 Benjamin Rd",
    "address_2": null,
    "address_3": null,
    "city": "Tampa",
    "state_province": "Florida",
    "postal_code": "33634-3034",
    "country": "United States",
    "longitude": null,
    "latitude": null,
    "phone": "8138860610",
    "website_url": null,
    "state": "Florida",
    "street": "7052 Benjamin Rd"
  },
  {
    "id": "2524a546-408c-47f3-bcb5-ad4be41ab69f",
    "name": "Sixpoint Brewery",
    "brewery_type": "regional",
    "address_1": "40 Van Dyke St",
    "address_2": null,
    "address_3": null,
    "city": "Brooklyn",
    "state_province": "New York",
    "postal_code": "11231-1529",
    "country": "United States",
    "longitude": -74.01191761,
    "latitude": 40.67397255,
    "phone": "3472278676",
    "website_url": "http://www.sixpoint.com",
    "state": "New York",
    "street": "40 Van Dyke St"
  },
  {
    "id": "1b104780-1145-4be5-8ffd-14ec7bd9532a",
    "name": "Sixth Sense Brewing Company",
    "brewery_type": "micro",
    "address_1": "175 Main St.",
    "address_2": null,
    "address_3": null,
    "city": "Jackson",
    "state_province": "Ohio",
    "postal_code": "45640",
    "country": "United States",
    "longitude": -82.63876433,
    "latitude": 39.05323989,
    "phone": "7405773681",
    "website_url": "http://www.sixthsensebrewing.com",
    "state": "Ohio",
    "street": "175 Main St."
  },
  {
    "id": "867284df-ee7d-4e01-9df8-c8143cdf3f20",
    "name": "SKA Brewing",
    "brewery_type": "regional",
    "address_1": "225 Girard, Bodo Park",
    "address_2": null,
    "address_3": null,
    "city": "Durango",
    "state_province": "Colorado",
    "postal_code": "81303-6827",
    "country": "United States",
    "longitude": null,
    "latitude": null,
    "phone": null,
    "website_url": null,
    "state": "Colorado",
    "street": "225 Girard, Bodo Park"
  },
  {
    "id": "6e0c17e2-fb3c-4621-bfc8-55ccb3134cea",
    "name": "Skagit River Brewery",
    "brewery_type": "closed",
    "address_1": "404 S 3rd St",
    "address_2": null,
    "address_3": null,
    "city": "Mount Vernon",
    "state_province": "Washington",
    "postal_code": "98273-3824",
    "country": "United States",
    "longitude": -122.3354271,
    "latitude": 48.4193151,
    "phone": "3603362884",
    "website_url": "http://www.skagitbrew.com",
    "state": "Washington",
    "street": "404 S 3rd St"
  },
  {
    "id": "9e6976d2-154c-4fe6-8bc9-d93d2d431921",
    "name": "Skagit Valley Malting",
    "brewery_type": "micro",
    "address_1": "11966 Westar Ln",
    "address_2": null,
    "address_3": null,
    "city": "Burlington",
    "state_province": "Washington",
    "postal_code": "98233-3620",
    "country": "United States",
    "longitude": -122.408008,
    "latitude": 48.473509,
    "phone": "3609821262",
    "website_url": "https://www.skagitvalleymalting.com/",
    "state": "Washington",
    "street": "11966 Westar Ln"
  },
  {
    "id": "f096099d-7cbb-4e6c-be76-55d6918f3bd7",
    "name": "Skagway Brewing Co",
    "brewery_type": "brewpub",
    "address_1": "641 Broadway St Ste 946",
    "address_2": null,
    "address_3": null,
    "city": "Skagway",
    "state_province": "Alaska",
    "postal_code": "99840-9800",
    "country": "United States",
    "longitude": -135.315716,
    "latitude": 59.45506,
    "phone": "9079832759",
    "website_url": "http://www.skagwaybrewing.com",
    "state": "Alaska",
    "street": "641 Broadway St Ste 946"
  },
  {
    "id": "c22c2cce-f622-416c-97be-60e9ebf09154",
    "name": "Skeleton Crew Brew",
    "brewery_type": "micro",
    "address_1": "575 Lester Ave Ste 206",
    "address_2": null,
    "address_3": null,
    "city": "Onalaska",
    "state_province": "Wisconsin",
    "postal_code": "54650-8694",
    "country": "United States",
    "longitude": null,
    "latitude": null,
    "phone": "7155709463",
    "website_url": "http://www.skeletoncrewbrew.com",
    "state": "Wisconsin",
    "street": "575 Lester Ave Ste 206"
  },
  {
    "id": "c672a50b-383f-4658-98a9-2de71addbb46",
    "name": "Skeleton Key Brewery",
    "brewery_type": "micro",
    "address_1": "8102 Lemont Rd Ste 300",
    "address_2": null,
    "address_3": null,
    "city": "Woodridge",
    "state_province": "Illinois",
    "postal_code": "60517-7764",
    "country": "United States",
    "longitude": null,
    "latitude": null,
    "phone": "6303959033",
    "website_url": "http://www.skeletonkeybrewery.com",
    "state": "Illinois",
    "street": "8102 Lemont Rd Ste 300"
  },
  {
    "id": "667486e4-c581-4958-941e-3d7077781ea4",
    "name": "Sketchbook Brewing Company",
    "brewery_type": "micro",
    "address_1": "821 Chicago Ave",
    "address_2": null,
    "address_3": null,
    "city": "Evanston",
    "state_province": "Illinois",
    "postal_code": "60202-2307",
    "country": "United States",
    "longitude": -87.6789794,
    "latitude": 42.032929,
    "phone": null,
    "website_url": null,
    "state": "Illinois",
    "street": "821 Chicago Ave"
  },
  {
    "id": "4c5ef3a3-3823-4cfa-95fd-0719622cf660",
    "name": "Skewed Brewing",
    "brewery_type": "brewpub",
    "address_1": "21182 Salmon Run Mall Loop W, Unit B219",
    "address_2": null,
    "address_3": null,
    "city": "Watertown",
    "state_province": "New York",
    "postal_code": "13601-2244",
    "country": "United States",
    "longitude": null,
    "latitude": null,
    "phone": "3157882337",
    "website_url": "http://Skewedbrewing.com",
    "state": "New York",
    "street": "21182 Salmon Run Mall Loop W, Unit B219"
  },
  {
    "id": "86c3526b-002e-4349-a570-ae6fe075f11b",
    "name": "Skipping Rock Beer Co.",
    "brewery_type": "planning",
    "address_1": null,
    "address_2": null,
    "address_3": null,
    "city": "Staunton",
    "state_province": "Virginia",
    "postal_code": "24401-6122",
    "country": "United States",
    "longitude": null,
    "latitude": null,
    "phone": "5402923417",
    "website_url": "http://www.skippingrockbeer.com",
    "state": "Virginia",
    "street": null
  },
  {
    "id": "b2fd502a-3a2a-4bbe-8137-53a00ba5cf34",
    "name": "Skookum Brewery",
    "brewery_type": "micro",
    "address_1": "17925 59th Ave NE # A",
    "address_2": null,
    "address_3": null,
    "city": "Arlington",
    "state_province": "Washington",
    "postal_code": "98223-6352",
    "country": "United States",
    "longitude": -122.150305,
    "latitude": 48.159011,
    "phone": "3604037094",
    "website_url": "http://www.skookumbrewing.com",
    "state": "Washington",
    "street": "17925 59th Ave NE # A"
  },
  {
    "id": "f90c6800-2533-4fec-9ad3-2e0c910b9ae4",
    "name": "Skull Camp Brewing",
    "brewery_type": "micro",
    "address_1": "1980 N Bridge St",
    "address_2": null,
    "address_3": null,
    "city": "Elkin",
    "state_province": "North Carolina",
    "postal_code": "28621-2106",
    "country": "United States",
    "longitude": -80.8524566,
    "latitude": 36.28339789,
    "phone": "3363525595",
    "website_url": "http://www.skullcampbrewing.com",
    "state": "North Carolina",
    "street": "1980 N Bridge St"
  },
  {
    "id": "c43a62fc-9928-4483-a067-e18a9f6a62f4",
    "name": "Skull Camp Brewing",
    "brewery_type": "micro",
    "address_1": "765 Round Peak Church Rd",
    "address_2": null,
    "address_3": null,
    "city": "Mount Airy",
    "state_province": "North Carolina",
    "postal_code": "27030-8421",
    "country": "United States",
    "longitude": null,
    "latitude": null,
    "phone": "3363525595",
    "website_url": "http://www.skullcampbrewing.com",
    "state": "North Carolina",
    "street": "765 Round Peak Church Rd"
  },
  {
    "id": "5f426984-68f1-4f2b-9bed-97eba2b6809e",
    "name": "Skull Mechanix Brewing",
    "brewery_type": "micro",
    "address_1": "1005 East St Elmo Rd Bldg 2",
    "address_2": null,
    "address_3": null,
    "city": "Austin",
    "state_province": "Texas",
    "postal_code": "78745",
    "country": "United States",
    "longitude": null,
    "latitude": null,
    "phone": "7373001002",
    "website_url": "http://www.skullmechanix.com",
    "state": "Texas",
    "street": "1005 East St Elmo Rd Bldg 2"
  },
  {
    "id": "172c0b58-ec77-4126-8f31-9014b6003b8d",
    "name": "Skull Tree Brewing",
    "brewery_type": "micro",
    "address_1": "1530 Burlington Ave",
    "address_2": null,
    "address_3": null,
    "city": "Casper",
    "state_province": "Wyoming",
    "postal_code": "82601-2109",
    "country": "United States",
    "longitude": -106.30514137131,
    "latitude": 42.855481885083,
    "phone": "3072773764",
    "website_url": "https://www.facebook.com/SkullTreeBrewing",
    "state": "Wyoming",
    "street": "1530 Burlington Ave"
  },
  {
    "id": "ed1133f9-48d1-4951-b47e-f67a274d6203",
    "name": "Sky High Brewing",
    "brewery_type": "brewpub",
    "address_1": "160 NW Jackson Ave",
    "address_2": null,
    "address_3": null,
    "city": "Corvallis",
    "state_province": "Oregon",
    "postal_code": "97330-4827",
    "country": "United States",
    "longitude": -123.2590342,
    "latitude": 44.5648291,
    "phone": "5412073277",
    "website_url": "http://www.skyhighbrewing.com",
    "state": "Oregon",
    "street": "160 NW Jackson Ave"
  },
  {
    "id": "ac1e0284-05a9-41af-b82c-7ede99ecd2e7",
    "name": "Skyland Ale Works",
    "brewery_type": "micro",
    "address_1": "1869 Pomona Rd Ste E",
    "address_2": null,
    "address_3": null,
    "city": "Corona",
    "state_province": "California",
    "postal_code": "92880-1789",
    "country": "United States",
    "longitude": -117.6017074,
    "latitude": 33.88345492,
    "phone": "9518173037",
    "website_url": "http://www.skylandaleworks.com",
    "state": "California",
    "street": "1869 Pomona Rd Ste E"
  },
  {
    "id": "e7cde6c1-fce9-43cd-8cb8-6867172e084c",
    "name": "Skyroc Brewery",
    "brewery_type": "micro",
    "address_1": "11 Riverbank Rd",
    "address_2": null,
    "address_3": null,
    "city": "Attleboro",
    "state_province": "Massachusetts",
    "postal_code": "02703-",
    "country": "United States",
    "longitude": -71.28788917,
    "latitude": 41.94462967,
    "phone": "7743312336",
    "website_url": "http://www.skyrocbrewery.com",
    "state": "Massachusetts",
    "street": "11 Riverbank Rd"
  },
  {
    "id": "e626c28c-de4e-4cd5-bc1b-d66418329731",
    "name": "Slack Tide Brewing Company",
    "brewery_type": "micro",
    "address_1": "1072 Route 83 Unit 3",
    "address_2": null,
    "address_3": null,
    "city": "Cape May Court House",
    "state_province": "New Jersey",
    "postal_code": "08210-1200",
    "country": "United States",
    "longitude": null,
    "latitude": null,
    "phone": "6094782343",
    "website_url": "http://www.slacktidebrewingco.com",
    "state": "New Jersey",
    "street": "1072 Route 83 Unit 3"
  },
  {
    "id": "8890167c-6e54-45b2-9be3-a866eb3e6168",
    "name": "Slantways Brewing Company",
    "brewery_type": "planning",
    "address_1": null,
    "address_2": null,
    "address_3": null,
    "city": "The Woodlands",
    "state_province": "Texas",
    "postal_code": "77381-4641",
    "country": "United States",
    "longitude": null,
    "latitude": null,
    "phone": null,
    "website_url": null,
    "state": "Texas",
    "street": null
  },
  {
    "id": "2c56fb62-1beb-4f7b-9994-c1b4413c8c80",
    "name": "Slate Farm Brewery",
    "brewery_type": "micro",
    "address_1": "2128 Whiteford Rd",
    "address_2": null,
    "address_3": null,
    "city": "Whiteford",
    "state_province": "Maryland",
    "postal_code": "21160-1402",
    "country": "United States",
    "longitude": -76.3369752,
    "latitude": 39.7036891,
    "phone": null,
    "website_url": null,
    "state": "Maryland",
    "street": "2128 Whiteford Rd"
  },
  {
    "id": "3a1f7d89-6e0a-4267-80c6-63e8c8a51e34",
    "name": "Slate Rock Brewing Company",
    "brewery_type": "micro",
    "address_1": "113 S Main St",
    "address_2": null,
    "address_3": null,
    "city": "Amity",
    "state_province": "Arkansas",
    "postal_code": "71921-",
    "country": "United States",
    "longitude": -93.46113043,
    "latitude": 34.26406928,
    "phone": "8703425545",
    "website_url": "http://www.slaterockbrewing.com",
    "state": "Arkansas",
    "street": "113 S Main St"
  },
  {
    "id": "e44fd198-7103-490f-9f20-3f6d485b22a3",
    "name": "Slaughter County Brewing",
    "brewery_type": "brewpub",
    "address_1": "1307 Bay St",
    "address_2": null,
    "address_3": null,
    "city": "Port Orchard",
    "state_province": "Washington",
    "postal_code": "98366-5105",
    "country": "United States",
    "longitude": -122.626001,
    "latitude": 47.54261931,
    "phone": "3603292340",
    "website_url": "http://www.slaughtercountybrewing.com",
    "state": "Washington",
    "street": "1307 Bay St"
  },
  {
    "id": "b5ca8cb2-fff7-4444-b9f8-82727cdd0dba",
    "name": "Sleeping Giant Brewing Company",
    "brewery_type": "micro",
    "address_1": "2500 W 5th Ave",
    "address_2": null,
    "address_3": null,
    "city": "Denver",
    "state_province": "Colorado",
    "postal_code": "80204-4803",
    "country": "United States",
    "longitude": -105.0167729,
    "latitude": 39.7237975,
    "phone": null,
    "website_url": "http://www.sleepinggiantbrewing.com",
    "state": "Colorado",
    "street": "2500 W 5th Ave"
  },
  {
    "id": "a2bdb22b-3649-43a7-85b8-7821e09c1d7c",
    "name": "Sleepy Dog Brewing Co",
    "brewery_type": "micro",
    "address_1": "1920 E University Dr",
    "address_2": null,
    "address_3": null,
    "city": "Tempe",
    "state_province": "Arizona",
    "postal_code": "85281-4608",
    "country": "United States",
    "longitude": -111.9041833,
    "latitude": 33.422606,
    "phone": "4809675476",
    "website_url": null,
    "state": "Arizona",
    "street": "1920 E University Dr"
  },
  {
    "id": "4c5f2814-cfef-4841-bd54-5754e47d2f34",
    "name": "Sleepy Owl Brewery",
    "brewery_type": "micro",
    "address_1": "151 E Main St Ste 200",
    "address_2": null,
    "address_3": null,
    "city": "Kingsport",
    "state_province": "Tennessee",
    "postal_code": "37660-4380",
    "country": "United States",
    "longitude": null,
    "latitude": null,
    "phone": "4232744458",
    "website_url": "http://www.sleepyowlbrewery.com",
    "state": "Tennessee",
    "street": "151 E Main St Ste 200"
  },
  {
    "id": "6d654268-585f-4da4-9bcd-bc6a3fd550e2",
    "name": "Slesar Bros Brewing Co - Boston Beer Works",
    "brewery_type": "brewpub",
    "address_1": "112 Canal St",
    "address_2": null,
    "address_3": null,
    "city": "Boston",
    "state_province": "Massachusetts",
    "postal_code": "02114-1805",
    "country": "United States",
    "longitude": -71.0603412,
    "latitude": 42.364473,
    "phone": "6178962337",
    "website_url": "http://www.beerworks.net",
    "state": "Massachusetts",
    "street": "112 Canal St"
  },
  {
    "id": "6b946d80-9365-4f6c-90d5-ad9258e2b149",
    "name": "Slesar Bros Brewing Co - Boston Beer Works",
    "brewery_type": "brewpub",
    "address_1": "61 Brookline Ave",
    "address_2": null,
    "address_3": null,
    "city": "Boston",
    "state_province": "Massachusetts",
    "postal_code": "02215-3406",
    "country": "United States",
    "longitude": -71.10772469,
    "latitude": 42.33883008,
    "phone": "6175362337",
    "website_url": "http://www.beerworks.net",
    "state": "Massachusetts",
    "street": "61 Brookline Ave"
  },
  {
    "id": "6d9698ed-f45d-451e-92d0-e3be563e3e1c",
    "name": "SlickFin Brewing Company LLC",
    "brewery_type": "planning",
    "address_1": null,
    "address_2": null,
    "address_3": null,
    "city": "Queensbury",
    "state_province": "New York",
    "postal_code": "12804-9786",
    "country": "United States",
    "longitude": null,
    "latitude": null,
    "phone": null,
    "website_url": null,
    "state": "New York",
    "street": null
  },
  {
    "id": "f237ee78-7b14-4d09-bead-202fd79be7d5",
    "name": "Slieve Bloom Brewing Company",
    "brewery_type": "micro",
    "address_1": "Main Street",
    "address_2": "The Walk",
    "address_3": null,
    "city": "Kinnitty",
    "state_province": "Offaly",
    "postal_code": "R42 W542",
    "country": "Ireland",
    "longitude": -7.7211856,
    "latitude": 53.0978092,
    "phone": "353579137010",
    "website_url": "https://slievebloombrewing.com/",
    "state": "Offaly",
    "street": "Main Street"
  },
  {
    "id": "2976ade3-23e9-4acf-8e96-48bc18b4e94a",
    "name": "Slippery Pig Brewery",
    "brewery_type": "brewpub",
    "address_1": "18801 Front St NE",
    "address_2": null,
    "address_3": null,
    "city": "Poulsbo",
    "state_province": "Washington",
    "postal_code": "98370",
    "country": "United States",
    "longitude": -122.6459834,
    "latitude": 47.73347675,
    "phone": "3603941686",
    "website_url": "http://www.slipperypigbrewing.com",
    "state": "Washington",
    "street": "18801 Front St NE"
  },
  {
    "id": "c9b014ab-a72f-4098-8cd7-1e30b7989b3a",
    "name": "SLO Brewing Co",
    "brewery_type": "micro",
    "address_1": "736 Higuera St",
    "address_2": null,
    "address_3": null,
    "city": "San Luis Obispo",
    "state_province": "California",
    "postal_code": "93401-3513",
    "country": "United States",
    "longitude": -120.6640407,
    "latitude": 35.2793012,
    "phone": "8054595604",
    "website_url": "http://www.slobrew.com",
    "state": "California",
    "street": "736 Higuera St"
  },
  {
    "id": "bbae1378-1b2d-4496-8f25-b215c7c27cf3",
    "name": "SLO Brewing Co - The Rock",
    "brewery_type": "brewpub",
    "address_1": "855 Aerovista Pl",
    "address_2": null,
    "address_3": null,
    "city": "San Luis Obispo",
    "state_province": "California",
    "postal_code": "93401-8056",
    "country": "United States",
    "longitude": -120.6411805,
    "latitude": 35.24187276,
    "phone": "8057062915",
    "website_url": null,
    "state": "California",
    "street": "855 Aerovista Pl"
  },
  {
    "id": "f5072e98-978a-4a4b-bd96-610257365d89",
    "name": "Sloop Brewing",
    "brewery_type": "micro",
    "address_1": "1065 County Route 19",
    "address_2": null,
    "address_3": null,
    "city": "Elizaville",
    "state_province": "New York",
    "postal_code": "12523-1205",
    "country": "United States",
    "longitude": -73.797148,
    "latitude": 42.084393,
    "phone": "9178483865",
    "website_url": "http://www.sloopbrewing.com",
    "state": "New York",
    "street": "1065 County Route 19"
  },
  {
    "id": "054dc3c8-bca1-4a31-94c3-4fbf7c0f5567",
    "name": "Slow Play Brewing Company",
    "brewery_type": "planning",
    "address_1": null,
    "address_2": null,
    "address_3": null,
    "city": "Rock Hill",
    "state_province": "South Carolina",
    "postal_code": "29730-3504",
    "country": "United States",
    "longitude": null,
    "latitude": null,
    "phone": null,
    "website_url": null,
    "state": "South Carolina",
    "street": null
  },
  {
    "id": "4fd7c5d7-8725-46dd-9174-20d118057f5b",
    "name": "Slow Pour Brewing Company",
    "brewery_type": "micro",
    "address_1": "407 N Clayton St",
    "address_2": null,
    "address_3": null,
    "city": "Lawrenceville",
    "state_province": "Georgia",
    "postal_code": "30046-4818",
    "country": "United States",
    "longitude": -83.98889581,
    "latitude": 33.96116747,
    "phone": "4045108901",
    "website_url": "http://www.slowpourbrewing.com",
    "state": "Georgia",
    "street": "407 N Clayton St"
  },
  {
    "id": "b629eb5c-2277-41cb-b37e-a892bf3b9ce3",
    "name": "Slowboat Brewing Company",
    "brewery_type": "micro",
    "address_1": "318 W 5th St",
    "address_2": null,
    "address_3": null,
    "city": "Laurel",
    "state_province": "Mississippi",
    "postal_code": "39440-3461",
    "country": "United States",
    "longitude": -89.12789538,
    "latitude": 31.69425231,
    "phone": "6014332723",
    "website_url": "http://www.slowboatbrewco.com",
    "state": "Mississippi",
    "street": "318 W 5th St"
  },
  {
    "id": "bba784ea-f9b4-4d89-a713-9697cd12982d",
    "name": "Sluggo Brewing",
    "brewery_type": "micro",
    "address_1": "2712 6th Ave",
    "address_2": null,
    "address_3": null,
    "city": "Tacoma",
    "state_province": "Washington",
    "postal_code": "98406-7213",
    "country": "United States",
    "longitude": -122.472174,
    "latitude": 47.2553127,
    "phone": "2533271894",
    "website_url": "http://www.halfpintpizzapub.com",
    "state": "Washington",
    "street": "2712 6th Ave"
  },
  {
    "id": "ccfce8d1-c49d-4bb5-af77-36e5e0def26a",
    "name": "Sly Fox Brewhouse and Eatery",
    "brewery_type": "micro",
    "address_1": "520 Kimberton Rd Pikeland Village Square",
    "address_2": null,
    "address_3": null,
    "city": "Phoenixville",
    "state_province": "Pennsylvania",
    "postal_code": "19460-4737",
    "country": "United States",
    "longitude": null,
    "latitude": null,
    "phone": "6109354540",
    "website_url": "http://www.slyfoxbeer.com",
    "state": "Pennsylvania",
    "street": "520 Kimberton Rd Pikeland Village Square"
  },
  {
    "id": "acd3da61-7841-48bf-9d0e-5ac89915e9dc",
    "name": "Sly Fox Brewing Co",
    "brewery_type": "regional",
    "address_1": "331 Circle of Progress Dr",
    "address_2": null,
    "address_3": null,
    "city": "Pottstown",
    "state_province": "Pennsylvania",
    "postal_code": "19464-3811",
    "country": "United States",
    "longitude": -75.66632314,
    "latitude": 40.26338927,
    "phone": "4845248210",
    "website_url": "http://www.slyfoxbeer.com",
    "state": "Pennsylvania",
    "street": "331 Circle of Progress Dr"
  }
]