[
  {
    "id": "55608d36-62d6-449d-a7f6-a1e0df277831",
    "name": "Doomsday Brewing Pub and Pizza - Vancouver",
    "brewery_type": "brewpub",
    "address_1": "9301 NE 5th Ave Ste 120",
    "address_2": null,
    "address_3": null,
    "city": "Vancouver",
    "state_province": "Washington",
    "postal_code": "98665-8271",
    "country": "United States",
    "longitude": -122.6666369,
    "latitude": 45.68816081,
    "phone": "3605598241",
    "website_url": "http://www.doomsdaybrewing.com",
    "state": "Washington",
    "street": "9301 NE 5th Ave Ste 120"
  },
  {
    "id": "d916d0af-0cad-4876-a015-d44411332878",
    "name": "Doomsday Brewing Safe House",
    "brewery_type": "micro",
    "address_1": "1919 Main St",
    "address_2": null,
    "address_3": null,
    "city": "Vancouver",
    "state_province": "Washington",
    "postal_code": "98660-2634",
    "country": "United States",
    "longitude": -122.6712833,
    "latitude": 45.6364012,
    "phone": "3605037649",
    "website_url": "http://www.doomsdaybrewing.com",
    "state": "Washington",
    "street": "1919 Main St"
  },
  {
    "id": "d4a27cbf-93bd-4b3d-89b3-3b1898336f74",
    "name": "Door 4 Brewing Co",
    "brewery_type": "micro",
    "address_1": "1214 W Cerro Gordo St",
    "address_2": null,
    "address_3": null,
    "city": "Decatur",
    "state_province": "Illinois",
    "postal_code": "62522-2008",
    "country": "United States",
    "longitude": -88.97523814,
    "latitude": 39.84662586,
    "phone": "2173302008",
    "website_url": "http://www.door4brewing.com",
    "state": "Illinois",
    "street": "1214 W Cerro Gordo St"
  },
  {
    "id": "4761d4a5-08c2-4b99-94d6-9870a1296f0b",
    "name": "Door County Brewing Co./ Hacienda Beer Co",
    "brewery_type": "micro",
    "address_1": "8099 State Highway 57 PO Box 201",
    "address_2": null,
    "address_3": null,
    "city": "Baileys Harbor",
    "state_province": "Wisconsin",
    "postal_code": "54202-0201",
    "country": "United States",
    "longitude": -87.123759815512,
    "latitude": 45.064548950869,
    "phone": "9204931517",
    "website_url": "http://doorcountybrewingco.com",
    "state": "Wisconsin",
    "street": "8099 State Highway 57 PO Box 201"
  },
  {
    "id": "113d2b74-bb5c-4954-9277-da0101571737",
    "name": "Dorchester Brewing Company",
    "brewery_type": "micro",
    "address_1": "1250 Massachusetts Ave",
    "address_2": null,
    "address_3": null,
    "city": "Dorchester",
    "state_province": "Massachusetts",
    "postal_code": "02125-1698",
    "country": "United States",
    "longitude": -71.0615585,
    "latitude": 42.3204879,
    "phone": "6175140900",
    "website_url": "http://www.dorchesterbrewing.com",
    "state": "Massachusetts",
    "street": "1250 Massachusetts Ave"
  },
  {
    "id": "25dd3b18-3204-4539-b58b-95478fbcb531",
    "name": "Dorcol Distilling and Brewing CO",
    "brewery_type": "micro",
    "address_1": "1902 S Flores St",
    "address_2": null,
    "address_3": null,
    "city": "San Antonio",
    "state_province": "Texas",
    "postal_code": "78204",
    "country": "United States",
    "longitude": -98.502373,
    "latitude": 29.405708,
    "phone": "2102290607",
    "website_url": "http://www.dorcolspirits.com",
    "state": "Texas",
    "street": "1902 S Flores St"
  },
  {
    "id": "69303b89-551f-4ef5-8e2f-268910c9b5e6",
    "name": "Dos Desperados Brewery",
    "brewery_type": "micro",
    "address_1": "1241 Linda Vista Dr",
    "address_2": null,
    "address_3": null,
    "city": "San Marcos",
    "state_province": "California",
    "postal_code": "92078-3809",
    "country": "United States",
    "longitude": -117.1928216,
    "latitude": 33.13740391,
    "phone": "7605666209",
    "website_url": "http://www.dosdesperadosbrew.com",
    "state": "California",
    "street": "1241 Linda Vista Dr"
  },
  {
    "id": "cc134379-14ee-4246-9535-ae117501b9af",
    "name": "Dos Luces Brewery",
    "brewery_type": "contract",
    "address_1": "1236 S Broadway",
    "address_2": null,
    "address_3": null,
    "city": "Denver",
    "state_province": "Colorado",
    "postal_code": "80210-1504",
    "country": "United States",
    "longitude": -104.9874923,
    "latitude": 39.6830067,
    "phone": "3037254527",
    "website_url": "http://www.dosluces.com",
    "state": "Colorado",
    "street": "1236 S Broadway"
  },
  {
    "id": "b6aee9c0-d332-4363-a4af-1d89c93f134a",
    "name": "Dostal Alley Brewing Co",
    "brewery_type": "brewpub",
    "address_1": "116 Main St",
    "address_2": null,
    "address_3": null,
    "city": "Central City",
    "state_province": "Colorado",
    "postal_code": "80427",
    "country": "United States",
    "longitude": -105.512426,
    "latitude": 39.8001431,
    "phone": "3035821610",
    "website_url": "http://www.dostalalley.net",
    "state": "Colorado",
    "street": "116 Main St"
  },
  {
    "id": "beb3aa65-0024-42a1-8943-74017faed659",
    "name": "DOT Brew",
    "brewery_type": "micro",
    "address_1": "9 Dolphin's Barn",
    "address_2": "Ushers",
    "address_3": null,
    "city": "Dublin",
    "state_province": "Dublin",
    "postal_code": "D08 WD35",
    "country": "Ireland",
    "longitude": -6.2950084,
    "latitude": 53.3337548,
    "phone": null,
    "website_url": "https://dotbrew.ie/",
    "state": "Dublin",
    "street": "9 Dolphin's Barn"
  },
  {
    "id": "4c3bac7f-3fa2-4153-8abd-28009c6e3031",
    "name": "Double Barley Brewing",
    "brewery_type": "brewpub",
    "address_1": "3174 US Highway 70 W",
    "address_2": null,
    "address_3": null,
    "city": "Smithfield",
    "state_province": "North Carolina",
    "postal_code": "27577-7613",
    "country": "United States",
    "longitude": null,
    "latitude": null,
    "phone": "9199343433",
    "website_url": "http://www.doublebarleybrewing.com",
    "state": "North Carolina",
    "street": "3174 US Highway 70 W"
  },
  {
    "id": "685d73e3-bb8c-47a7-a73a-b8f168903ddd",
    "name": "Double Bluff Brewing",
    "brewery_type": "micro",
    "address_1": "112 Anthes Ave",
    "address_2": null,
    "address_3": null,
    "city": "Langley",
    "state_province": "Washington",
    "postal_code": "98260-",
    "country": "United States",
    "longitude": -122.4090435,
    "latitude": 48.0403212,
    "phone": "3603339113",
    "website_url": "http://www.dblfbrewing.com",
    "state": "Washington",
    "street": "112 Anthes Ave"
  },
  {
    "id": "4de6e1d2-9c69-438d-97a6-f9adcfb4c15b",
    "name": "Double D Brewing / Dommy's Pizza",
    "brewery_type": "brewpub",
    "address_1": "1100 Hancock Ave",
    "address_2": null,
    "address_3": null,
    "city": "Vandergrift",
    "state_province": "Pennsylvania",
    "postal_code": "15690-2061",
    "country": "United States",
    "longitude": -79.57625,
    "latitude": 40.588461,
    "phone": "7245676789",
    "website_url": "http://dommyspizza.com",
    "state": "Pennsylvania",
    "street": "1100 Hancock Ave"
  },
  {
    "id": "95269547-cf11-40b4-bd0c-81cf20fb49fe",
    "name": "Double Edge Brewing Co",
    "brewery_type": "micro",
    "address_1": "158 W Chestnut St",
    "address_2": null,
    "address_3": null,
    "city": "Lancaster",
    "state_province": "Ohio",
    "postal_code": "43130-4308",
    "country": "United States",
    "longitude": -82.6042529,
    "latitude": 39.7123647,
    "phone": "7402777465",
    "website_url": "http://www.double-edge.beer",
    "state": "Ohio",
    "street": "158 W Chestnut St"
  },
  {
    "id": "bedc4634-4155-4448-9d33-b5a8a2e5fb71",
    "name": "Double Horn Brewing Co",
    "brewery_type": "brewpub",
    "address_1": "208 Avenue H",
    "address_2": null,
    "address_3": null,
    "city": "Marble Falls",
    "state_province": "Texas",
    "postal_code": "78654-5750",
    "country": "United States",
    "longitude": -98.27635445,
    "latitude": 30.57127795,
    "phone": "8306935165",
    "website_url": "http://www.doublehornbrewing.com",
    "state": "Texas",
    "street": "208 Avenue H"
  },
  {
    "id": "128d2350-9a0a-4f2e-b327-887af1cc2f7d",
    "name": "Double Mountain Brewery",
    "brewery_type": "micro",
    "address_1": "8 4th St Ste 204",
    "address_2": null,
    "address_3": null,
    "city": "Hood River",
    "state_province": "Oregon",
    "postal_code": "97031-2123",
    "country": "United States",
    "longitude": -121.5145087,
    "latitude": 45.71003675,
    "phone": "5413870042",
    "website_url": "http://www.doublemountainbrewery.com",
    "state": "Oregon",
    "street": "8 4th St Ste 204"
  },
  {
    "id": "ef9cbcd6-3087-44f1-add7-2e2ea086dc4c",
    "name": "Double Nickel Brewing Company",
    "brewery_type": "micro",
    "address_1": "1585 Route 73",
    "address_2": null,
    "address_3": null,
    "city": "Pennsauken",
    "state_province": "New Jersey",
    "postal_code": "08110-1330",
    "country": "United States",
    "longitude": null,
    "latitude": null,
    "phone": "8563562499",
    "website_url": "http://www.DNBCBEER.com",
    "state": "New Jersey",
    "street": "1585 Route 73"
  },
  {
    "id": "98ba45e2-9378-4b2b-8e58-82b651e99d5e",
    "name": "Double Shift Brewing",
    "brewery_type": "micro",
    "address_1": "412 E 18th St",
    "address_2": null,
    "address_3": null,
    "city": "Kansas City",
    "state_province": "Missouri",
    "postal_code": "64108-1410",
    "country": "United States",
    "longitude": -94.57868373,
    "latitude": 39.09170494,
    "phone": "8163047028",
    "website_url": "http://www.doubleshiftbrewing.com",
    "state": "Missouri",
    "street": "412 E 18th St"
  },
  {
    "id": "1fd31bf5-ffde-495e-8bdc-cc4666cd7cb5",
    "name": "Double Wing Brewing Co",
    "brewery_type": "brewpub",
    "address_1": "7840 Doty Rd",
    "address_2": null,
    "address_3": null,
    "city": "Madison",
    "state_province": "Ohio",
    "postal_code": "44057-9511",
    "country": "United States",
    "longitude": -81.00537902,
    "latitude": 41.74037309,
    "phone": "4404663485",
    "website_url": "http://www.ratbrew.com",
    "state": "Ohio",
    "street": "7840 Doty Rd"
  },
  {
    "id": "c71cd9d0-be0f-4528-8d21-9f89957372f9",
    "name": "Dovetail Brewery",
    "brewery_type": "micro",
    "address_1": "1800 W Belle Plaine Ave",
    "address_2": null,
    "address_3": null,
    "city": "Chicago",
    "state_province": "Illinois",
    "postal_code": "60613-1827",
    "country": "United States",
    "longitude": -87.6743858,
    "latitude": 41.9561589,
    "phone": null,
    "website_url": "http://www.dovetailbrewery.com",
    "state": "Illinois",
    "street": "1800 W Belle Plaine Ave"
  },
  {
    "id": "e1e4d221-608a-4a65-9a55-4f142ffb57d8",
    "name": "Down the Road Brewery",
    "brewery_type": "micro",
    "address_1": "199 Ashland Street",
    "address_2": null,
    "address_3": null,
    "city": "Everett",
    "state_province": "Massachusetts",
    "postal_code": "02149",
    "country": "United States",
    "longitude": -71.061481,
    "latitude": 42.397645,
    "phone": "6174544255",
    "website_url": "http://www.downtheroadbrewery.com",
    "state": "Massachusetts",
    "street": "199 Ashland Street"
  },
  {
    "id": "ffcc9d52-9de7-41a6-956c-36875ca71dca",
    "name": "Downdraft Brewing Co",
    "brewery_type": "closed",
    "address_1": "418 W Seltice Way",
    "address_2": null,
    "address_3": null,
    "city": "Post Falls",
    "state_province": "Idaho",
    "postal_code": "83854-",
    "country": "United States",
    "longitude": -116.9573256,
    "latitude": 47.715079,
    "phone": "2082624233",
    "website_url": "http://www.downdraftbrewing.com",
    "state": "Idaho",
    "street": "418 W Seltice Way"
  },
  {
    "id": "51421b18-93e4-4d09-b694-388dcb5df2fe",
    "name": "Downey Brewing Company",
    "brewery_type": "micro",
    "address_1": "13121 Prospect St",
    "address_2": null,
    "address_3": null,
    "city": "Dearborn",
    "state_province": "Michigan",
    "postal_code": "48126-3603",
    "country": "United States",
    "longitude": -83.17350725,
    "latitude": 42.31625295,
    "phone": "3132888442",
    "website_url": "http://www.downeybrewingcompany.com",
    "state": "Michigan",
    "street": "13121 Prospect St"
  },
  {
    "id": "817d2caa-c087-4b68-abea-6b7b797d17f8",
    "name": "Downhill Brewing",
    "brewery_type": "micro",
    "address_1": "18921 Plaza Dr Ste 104",
    "address_2": null,
    "address_3": null,
    "city": "Parker",
    "state_province": "Colorado",
    "postal_code": "80134-9679",
    "country": "United States",
    "longitude": -104.7702488,
    "latitude": 39.52707,
    "phone": "3038052739",
    "website_url": "https://www.downhillbrews.com/",
    "state": "Colorado",
    "street": "18921 Plaza Dr Ste 104"
  },
  {
    "id": "20b38dd1-4c83-4b4f-83c5-299fd1258ffe",
    "name": "Downhill Brewing - Greenwood Village",
    "brewery_type": "micro",
    "address_1": "9672 E Arapahoe Rd",
    "address_2": null,
    "address_3": null,
    "city": "Greenwood Village",
    "state_province": "Colorado",
    "postal_code": "80112",
    "country": "United States",
    "longitude": -104.8770221,
    "latitude": 39.5947103,
    "phone": "7205084210",
    "website_url": "https://www.downhillbrews.com/",
    "state": "Colorado",
    "street": "9672 E Arapahoe Rd"
  },
  {
    "id": "ae2d14fa-3144-4a8d-8161-c2c3febc01bd",
    "name": "Downpour Brewing LLC",
    "brewery_type": "micro",
    "address_1": "10991 NE State Highway 104",
    "address_2": null,
    "address_3": null,
    "city": "Kingston",
    "state_province": "Washington",
    "postal_code": "98346-",
    "country": "United States",
    "longitude": -122.5001587,
    "latitude": 47.8010831,
    "phone": "3608810452",
    "website_url": "http://www.downpourbrewing.com",
    "state": "Washington",
    "street": "10991 NE State Highway 104"
  },
  {
    "id": "42114875-dc49-4158-b524-f130768441c8",
    "name": "Downtown Grill & Brewery / Woodruff Brewing",
    "brewery_type": "brewpub",
    "address_1": "424 S Gay St",
    "address_2": null,
    "address_3": null,
    "city": "Knoxville",
    "state_province": "Tennessee",
    "postal_code": "37902-1103",
    "country": "United States",
    "longitude": -83.9186686,
    "latitude": 35.96606301,
    "phone": "8656338111",
    "website_url": "http://www.downtownbrewery.com",
    "state": "Tennessee",
    "street": "424 S Gay St"
  },
  {
    "id": "e7857d07-0058-48f8-b064-e76029c6ee6e",
    "name": "Downtown Joes Brewery and Restaurant",
    "brewery_type": "brewpub",
    "address_1": "902 Main St",
    "address_2": null,
    "address_3": null,
    "city": "Napa",
    "state_province": "California",
    "postal_code": "94559-3045",
    "country": "United States",
    "longitude": -122.2848936,
    "latitude": 38.29865653,
    "phone": "7072582337",
    "website_url": "http://www.downtownjoes.com",
    "state": "California",
    "street": "902 Main St"
  },
  {
    "id": "6b607ba6-859a-4a16-a51f-c0f55f4a98f8",
    "name": "Doylestown Brewing Co",
    "brewery_type": "proprietor",
    "address_1": "52 East State St.",
    "address_2": null,
    "address_3": null,
    "city": "Doylestown",
    "state_province": "Pennsylvania",
    "postal_code": "18901",
    "country": "United States",
    "longitude": -75.1291116,
    "latitude": 40.31027305,
    "phone": "2153401414",
    "website_url": null,
    "state": "Pennsylvania",
    "street": "52 East State St."
  },
  {
    "id": "fe0fd454-10bb-437c-912c-3fd5d416e7db",
    "name": "Dr Hops Kombucha Beer",
    "brewery_type": "planning",
    "address_1": null,
    "address_2": null,
    "address_3": null,
    "city": "San Leandro",
    "state_province": "California",
    "postal_code": "94577-1263",
    "country": "United States",
    "longitude": -122.1560768,
    "latitude": 37.7249296,
    "phone": "3109168090",
    "website_url": "http://www.DrhopsKombuchaBeer.com",
    "state": "California",
    "street": null
  },
  {
    "id": "a776c995-076a-4562-8434-467f01f3818a",
    "name": "Dr Jekyll's Craft Beer",
    "brewery_type": "contract",
    "address_1": "825 Cambridge Ct",
    "address_2": null,
    "address_3": null,
    "city": "Pasadena",
    "state_province": "California",
    "postal_code": "91107-1977",
    "country": "United States",
    "longitude": -118.0798642,
    "latitude": 34.16059077,
    "phone": "3102738339",
    "website_url": "http://www.drjekylls.com",
    "state": "California",
    "street": "825 Cambridge Ct"
  },
  {
    "id": "85478ddc-a830-43e5-beeb-66cead1a99c4",
    "name": "Drafting Table Brewing Company",
    "brewery_type": "micro",
    "address_1": "49438 Pontiac Trl",
    "address_2": null,
    "address_3": null,
    "city": "Wixom",
    "state_province": "Michigan",
    "postal_code": "48393-2005",
    "country": "United States",
    "longitude": -83.53663792,
    "latitude": 42.52440117,
    "phone": "2489567279",
    "website_url": "http://www.draftingtablebeer.com",
    "state": "Michigan",
    "street": "49438 Pontiac Trl"
  },
  {
    "id": "a9a0f855-a16c-4ee8-a0a2-8e9c0552b985",
    "name": "Dragon Hops Brewing",
    "brewery_type": "micro",
    "address_1": "130 E Main St",
    "address_2": null,
    "address_3": null,
    "city": "Purcellville",
    "state_province": "Virginia",
    "postal_code": "20132-3162",
    "country": "United States",
    "longitude": -77.69298485,
    "latitude": 39.1360524,
    "phone": "5404413279",
    "website_url": "http://www.dragonhopsbrewing.com",
    "state": "Virginia",
    "street": "130 E Main St"
  },
  {
    "id": "9429d00b-cdaf-46a0-8073-362cc90aad08",
    "name": "Dragon Run Brewing",
    "brewery_type": "planning",
    "address_1": null,
    "address_2": null,
    "address_3": null,
    "city": "Manquin",
    "state_province": "Virginia",
    "postal_code": "23106",
    "country": "United States",
    "longitude": null,
    "latitude": null,
    "phone": "8043800730",
    "website_url": "http://www.dragonrunbrewing.com",
    "state": "Virginia",
    "street": null
  },
  {
    "id": "52c41ba0-3c69-4e41-b028-d9d4c3035249",
    "name": "Dragon's Gate Brewery",
    "brewery_type": "micro",
    "address_1": "52288 Sunquist Rd",
    "address_2": null,
    "address_3": null,
    "city": "Milton Freewater",
    "state_province": "Oregon",
    "postal_code": "97862-6856",
    "country": "United States",
    "longitude": -118.4439713,
    "latitude": 45.98541686,
    "phone": "5412152622",
    "website_url": "http://www.dragonsgatebrewery.com",
    "state": "Oregon",
    "street": "52288 Sunquist Rd"
  },
  {
    "id": "8ace7ff0-245c-4133-862c-2ca4eb3b7a65",
    "name": "Dragon's Tale Brewery",
    "brewery_type": "micro",
    "address_1": "8920 Vernon Ave Ste 122",
    "address_2": null,
    "address_3": null,
    "city": "Montclair",
    "state_province": "California",
    "postal_code": "91763-1662",
    "country": "United States",
    "longitude": -117.686437,
    "latitude": 34.09189898,
    "phone": "9095292688",
    "website_url": "http://www.dragonstalebrewery.com",
    "state": "California",
    "street": "8920 Vernon Ave Ste 122"
  },
  {
    "id": "f10850c4-f516-4ecd-9b8c-3fc20f134187",
    "name": "Dragonmead Microbrewery",
    "brewery_type": "micro",
    "address_1": "14600 E 11 Mile Rd",
    "address_2": null,
    "address_3": null,
    "city": "Warren",
    "state_province": "Michigan",
    "postal_code": "48089-1556",
    "country": "United States",
    "longitude": -83.0278041,
    "latitude": 42.492142,
    "phone": "5867769428",
    "website_url": null,
    "state": "Michigan",
    "street": "14600 E 11 Mile Rd"
  },
  {
    "id": "71eb91ae-4d50-4f01-840c-7552df4d96bd",
    "name": "Dragoon Brewing Co",
    "brewery_type": "micro",
    "address_1": "1859 W Grant Rd Ste 111",
    "address_2": null,
    "address_3": null,
    "city": "Tucson",
    "state_province": "Arizona",
    "postal_code": "85745-1214",
    "country": "United States",
    "longitude": -111.0054521,
    "latitude": 32.25049461,
    "phone": "5203293606",
    "website_url": "http://www.dragoonbrewing.com",
    "state": "Arizona",
    "street": "1859 W Grant Rd Ste 111"
  },
  {
    "id": "8f19cd9b-a675-473d-8493-42fd6b12c38e",
    "name": "Drake's Brewing Co.",
    "brewery_type": "regional",
    "address_1": "1933 Davis St Ste 177",
    "address_2": null,
    "address_3": null,
    "city": "San Leandro",
    "state_province": "California",
    "postal_code": "94577-1256",
    "country": "United States",
    "longitude": -122.1791401,
    "latitude": 37.71493644,
    "phone": "5105682739",
    "website_url": "http://www.drinkdrakes.com",
    "state": "California",
    "street": "1933 Davis St Ste 177"
  },
  {
    "id": "0fde773c-3201-4be7-b3ba-caf278efa4d3",
    "name": "Draper Brewing",
    "brewery_type": "micro",
    "address_1": "640 SE Jackson St",
    "address_2": null,
    "address_3": null,
    "city": "Roseburg",
    "state_province": "Oregon",
    "postal_code": "97470",
    "country": "United States",
    "longitude": -123.3445979,
    "latitude": 43.2084738,
    "phone": "5415805585",
    "website_url": "http://www.draperbrewing.com",
    "state": "Oregon",
    "street": "640 SE Jackson St"
  },
  {
    "id": "7b2f69d5-fc55-4ff2-9df1-b53ace7bc173",
    "name": "Dratz Brewing Company",
    "brewery_type": "planning",
    "address_1": null,
    "address_2": null,
    "address_3": null,
    "city": "Loveland",
    "state_province": "Colorado",
    "postal_code": "80537",
    "country": "United States",
    "longitude": null,
    "latitude": null,
    "phone": "9705660036",
    "website_url": "http://www.dratzbrewing.com",
    "state": "Colorado",
    "street": null
  },
  {
    "id": "b70bb5a2-bcc5-43c5-8370-58d292c4625d",
    "name": "Draught Horse Brewery",
    "brewery_type": "brewpub",
    "address_1": "57721 Grand River Ave",
    "address_2": null,
    "address_3": null,
    "city": "New Hudson",
    "state_province": "Michigan",
    "postal_code": "48165-8542",
    "country": "United States",
    "longitude": -83.61459,
    "latitude": 42.5113546,
    "phone": "2486173000",
    "website_url": "http://www.draughthorsebrewery.com",
    "state": "Michigan",
    "street": "57721 Grand River Ave"
  },
  {
    "id": "9e3d79b0-5411-425d-9ead-e86abeb58c98",
    "name": "Draught House Pub and Brewery",
    "brewery_type": "micro",
    "address_1": "4112 Medical Pkwy Ste 100",
    "address_2": null,
    "address_3": null,
    "city": "Austin",
    "state_province": "Texas",
    "postal_code": "78756-3715",
    "country": "United States",
    "longitude": -97.7428611,
    "latitude": 30.3110713,
    "phone": "5124526258",
    "website_url": "http://www.draughthouse.com",
    "state": "Texas",
    "street": "4112 Medical Pkwy Ste 100"
  },
  {
    "id": "07ee729a-9c76-4092-9b11-4cc951eb3baf",
    "name": "Draught Works Brewing",
    "brewery_type": "micro",
    "address_1": "915 Toole Ave",
    "address_2": null,
    "address_3": null,
    "city": "Missoula",
    "state_province": "Montana",
    "postal_code": "59802-2625",
    "country": "United States",
    "longitude": -114.0044493,
    "latitude": 46.8782576,
    "phone": "4062412423",
    "website_url": "http://www.draughtworksbrewery.com",
    "state": "Montana",
    "street": "915 Toole Ave"
  },
  {
    "id": "f6f59f19-f861-42de-9367-023645506733",
    "name": "Draughtsman Brewery",
    "brewery_type": "planning",
    "address_1": null,
    "address_2": null,
    "address_3": null,
    "city": "La Mirada",
    "state_province": "California",
    "postal_code": "90638-3454",
    "country": "United States",
    "longitude": -118.0107092,
    "latitude": 33.9060971,
    "phone": null,
    "website_url": null,
    "state": "California",
    "street": null
  },
  {
    "id": "063dc603-aa8f-412d-9c8a-ac7c598c043a",
    "name": "Draughtsmen Aleworks",
    "brewery_type": "micro",
    "address_1": "53 Santa Felicia Dr",
    "address_2": null,
    "address_3": null,
    "city": "Goleta",
    "state_province": "California",
    "postal_code": "93117-2804",
    "country": "United States",
    "longitude": -119.8759909,
    "latitude": 34.43146172,
    "phone": "8053872577",
    "website_url": "http://www.draughtsmenaleworks.com",
    "state": "California",
    "street": "53 Santa Felicia Dr"
  },
  {
    "id": "0e7be133-1cb4-4c39-848c-2014ee5b359b",
    "name": "Dreadnought Brewing LLC",
    "brewery_type": "brewpub",
    "address_1": "16726 146th St SE Ste 153",
    "address_2": null,
    "address_3": null,
    "city": "Monroe",
    "state_province": "Washington",
    "postal_code": "98272-2937",
    "country": "United States",
    "longitude": -122.0062527,
    "latitude": 47.86470473,
    "phone": "3608632479",
    "website_url": "http://www.dreadnoughtbrewing.com",
    "state": "Washington",
    "street": "16726 146th St SE Ste 153"
  },
  {
    "id": "fcc44f51-2c5c-4baa-9c37-5996a01b5512",
    "name": "Dreaming Creek Brewery",
    "brewery_type": "micro",
    "address_1": "109 E Irvine St",
    "address_2": null,
    "address_3": null,
    "city": "Richmond",
    "state_province": "Kentucky",
    "postal_code": "40475-1521",
    "country": "United States",
    "longitude": -84.29111565,
    "latitude": 37.747285,
    "phone": null,
    "website_url": "http://www.dreamingcreekbrewery.beer",
    "state": "Kentucky",
    "street": "109 E Irvine St"
  },
  {
    "id": "350f58c9-f1e6-4668-bf55-15dc557ec94c",
    "name": "Dreaming Dog Brewery",
    "brewery_type": "micro",
    "address_1": "2501 W Taron Ct",
    "address_2": null,
    "address_3": null,
    "city": "Elk Grove",
    "state_province": "California",
    "postal_code": "95757-8423",
    "country": "United States",
    "longitude": -121.4809068,
    "latitude": 38.40805044,
    "phone": null,
    "website_url": null,
    "state": "California",
    "street": "2501 W Taron Ct"
  },
  {
    "id": "3799434f-4c20-4d7b-9085-6c83db87c1c7",
    "name": "Drekker Brewing Company",
    "brewery_type": "micro",
    "address_1": "1666 1st Ave N",
    "address_2": null,
    "address_3": null,
    "city": "Fargo",
    "state_province": "North Dakota",
    "postal_code": "58102-4246",
    "country": "United States",
    "longitude": -96.80829701,
    "latitude": 46.87930301,
    "phone": "7015320506",
    "website_url": "http://www.drekkerbrewing.com",
    "state": "North Dakota",
    "street": "1666 1st Ave N"
  }
]