[
  {
    "id": "608d1bd1-4164-484d-851a-8b83f958a211",
    "name": "Stevens Point Brewery",
    "brewery_type": "regional",
    "address_1": "2617 Water St",
    "address_2": null,
    "address_3": null,
    "city": "Stevens Point",
    "state_province": "Wisconsin",
    "postal_code": "54481-5248",
    "country": "United States",
    "longitude": -89.57398078,
    "latitude": 44.51026271,
    "phone": "7153449310",
    "website_url": "http://www.pointbeer.com",
    "state": "Wisconsin",
    "street": "2617 Water St"
  },
  {
    "id": "2c73a4ad-8953-4e91-8d3c-bf9f1cb2d807",
    "name": "Stewart's Brewing Co",
    "brewery_type": "brewpub",
    "address_1": "219 Governors Pl",
    "address_2": null,
    "address_3": null,
    "city": "Bear",
    "state_province": "Delaware",
    "postal_code": "19701-3026",
    "country": "United States",
    "longitude": null,
    "latitude": null,
    "phone": "3028362739",
    "website_url": "http://www.stewartsbrewingcompany.com",
    "state": "Delaware",
    "street": "219 Governors Pl"
  },
  {
    "id": "5d48eb13-35d2-4724-be47-4095fd49426a",
    "name": "Stewbum",
    "brewery_type": "brewpub",
    "address_1": "96 N King St",
    "address_2": null,
    "address_3": null,
    "city": "Honolulu",
    "state_province": "Hawaii",
    "postal_code": "96817-5109",
    "country": "United States",
    "longitude": -157.8634762,
    "latitude": 21.31171513,
    "phone": "8086646684",
    "website_url": "http://www.stewbumandstonewall.com",
    "state": "Hawaii",
    "street": "96 N King St"
  },
  {
    "id": "180b2f4c-3d94-4ca2-af1f-709f0df12923",
    "name": "Stick City Brewing Company",
    "brewery_type": "micro",
    "address_1": "109 Irvine ST",
    "address_2": null,
    "address_3": null,
    "city": "Mars",
    "state_province": "Pennsylvania",
    "postal_code": "16046-0372",
    "country": "United States",
    "longitude": -80.0095235,
    "latitude": 40.69553485,
    "phone": "7247897849",
    "website_url": "http://www.stickcitybeer.com",
    "state": "Pennsylvania",
    "street": "109 Irvine ST"
  },
  {
    "id": "7287c68d-4f90-4fd7-b695-2410de8a3781",
    "name": "Stickman Brews",
    "brewery_type": "micro",
    "address_1": "326 N Lewis Rd # 240",
    "address_2": null,
    "address_3": null,
    "city": "Royersford",
    "state_province": "Pennsylvania",
    "postal_code": "19468-1509",
    "country": "United States",
    "longitude": -75.53755464,
    "latitude": 40.2000606,
    "phone": "4849385900",
    "website_url": "http://www.stickmanbrews.com",
    "state": "Pennsylvania",
    "street": "326 N Lewis Rd # 240"
  },
  {
    "id": "d4ccc2fc-b6a8-4a24-bb52-eb9ecea3aaa4",
    "name": "Stickmen Brewery",
    "brewery_type": "brewpub",
    "address_1": "40 N State St",
    "address_2": null,
    "address_3": null,
    "city": "Lake Oswego",
    "state_province": "Oregon",
    "postal_code": "97034-3926",
    "country": "United States",
    "longitude": -122.6638277,
    "latitude": 45.4161533,
    "phone": null,
    "website_url": null,
    "state": "Oregon",
    "street": "40 N State St"
  },
  {
    "id": "155593b0-c256-4173-9a2d-d35903aa3a4e",
    "name": "Stiegl",
    "brewery_type": "large",
    "address_1": "Stieglbrauerei Kendlerstra\u00dfe 1",
    "address_2": null,
    "address_3": null,
    "city": "Salzburg",
    "state_province": "Salzburg",
    "postal_code": "5017",
    "country": "Austria",
    "longitude": 13.020265412406,
    "latitude": 47.794121248111,
    "phone": "+435014920",
    "website_url": "https://www.stiegl.at",
    "state": "Salzburg",
    "street": "Stieglbrauerei Kendlerstra\u00dfe 1"
  },
  {
    "id": "9a678cf5-99b6-4877-bf49-d5b7bc268386",
    "name": "Stiggs Brewery & Kitchen",
    "brewery_type": "brewpub",
    "address_1": "112 S Park St",
    "address_2": null,
    "address_3": null,
    "city": "Boyne City",
    "state_province": "Michigan",
    "postal_code": "49712-1251",
    "country": "United States",
    "longitude": null,
    "latitude": null,
    "phone": "2314976100",
    "website_url": "http://www.stiggsbrewingcompany.com",
    "state": "Michigan",
    "street": "112 S Park St"
  },
  {
    "id": "dda7d07a-9bae-4183-9291-506712c78750",
    "name": "Still HIll Brewery LLC",
    "brewery_type": "micro",
    "address_1": "1275 Cromwell Ave Ste C8 Unit 9",
    "address_2": null,
    "address_3": null,
    "city": "Rocky Hill",
    "state_province": "Connecticut",
    "postal_code": "06067-3430",
    "country": "United States",
    "longitude": null,
    "latitude": null,
    "phone": "8604366368",
    "website_url": "http://www.stillhillbrewery.com",
    "state": "Connecticut",
    "street": "1275 Cromwell Ave Ste C8 Unit 9"
  },
  {
    "id": "51406172-17ff-49ec-a1ec-218756528dd4",
    "name": "Still River Brewery",
    "brewery_type": "micro",
    "address_1": "121 Clinton Shore Dr.",
    "address_2": null,
    "address_3": null,
    "city": "Still River",
    "state_province": "Massachusetts",
    "postal_code": "01467-0157",
    "country": "United States",
    "longitude": null,
    "latitude": null,
    "phone": null,
    "website_url": null,
    "state": "Massachusetts",
    "street": "121 Clinton Shore Dr."
  },
  {
    "id": "a8a67e73-3473-4323-88c3-ab3ca4ed5f32",
    "name": "Stillmank Brewing Company",
    "brewery_type": "micro",
    "address_1": "215 N Henry St",
    "address_2": null,
    "address_3": null,
    "city": "Green Bay",
    "state_province": "Wisconsin",
    "postal_code": "54302-2613",
    "country": "United States",
    "longitude": -87.97838833,
    "latitude": 44.5044596,
    "phone": "9207852337",
    "website_url": "http://www.stillmankbrewery.com",
    "state": "Wisconsin",
    "street": "215 N Henry St"
  },
  {
    "id": "47b9435c-a74e-47ed-887d-6c0830648d6d",
    "name": "Stillwater Artisanal Ales",
    "brewery_type": "contract",
    "address_1": "720 S Conkling St",
    "address_2": null,
    "address_3": null,
    "city": "Baltimore",
    "state_province": "Maryland",
    "postal_code": "21224-4301",
    "country": "United States",
    "longitude": -76.56726435,
    "latitude": 39.28408355,
    "phone": "4436685255",
    "website_url": null,
    "state": "Maryland",
    "street": "720 S Conkling St"
  },
  {
    "id": "94a2e9ac-ed3d-406c-8686-b5faa0de915b",
    "name": "StillWest Brewery & Grill",
    "brewery_type": "brewpub",
    "address_1": "45 E Snow King Ave",
    "address_2": null,
    "address_3": null,
    "city": "Jackson",
    "state_province": "Wyoming",
    "postal_code": "83001-8668",
    "country": "United States",
    "longitude": -110.7614496134,
    "latitude": 43.473609412413,
    "phone": "3072015955",
    "website_url": "https://www.stillwestbreweryandgrill.com",
    "state": "Wyoming",
    "street": "45 E Snow King Ave"
  },
  {
    "id": "08279a5f-e91d-4233-aa86-b79c58f45644",
    "name": "Stilt House Brewery",
    "brewery_type": "micro",
    "address_1": "625 US 19 Alt",
    "address_2": null,
    "address_3": null,
    "city": "Palm Harbor",
    "state_province": "Florida",
    "postal_code": "34683",
    "country": "United States",
    "longitude": null,
    "latitude": null,
    "phone": "8138911693",
    "website_url": "http://www.stilthousebrewery.com",
    "state": "Florida",
    "street": "625 US 19 Alt"
  },
  {
    "id": "fb72269a-fe00-40ad-989e-a4878bd4bc1c",
    "name": "Stitch House Brewery",
    "brewery_type": "brewpub",
    "address_1": "829 North Market Street",
    "address_2": null,
    "address_3": null,
    "city": "Wilmington",
    "state_province": "Delaware",
    "postal_code": "19801",
    "country": "United States",
    "longitude": -75.54908716,
    "latitude": 39.7438473,
    "phone": "3022504280",
    "website_url": "http://www.stitchhousebrewery.com",
    "state": "Delaware",
    "street": "829 North Market Street"
  },
  {
    "id": "e44f1b26-d801-452b-a1f0-fddaf35f3948",
    "name": "Stockholms Vardshus",
    "brewery_type": "brewpub",
    "address_1": "306 W State St",
    "address_2": null,
    "address_3": null,
    "city": "Geneva",
    "state_province": "Illinois",
    "postal_code": "60134-2103",
    "country": "United States",
    "longitude": -88.30735303,
    "latitude": 41.88776869,
    "phone": "6302081400",
    "website_url": "http://www.stockholmsbrewpub.com",
    "state": "Illinois",
    "street": "306 W State St"
  },
  {
    "id": "b632b81c-fc78-4789-a37a-0e77d6c483f7",
    "name": "Stockyards Brewing Company",
    "brewery_type": "micro",
    "address_1": "1600 Genessee St Ste 100",
    "address_2": null,
    "address_3": null,
    "city": "Kansas City",
    "state_province": "Missouri",
    "postal_code": "64102-1044",
    "country": "United States",
    "longitude": -94.605113,
    "latitude": 39.094436,
    "phone": "8168958880",
    "website_url": "http://www.stockyardsbrewing.com",
    "state": "Missouri",
    "street": "1600 Genessee St Ste 100"
  },
  {
    "id": "5e44f9ac-ec1e-4143-a21e-b7af8c507e40",
    "name": "Stoic Brewing",
    "brewery_type": "contract",
    "address_1": "667 Robinett Rd",
    "address_2": null,
    "address_3": null,
    "city": "Waxahachie",
    "state_province": "Texas",
    "postal_code": "75165-6343",
    "country": "United States",
    "longitude": null,
    "latitude": null,
    "phone": "5128884843",
    "website_url": "http://stoicbrewing.com",
    "state": "Texas",
    "street": "667 Robinett Rd"
  },
  {
    "id": "5edf4546-8f83-48c9-8d15-52899b67a2b4",
    "name": "Stoik Beer Company",
    "brewery_type": "planning",
    "address_1": null,
    "address_2": null,
    "address_3": null,
    "city": "Delta",
    "state_province": "Colorado",
    "postal_code": "81416",
    "country": "United States",
    "longitude": null,
    "latitude": null,
    "phone": null,
    "website_url": "http://www.stoikbeer.com",
    "state": "Colorado",
    "street": null
  },
  {
    "id": "a93eb7a0-8cfe-4d36-9368-115a290c47c9",
    "name": "Stoker's Brewing Company",
    "brewery_type": "planning",
    "address_1": null,
    "address_2": null,
    "address_3": null,
    "city": "Tamaqua",
    "state_province": "Pennsylvania",
    "postal_code": "18252-1405",
    "country": "United States",
    "longitude": null,
    "latitude": null,
    "phone": null,
    "website_url": null,
    "state": "Pennsylvania",
    "street": null
  },
  {
    "id": "985764fc-a5cf-4634-8bf3-e89dde5e6531",
    "name": "Stone Barrel Brewing Company",
    "brewery_type": "regional",
    "address_1": "Bluebell Avenue",
    "address_2": "Bluebell Industrial Estate",
    "address_3": "Dublin 12",
    "city": "Dublin",
    "state_province": "Dublin",
    "postal_code": "D12 NPF9",
    "country": "Ireland",
    "longitude": -6.3506651,
    "latitude": 53.3308805,
    "phone": "353862381267",
    "website_url": "http://www.stonebarrelbrewing.ie/",
    "state": "Dublin",
    "street": "Bluebell Avenue"
  },
  {
    "id": "d955991a-9377-4f2c-baf3-b561a72bf895",
    "name": "Stone Brewing Co",
    "brewery_type": "regional",
    "address_1": "2120 Harmony Grove Rd",
    "address_2": null,
    "address_3": null,
    "city": "Escondido",
    "state_province": "California",
    "postal_code": "92029-2053",
    "country": "United States",
    "longitude": -117.11565,
    "latitude": 33.109969,
    "phone": "7602947866",
    "website_url": "http://www.stonebrewing.com",
    "state": "California",
    "street": "2120 Harmony Grove Rd"
  },
  {
    "id": "444ce3b3-4111-485a-9158-e54d61909650",
    "name": "Stone Brewing Co- Richmond",
    "brewery_type": "regional",
    "address_1": "4300 Williamsburg Ave",
    "address_2": null,
    "address_3": null,
    "city": "Richmond",
    "state_province": "Virginia",
    "postal_code": "23231-1225",
    "country": "United States",
    "longitude": -77.414763,
    "latitude": 37.5241103,
    "phone": "8044895902",
    "website_url": "http://www.stonebrewing.com/visit/outposts/richmond",
    "state": "Virginia",
    "street": "4300 Williamsburg Ave"
  },
  {
    "id": "273491b7-30e3-4ee4-ac6e-f1cfb9194b93",
    "name": "Stone Brewing Napa",
    "brewery_type": "closed",
    "address_1": "920-930 Third Street",
    "address_2": null,
    "address_3": null,
    "city": "Napa",
    "state_province": "California",
    "postal_code": "94559",
    "country": "United States",
    "longitude": -122.2829683,
    "latitude": 38.29896704,
    "phone": "7602947899",
    "website_url": null,
    "state": "California",
    "street": "920-930 Third Street"
  },
  {
    "id": "770c8d54-dcf1-456b-a864-84a4cf0071e1",
    "name": "Stone Brewing World Bistro & Gardens- Liberty Station",
    "brewery_type": "brewpub",
    "address_1": "2816 Historic Decatur Rd Ste 116",
    "address_2": null,
    "address_3": null,
    "city": "San Diego",
    "state_province": "California",
    "postal_code": "92106-6164",
    "country": "United States",
    "longitude": -117.21157,
    "latitude": 32.7405237,
    "phone": "6192692200",
    "website_url": "http://www.stonelibertystation.com",
    "state": "California",
    "street": "2816 Historic Decatur Rd Ste 116"
  },
  {
    "id": "73832571-cba1-4383-bd2d-d72ef2e0a053",
    "name": "Stone Cellar Brewpub / Stone Arch Brew House",
    "brewery_type": "brewpub",
    "address_1": "1004 S Olde Oneida St Uppr",
    "address_2": null,
    "address_3": null,
    "city": "Appleton",
    "state_province": "Wisconsin",
    "postal_code": "54915-1753",
    "country": "United States",
    "longitude": null,
    "latitude": null,
    "phone": "9207313322",
    "website_url": "http://www.stonecellarbrewpub.com",
    "state": "Wisconsin",
    "street": "1004 S Olde Oneida St Uppr"
  },
  {
    "id": "9916848b-15ac-44f9-90a5-81ad7b53fde5",
    "name": "Stone Church Brewing",
    "brewery_type": "micro",
    "address_1": "2785 Cabot Dr Ste 160",
    "address_2": null,
    "address_3": null,
    "city": "Corona",
    "state_province": "California",
    "postal_code": "92883-7388",
    "country": "United States",
    "longitude": -117.5046237,
    "latitude": 33.8131807,
    "phone": "3105676582",
    "website_url": "http://www.stonechurchbrewing.com",
    "state": "California",
    "street": "2785 Cabot Dr Ste 160"
  },
  {
    "id": "d2e1b8ab-b0e2-409a-9faa-9ca571815a02",
    "name": "Stone Church Pizza & Brewpub",
    "brewery_type": "brewpub",
    "address_1": "600 S Hermitage Rd",
    "address_2": null,
    "address_3": null,
    "city": "Hermitage",
    "state_province": "Pennsylvania",
    "postal_code": "16148-3629",
    "country": "United States",
    "longitude": -80.451969,
    "latitude": 41.225649,
    "phone": "7243087770",
    "website_url": "http://www.stonechurchbrewpub.com",
    "state": "Pennsylvania",
    "street": "600 S Hermitage Rd"
  },
  {
    "id": "b02a3dcf-6e21-4ae4-9c14-efdd618b42d6",
    "name": "Stone Corral Brewery",
    "brewery_type": "micro",
    "address_1": "83 Huntington Rd Unit 1",
    "address_2": null,
    "address_3": null,
    "city": "Richmond",
    "state_province": "Vermont",
    "postal_code": "05477-9839",
    "country": "United States",
    "longitude": null,
    "latitude": null,
    "phone": "8024345787",
    "website_url": "http://stonecorral.com",
    "state": "Vermont",
    "street": "83 Huntington Rd Unit 1"
  },
  {
    "id": "28e04f1d-11f9-4ea9-b67c-a155e8c88b81",
    "name": "Stone Cow Brewery",
    "brewery_type": "micro",
    "address_1": "500 West St (Route 122)",
    "address_2": null,
    "address_3": null,
    "city": "Barre",
    "state_province": "Massachusetts",
    "postal_code": "01005",
    "country": "United States",
    "longitude": null,
    "latitude": null,
    "phone": "4135526048",
    "website_url": null,
    "state": "Massachusetts",
    "street": "500 West St (Route 122)"
  },
  {
    "id": "e0a66be0-edf0-405e-b6cb-44dcff79fac5",
    "name": "Stone Hollow Brewing Company",
    "brewery_type": "micro",
    "address_1": "301 Court Street",
    "address_2": null,
    "address_3": null,
    "city": "Beatrice",
    "state_province": "Nebraska",
    "postal_code": "68310",
    "country": "United States",
    "longitude": -96.7506365,
    "latitude": 40.265751,
    "phone": "4028064664",
    "website_url": "https://www.stonehollowbrewing.com",
    "state": "Nebraska",
    "street": "301 Court Street"
  },
  {
    "id": "780e7ec6-7c19-46d4-90b4-875fc9cfa207",
    "name": "Stone's Throw Brewing",
    "brewery_type": "brewpub",
    "address_1": "402 E 9th St",
    "address_2": null,
    "address_3": null,
    "city": "Little Rock",
    "state_province": "Arkansas",
    "postal_code": "72202-3914",
    "country": "United States",
    "longitude": -92.26806633,
    "latitude": 34.7397885,
    "phone": "5012449154",
    "website_url": "http://www.stonesthrowbeer.com",
    "state": "Arkansas",
    "street": "402 E 9th St"
  },
  {
    "id": "84278f35-1caf-4c58-8446-4f6af8a17661",
    "name": "Stonecloud Brewing Co.",
    "brewery_type": "micro",
    "address_1": "1012 NW 1st St Ste 101",
    "address_2": null,
    "address_3": null,
    "city": "Oklahoma City",
    "state_province": "Oklahoma",
    "postal_code": "73106-7642",
    "country": "United States",
    "longitude": -97.529142,
    "latitude": 35.468613,
    "phone": "4056023966",
    "website_url": "http://stonecloudbrewing.com",
    "state": "Oklahoma",
    "street": "1012 NW 1st St Ste 101"
  },
  {
    "id": "06fd21ca-1d18-4d79-a8ab-407d74c55cb7",
    "name": "Stoneface Brewing Co",
    "brewery_type": "micro",
    "address_1": "436 Shattuck Way Ste 6",
    "address_2": null,
    "address_3": null,
    "city": "Newington",
    "state_province": "New Hampshire",
    "postal_code": "03801-7838",
    "country": "United States",
    "longitude": null,
    "latitude": null,
    "phone": null,
    "website_url": "http://www.stonefacebrewing.com",
    "state": "New Hampshire",
    "street": "436 Shattuck Way Ste 6"
  },
  {
    "id": "0330697d-08ce-4f09-948c-9928532c5755",
    "name": "Stonehome Brewing Company",
    "brewery_type": "brewpub",
    "address_1": "1601 N 12th St",
    "address_2": null,
    "address_3": null,
    "city": "Bismarck",
    "state_province": "North Dakota",
    "postal_code": "58501-2713",
    "country": "United States",
    "longitude": -100.773737,
    "latitude": 46.82365579,
    "phone": "7017511445",
    "website_url": "http://www.stonehomebrewing.com",
    "state": "North Dakota",
    "street": "1601 N 12th St"
  },
  {
    "id": "86b7e9cb-6267-4f6b-a5da-6293aae28ced",
    "name": "Stonehome Brewing Company",
    "brewery_type": "brewpub",
    "address_1": "313 Fox Hills Pkwy N",
    "address_2": null,
    "address_3": null,
    "city": "Watford City",
    "state_province": "North Dakota",
    "postal_code": "58854",
    "country": "United States",
    "longitude": -103.2580566,
    "latitude": 47.8821014,
    "phone": "7014442337",
    "website_url": "http://www.stonehomebrewing.com",
    "state": "North Dakota",
    "street": "313 Fox Hills Pkwy N"
  },
  {
    "id": "772310d2-06d3-42c6-b494-7622dc87b15d",
    "name": "Stoneman Brewery",
    "brewery_type": "micro",
    "address_1": "20 Stetson Bros Rd",
    "address_2": null,
    "address_3": null,
    "city": "Colrain",
    "state_province": "Massachusetts",
    "postal_code": "01340-9733",
    "country": "United States",
    "longitude": null,
    "latitude": null,
    "phone": "4136245195",
    "website_url": null,
    "state": "Massachusetts",
    "street": "20 Stetson Bros Rd"
  },
  {
    "id": "e4a8b737-6725-4ec2-b635-e43f8fcb1de4",
    "name": "Stones Throw Brewery",
    "brewery_type": "micro",
    "address_1": "1009 Larrabee Ave",
    "address_2": null,
    "address_3": null,
    "city": "Bellingham",
    "state_province": "Washington",
    "postal_code": "98225-7338",
    "country": "United States",
    "longitude": -122.497165,
    "latitude": 48.718516,
    "phone": "3603625058",
    "website_url": "http://www.stonesthrowbrewco.com",
    "state": "Washington",
    "street": "1009 Larrabee Ave"
  },
  {
    "id": "259107e5-6645-48b5-a986-80d207d43aa0",
    "name": "Stoney Acres Farm",
    "brewery_type": "brewpub",
    "address_1": "7002 Rangeline Rd",
    "address_2": null,
    "address_3": null,
    "city": "Athens",
    "state_province": "Wisconsin",
    "postal_code": "54411",
    "country": "United States",
    "longitude": null,
    "latitude": null,
    "phone": "7154326285",
    "website_url": "http://www.stoneyacresfarm.net",
    "state": "Wisconsin",
    "street": "7002 Rangeline Rd"
  },
  {
    "id": "58092f14-3cd5-47c0-8077-7f11c1ef9e96",
    "name": "Stoneyard Brewing Company",
    "brewery_type": "brewpub",
    "address_1": "48 Merchant St",
    "address_2": null,
    "address_3": null,
    "city": "Brockport",
    "state_province": "New York",
    "postal_code": "14420",
    "country": "United States",
    "longitude": null,
    "latitude": null,
    "phone": "5856373390",
    "website_url": "http://www.stoneyardbrewingcompany.com",
    "state": "New York",
    "street": "48 Merchant St"
  },
  {
    "id": "572461d6-ab19-4469-b9c8-937a98b37941",
    "name": "StoneyHead Brewing LLC",
    "brewery_type": "micro",
    "address_1": "5301 Longley Ln Ste 84C",
    "address_2": null,
    "address_3": null,
    "city": "Reno",
    "state_province": "Nevada",
    "postal_code": "89511-1873",
    "country": "United States",
    "longitude": null,
    "latitude": null,
    "phone": "7758292337",
    "website_url": "http://www.stoneyheadbrewing.com",
    "state": "Nevada",
    "street": "5301 Longley Ln Ste 84C"
  },
  {
    "id": "b1b259ea-a03c-4836-80eb-c222770dacf3",
    "name": "Stony Creek Brewery",
    "brewery_type": "regional",
    "address_1": "5 Indian Neck Ave",
    "address_2": null,
    "address_3": null,
    "city": "Branford",
    "state_province": "Connecticut",
    "postal_code": "06405-4615",
    "country": "United States",
    "longitude": -72.81330366,
    "latitude": 41.27475355,
    "phone": "2034334545",
    "website_url": "http://www.stonycreekbeer.com",
    "state": "Connecticut",
    "street": "5 Indian Neck Ave"
  },
  {
    "id": "667f8870-c7eb-4b5d-8d80-3fa37f7e1de7",
    "name": "Stony Creek Brewery At Foxwoods Resort Casino",
    "brewery_type": "closed",
    "address_1": null,
    "address_2": null,
    "address_3": null,
    "city": "Mashantucket",
    "state_province": "Connecticut",
    "postal_code": "06338-3830",
    "country": "United States",
    "longitude": null,
    "latitude": null,
    "phone": "8603123000",
    "website_url": null,
    "state": "Connecticut",
    "street": null
  },
  {
    "id": "2540a41e-870c-4298-b711-e9b1da63bc2d",
    "name": "Stony Lake Brewing Company",
    "brewery_type": "micro",
    "address_1": "447 E Michigan Ave",
    "address_2": null,
    "address_3": null,
    "city": "Saline",
    "state_province": "Michigan",
    "postal_code": "48176-1547",
    "country": "United States",
    "longitude": -83.7735354,
    "latitude": 42.17041729,
    "phone": "7343167919",
    "website_url": "http://www.stonylakebrewing.com",
    "state": "Michigan",
    "street": "447 E Michigan Ave"
  },
  {
    "id": "37181ee1-680d-41f3-811a-34b4abab22d4",
    "name": "Storm Peak Brewing Company",
    "brewery_type": "micro",
    "address_1": "1885 Elk River Plz Unit 4",
    "address_2": null,
    "address_3": null,
    "city": "Steamboat Springs",
    "state_province": "Colorado",
    "postal_code": "80487-5237",
    "country": "United States",
    "longitude": null,
    "latitude": null,
    "phone": "9708791999",
    "website_url": "http://www.stormpeakbrewing.com",
    "state": "Colorado",
    "street": "1885 Elk River Plz Unit 4"
  },
  {
    "id": "e39addf7-becb-4b3c-b5b2-e682bcb1b72f",
    "name": "StormBreaker Brewing",
    "brewery_type": "brewpub",
    "address_1": "832 N Beech St",
    "address_2": null,
    "address_3": null,
    "city": "Portland",
    "state_province": "Oregon",
    "postal_code": "97227-1215",
    "country": "United States",
    "longitude": -122.6751573,
    "latitude": 45.54943475,
    "phone": null,
    "website_url": null,
    "state": "Oregon",
    "street": "832 N Beech St"
  },
  {
    "id": "2f2fe265-6ef9-4a72-8aae-ca7cb81eb561",
    "name": "StormBreaker Brewing St. Johns",
    "brewery_type": "brewpub",
    "address_1": "8409 N Lombard St",
    "address_2": null,
    "address_3": null,
    "city": "Portland",
    "state_province": "Oregon",
    "postal_code": "97203",
    "country": "United States",
    "longitude": -122.753038,
    "latitude": 45.58988575,
    "phone": "9712551481",
    "website_url": "http://www.stormbreakerbrewing.com",
    "state": "Oregon",
    "street": "8409 N Lombard St"
  },
  {
    "id": "906c9e56-8260-4ea5-ade4-4d73e3dd7246",
    "name": "Stormcloud Brewing Company",
    "brewery_type": "brewpub",
    "address_1": "303 Main St",
    "address_2": null,
    "address_3": null,
    "city": "Frankfort",
    "state_province": "Michigan",
    "postal_code": "49635-9047",
    "country": "United States",
    "longitude": -86.24100175,
    "latitude": 44.63290605,
    "phone": "2316519080",
    "website_url": "http://www.stormcloudbrewing.com",
    "state": "Michigan",
    "street": "303 Main St"
  },
  {
    "id": "3ba0c759-64a6-4c73-8f41-d5d2317ce86d",
    "name": "Stormcloud Brewing Company Production Facility",
    "brewery_type": "micro",
    "address_1": "366 Parkview Ln",
    "address_2": null,
    "address_3": null,
    "city": "Frankfort",
    "state_province": "Michigan",
    "postal_code": "49635",
    "country": "United States",
    "longitude": -86.2218117,
    "latitude": 44.6373933,
    "phone": null,
    "website_url": null,
    "state": "Michigan",
    "street": "366 Parkview Ln"
  },
  {
    "id": "ceb125ad-7b11-4aed-8e34-db02e618d3ba",
    "name": "Stormy Mountain Brewing Company",
    "brewery_type": "brewpub",
    "address_1": "133 E Woodin Ave",
    "address_2": null,
    "address_3": null,
    "city": "Chelan",
    "state_province": "Washington",
    "postal_code": "98816-",
    "country": "United States",
    "longitude": -120.0177327,
    "latitude": 47.8401295,
    "phone": "5098885665",
    "website_url": "http://www.stormymountainbrewing.com",
    "state": "Washington",
    "street": "133 E Woodin Ave"
  }
]