[
  {
    "id": "d99076a4-18ea-4c9c-9d7d-0d3fdc0d0986",
    "name": "Helio Basin Brewing Company",
    "brewery_type": "brewpub",
    "address_1": "3935 E Thomas Rd",
    "address_2": null,
    "address_3": null,
    "city": "Phoenix",
    "state_province": "Arizona",
    "postal_code": "85018-7511",
    "country": "United States",
    "longitude": -112.0028173,
    "latitude": 33.4804619,
    "phone": "6023543525",
    "website_url": "http://www.heliobasinbrewing.com",
    "state": "Arizona",
    "street": "3935 E Thomas Rd"
  },
  {
    "id": "724ce045-3390-42f7-9362-efadedb5e524",
    "name": "Helix Brewing Co",
    "brewery_type": "micro",
    "address_1": "8101 Commercial St",
    "address_2": null,
    "address_3": null,
    "city": "La Mesa",
    "state_province": "California",
    "postal_code": "91942-2927",
    "country": "United States",
    "longitude": -117.023442,
    "latitude": 32.771907,
    "phone": "6197418447",
    "website_url": "http://www.drinkhelix.com",
    "state": "California",
    "street": "8101 Commercial St"
  },
  {
    "id": "78e2bb06-6b67-42c1-9b8e-9df4c67ac224",
    "name": "Hell 'n Blazes Brewing Company",
    "brewery_type": "micro",
    "address_1": "1002 E New Haven Ave",
    "address_2": null,
    "address_3": null,
    "city": "Melbourne",
    "state_province": "Florida",
    "postal_code": "32901-5437",
    "country": "United States",
    "longitude": -80.60455067,
    "latitude": 28.07835245,
    "phone": "3218214052",
    "website_url": "http://www.HellnBlazesBrewing.com",
    "state": "Florida",
    "street": "1002 E New Haven Ave"
  },
  {
    "id": "94082cc5-8049-40e5-990f-bb1173c26140",
    "name": "Hell or High Water Brewing",
    "brewery_type": "planning",
    "address_1": null,
    "address_2": null,
    "address_3": null,
    "city": "Leander",
    "state_province": "Texas",
    "postal_code": "78641-8882",
    "country": "United States",
    "longitude": null,
    "latitude": null,
    "phone": "5129636701",
    "website_url": null,
    "state": "Texas",
    "street": null
  },
  {
    "id": "84c2ff86-a12b-41a9-925b-69c21f182171",
    "name": "Hellbender Brewing Company",
    "brewery_type": "micro",
    "address_1": "5788 2nd St NE",
    "address_2": null,
    "address_3": null,
    "city": "Washington",
    "state_province": "District of Columbia",
    "postal_code": "20011-2524",
    "country": "United States",
    "longitude": -77.0053314,
    "latitude": 38.9603005,
    "phone": "2022301030",
    "website_url": "http://www.hellbenderbeer.com",
    "state": "District of Columbia",
    "street": "5788 2nd St NE"
  },
  {
    "id": "4b8dd29d-2300-4035-b29f-0b26c90fcb62",
    "name": "Hellbent Brewing Company",
    "brewery_type": "micro",
    "address_1": "13035 Lake City Way NE",
    "address_2": null,
    "address_3": null,
    "city": "Seattle",
    "state_province": "Washington",
    "postal_code": "98125-4428",
    "country": "United States",
    "longitude": -122.2931111,
    "latitude": 47.7238772,
    "phone": "2063613707",
    "website_url": "http://www.hellbentbrewingcompany.com",
    "state": "Washington",
    "street": "13035 Lake City Way NE"
  },
  {
    "id": "364f045b-2522-4153-a3d7-6edddd1a1e27",
    "name": "Helltown Brewing",
    "brewery_type": "micro",
    "address_1": "13 Henry C Frick St",
    "address_2": null,
    "address_3": null,
    "city": "Mount Pleasant",
    "state_province": "Pennsylvania",
    "postal_code": "15666-1343",
    "country": "United States",
    "longitude": null,
    "latitude": null,
    "phone": "7245424339",
    "website_url": "http://www.helltownbrewing.com",
    "state": "Pennsylvania",
    "street": "13 Henry C Frick St"
  },
  {
    "id": "11f16c8a-e029-4f1c-8535-d8c736df682c",
    "name": "Helm's Brewing Company, LLC",
    "brewery_type": "closed",
    "address_1": "5640 Kearny Mesa Rd Ste C",
    "address_2": null,
    "address_3": null,
    "city": "San Diego",
    "state_province": "California",
    "postal_code": "92111-1312",
    "country": "United States",
    "longitude": -117.1389741,
    "latitude": 32.8373435,
    "phone": "2092024308",
    "website_url": "http://www.helmsbrewingco.com",
    "state": "California",
    "street": "5640 Kearny Mesa Rd Ste C"
  },
  {
    "id": "50ee41cf-11e5-46df-959e-0bd25adfc780",
    "name": "Helmsman Alehouse - Newport Beach Brewing Co",
    "brewery_type": "micro",
    "address_1": "2920 Newport Blvd Frnt",
    "address_2": null,
    "address_3": null,
    "city": "Newport Beach",
    "state_province": "California",
    "postal_code": "92663-3758",
    "country": "United States",
    "longitude": -117.9297866,
    "latitude": 33.61461697,
    "phone": "9496758449",
    "website_url": "http://helmsmanalehouse.com/",
    "state": "California",
    "street": "2920 Newport Blvd Frnt"
  },
  {
    "id": "76e24e7f-4edc-4126-81d5-0cd7dc42fc80",
    "name": "Helton Brewing Company",
    "brewery_type": "brewpub",
    "address_1": "2144 E Indian School Rd",
    "address_2": null,
    "address_3": null,
    "city": "Phoenix",
    "state_province": "Arizona",
    "postal_code": "85016-6130",
    "country": "United States",
    "longitude": -111.9805956,
    "latitude": 33.4946865,
    "phone": null,
    "website_url": null,
    "state": "Arizona",
    "street": "2144 E Indian School Rd"
  },
  {
    "id": "3827ae14-9613-430b-93f9-1ac76593c88a",
    "name": "Hemisphere Brewing Co",
    "brewery_type": "micro",
    "address_1": "2015 Kristy Ln",
    "address_2": null,
    "address_3": null,
    "city": "Rockwall",
    "state_province": "Texas",
    "postal_code": "75032-6242",
    "country": "United States",
    "longitude": -96.44026588,
    "latitude": 32.91151877,
    "phone": "9727224535",
    "website_url": "http://www.hemispherebrewing.com",
    "state": "Texas",
    "street": "2015 Kristy Ln"
  },
  {
    "id": "f1427bfc-7f95-4c32-a70b-bf937b2cc9c4",
    "name": "Hemlock State Brewing Company",
    "brewery_type": "micro",
    "address_1": " 23601 56th Ave W Ste 400",
    "address_2": null,
    "address_3": null,
    "city": "Lake Forest Park",
    "state_province": "Washington",
    "postal_code": "98043",
    "country": "United States",
    "longitude": -122.3081169,
    "latitude": 47.78517681,
    "phone": "4259672062",
    "website_url": "http://www.hemlockstate.com",
    "state": "Washington",
    "street": " 23601 56th Ave W Ste 400"
  },
  {
    "id": "6f7ef002-6068-45c7-ad3a-4a4f5a142461",
    "name": "Henderson Brewing Company",
    "brewery_type": "planning",
    "address_1": null,
    "address_2": null,
    "address_3": null,
    "city": "Henderson",
    "state_province": "Kentucky",
    "postal_code": "42420-3226",
    "country": "United States",
    "longitude": null,
    "latitude": null,
    "phone": "2702004314",
    "website_url": null,
    "state": "Kentucky",
    "street": null
  },
  {
    "id": "3101c087-c2e9-4e5b-9f4b-f35bfba7c9e7",
    "name": "HenHouse Brewing",
    "brewery_type": "micro",
    "address_1": "322 Bellevue Ave # 2",
    "address_2": null,
    "address_3": null,
    "city": "Santa Rosa",
    "state_province": "California",
    "postal_code": "95407-7711",
    "country": "United States",
    "longitude": -122.7241302,
    "latitude": 38.4017722,
    "phone": null,
    "website_url": "http://www.henhousebrewing.com",
    "state": "California",
    "street": "322 Bellevue Ave # 2"
  },
  {
    "id": "459dfa34-fa3e-4d81-a95f-64c06b81b6d0",
    "name": "Henhouse Brewing Company Palace of Barrels",
    "brewery_type": "micro",
    "address_1": "1333 N McDowell Blvd Ste A",
    "address_2": null,
    "address_3": null,
    "city": "Petaluma",
    "state_province": "California",
    "postal_code": "94954",
    "country": "United States",
    "longitude": -122.6637245,
    "latitude": 38.27235235,
    "phone": null,
    "website_url": null,
    "state": "California",
    "street": "1333 N McDowell Blvd Ste A"
  },
  {
    "id": "efabcc36-ebba-44f1-82ad-5194fc55574e",
    "name": "Henniker Brewing Company, LLC",
    "brewery_type": "micro",
    "address_1": "129 Centervale Rd",
    "address_2": null,
    "address_3": null,
    "city": "Henniker",
    "state_province": "New Hampshire",
    "postal_code": "03242-3280",
    "country": "United States",
    "longitude": -71.7824433,
    "latitude": 43.17880862,
    "phone": "6034283579",
    "website_url": "http://www.hennikerbrewing.com",
    "state": "New Hampshire",
    "street": "129 Centervale Rd"
  },
  {
    "id": "9d1339aa-42b0-4e97-a074-bf4a9cf2a0d6",
    "name": "Henry And Fran Brewing",
    "brewery_type": "micro",
    "address_1": "185 Laurel St",
    "address_2": null,
    "address_3": null,
    "city": "West Boylston",
    "state_province": "Massachusetts",
    "postal_code": "01583-1535",
    "country": "United States",
    "longitude": -71.81026703,
    "latitude": 42.39166897,
    "phone": "4253273457",
    "website_url": null,
    "state": "Massachusetts",
    "street": "185 Laurel St"
  },
  {
    "id": "45e9c4aa-9927-4f36-ba98-68ef71e3b91f",
    "name": "Henson Brewing",
    "brewery_type": "micro",
    "address_1": null,
    "address_2": null,
    "address_3": null,
    "city": "Burbank",
    "state_province": "California",
    "postal_code": "91504",
    "country": "United States",
    "longitude": -118.3258554,
    "latitude": 34.1816482,
    "phone": null,
    "website_url": "http://www.facebook.com/HensonBrewing/",
    "state": "California",
    "street": null
  },
  {
    "id": "388c4362-24d8-493c-95c2-fc86d6ac2a1e",
    "name": "Hepworth & Company Brewing Ltd",
    "brewery_type": "micro",
    "address_1": "Stane Street",
    "address_2": null,
    "address_3": null,
    "city": "Pulborough",
    "state_province": "West Sussex",
    "postal_code": "RH20 1DJ",
    "country": "England",
    "longitude": -0.478064,
    "latitude": 50.989042,
    "phone": "1403269696",
    "website_url": "https://hepworthbrewery.co.uk/",
    "state": "West Sussex",
    "street": "Stane Street"
  },
  {
    "id": "b94bee85-f9e3-4ad0-95b5-d9d031e15f1a",
    "name": "Herbert B. Friendly Brewing",
    "brewery_type": "closed",
    "address_1": "527 Wells Ave S",
    "address_2": null,
    "address_3": null,
    "city": "Renton",
    "state_province": "Washington",
    "postal_code": "98057-2703",
    "country": "United States",
    "longitude": -122.205605,
    "latitude": 47.47609918,
    "phone": "4252434372",
    "website_url": "http://www.drinkhbf.com",
    "state": "Washington",
    "street": "527 Wells Ave S"
  },
  {
    "id": "294a7249-ef76-40dd-828a-67bcd3aea6b7",
    "name": "Here and Now Brewing Co",
    "brewery_type": "brewpub",
    "address_1": "645 Main St",
    "address_2": null,
    "address_3": null,
    "city": "Honesdale",
    "state_province": "Pennsylvania",
    "postal_code": "18431-1842",
    "country": "United States",
    "longitude": -75.25482301,
    "latitude": 41.5713476,
    "phone": "5702530700",
    "website_url": "http://hereandnowbrewing.com",
    "state": "Pennsylvania",
    "street": "645 Main St"
  },
  {
    "id": "35f260d2-ead8-45da-8f9a-136c9ebf62d1",
    "name": "Hereford and Hops Steakhouse and Brewpub",
    "brewery_type": "brewpub",
    "address_1": "624 Ludington St",
    "address_2": null,
    "address_3": null,
    "city": "Escanaba",
    "state_province": "Michigan",
    "postal_code": "49829-3844",
    "country": "United States",
    "longitude": -87.0564571,
    "latitude": 45.7458964,
    "phone": "9067891945",
    "website_url": "http://www.herefordandhops.com",
    "state": "Michigan",
    "street": "624 Ludington St"
  },
  {
    "id": "95d9f6f0-5004-484d-be88-e1f8585a8bcb",
    "name": "Heretic Brewing Company",
    "brewery_type": "micro",
    "address_1": "1052 Horizon Dr Ste B",
    "address_2": null,
    "address_3": null,
    "city": "Fairfield",
    "state_province": "California",
    "postal_code": "94533-1694",
    "country": "United States",
    "longitude": -122.0154691,
    "latitude": 38.27388917,
    "phone": "7073894573",
    "website_url": "http://www.hereticbrewing.com",
    "state": "California",
    "street": "1052 Horizon Dr Ste B"
  },
  {
    "id": "5dbebfaf-6adf-47b7-952a-54dd255dcc48",
    "name": "Heritage Brewing Co",
    "brewery_type": "micro",
    "address_1": "9436 Center Point Ln",
    "address_2": null,
    "address_3": null,
    "city": "Manassas",
    "state_province": "Virginia",
    "postal_code": "20110-1810",
    "country": "United States",
    "longitude": -77.48841476,
    "latitude": 38.75075083,
    "phone": "5712081355",
    "website_url": "http://www.heritagebrews.com",
    "state": "Virginia",
    "street": "9436 Center Point Ln"
  },
  {
    "id": "0019a864-4e70-479e-b140-29eaba1aff40",
    "name": "Herkimer Pub and Brewery",
    "brewery_type": "brewpub",
    "address_1": "2922 Lyndale Ave S",
    "address_2": null,
    "address_3": null,
    "city": "Minneapolis",
    "state_province": "Minnesota",
    "postal_code": "55408-2110",
    "country": "United States",
    "longitude": -93.2883778,
    "latitude": 44.9492064,
    "phone": "6128210101",
    "website_url": "http://www.theherkimer.com",
    "state": "Minnesota",
    "street": "2922 Lyndale Ave S"
  },
  {
    "id": "289406b7-ca99-414d-ab35-231f65c00c04",
    "name": "Hermiston Brewing Co",
    "brewery_type": "brewpub",
    "address_1": "125 N 1st St",
    "address_2": null,
    "address_3": null,
    "city": "Hermiston",
    "state_province": "Oregon",
    "postal_code": "97838-1850",
    "country": "United States",
    "longitude": -119.2905935,
    "latitude": 45.8409084,
    "phone": "5412897415",
    "website_url": null,
    "state": "Oregon",
    "street": "125 N 1st St"
  },
  {
    "id": "8737ea88-e3f4-453b-9239-12a675509b68",
    "name": "Hermit Thrush Brewery, LLC",
    "brewery_type": "micro",
    "address_1": "29 High St Ste 101C",
    "address_2": null,
    "address_3": null,
    "city": "Brattleboro",
    "state_province": "Vermont",
    "postal_code": "05301-3041",
    "country": "United States",
    "longitude": null,
    "latitude": null,
    "phone": "8022572337",
    "website_url": "http://www.hermitthrushbrewery.com",
    "state": "Vermont",
    "street": "29 High St Ste 101C"
  },
  {
    "id": "7e73a2ce-ff58-462d-9230-5277d17bb597",
    "name": "Hermitage Brewing Company",
    "brewery_type": "regional",
    "address_1": "1627 S 7th St",
    "address_2": null,
    "address_3": null,
    "city": "San Jose",
    "state_province": "California",
    "postal_code": "95112-5932",
    "country": "United States",
    "longitude": -121.8665257,
    "latitude": 37.31531409,
    "phone": "4082910966",
    "website_url": "http://www.hermitagebrewing.com",
    "state": "California",
    "street": "1627 S 7th St"
  },
  {
    "id": "f17d4678-6163-4bdf-8031-1baf0ad63f74",
    "name": "Heroes Brewing Company",
    "brewery_type": "micro",
    "address_1": "543 Atlantic Ave",
    "address_2": null,
    "address_3": null,
    "city": "Rochester",
    "state_province": "New York",
    "postal_code": "14609",
    "country": "United States",
    "longitude": -77.56906418,
    "latitude": 43.15634755,
    "phone": "5854345472",
    "website_url": "https://heroesbrewco.square.site",
    "state": "New York",
    "street": "543 Atlantic Ave"
  },
  {
    "id": "3751bd4e-3a02-4f27-8274-15b2d84737f9",
    "name": "Heroes Restaurant and Brewery",
    "brewery_type": "brewpub",
    "address_1": "3397 Mission Inn Ave",
    "address_2": null,
    "address_3": null,
    "city": "Riverside",
    "state_province": "California",
    "postal_code": "92501-3302",
    "country": "United States",
    "longitude": -117.3701143,
    "latitude": 33.98135954,
    "phone": "9512480722",
    "website_url": "http://www.heroesrestaurantandbrewery.com",
    "state": "California",
    "street": "3397 Mission Inn Ave"
  },
  {
    "id": "95cdaefc-6cdd-4352-a998-b987adb7897c",
    "name": "Herrmann Brewthers, LLC",
    "brewery_type": "planning",
    "address_1": null,
    "address_2": null,
    "address_3": null,
    "city": "Fishers",
    "state_province": "Indiana",
    "postal_code": "46038-2313",
    "country": "United States",
    "longitude": null,
    "latitude": null,
    "phone": "3179641390",
    "website_url": null,
    "state": "Indiana",
    "street": null
  },
  {
    "id": "a1e17e3d-a801-4e19-8568-4113fe7297f2",
    "name": "Hexagon Brewing Co",
    "brewery_type": "micro",
    "address_1": "1002 Dutch Valley Dr Ste 101",
    "address_2": null,
    "address_3": null,
    "city": "Knoxville",
    "state_province": "Tennessee",
    "postal_code": "37918-6956",
    "country": "United States",
    "longitude": -83.94717065,
    "latitude": 36.00860512,
    "phone": "8658885138",
    "website_url": "http://www.hexagonbrewing.com",
    "state": "Tennessee",
    "street": "1002 Dutch Valley Dr Ste 101"
  },
  {
    "id": "479ee657-8907-4983-9ec4-8d7f1372c69e",
    "name": "Hi Sign Brewing",
    "brewery_type": "micro",
    "address_1": "1201 Old Bastrop Hwy Bldg A",
    "address_2": null,
    "address_3": null,
    "city": "Austin",
    "state_province": "Texas",
    "postal_code": "78742-2600",
    "country": "United States",
    "longitude": null,
    "latitude": null,
    "phone": "5123825264",
    "website_url": "http://www.hisignbrewing.com",
    "state": "Texas",
    "street": "1201 Old Bastrop Hwy Bldg A"
  },
  {
    "id": "6b16f03c-39e6-48c1-88e5-6889179807cf",
    "name": "Hi-Wire Brewing Big Top Production Facility",
    "brewery_type": "micro",
    "address_1": "2 Huntsman Pl",
    "address_2": null,
    "address_3": null,
    "city": "Asheville",
    "state_province": "North Carolina",
    "postal_code": "28803-2600",
    "country": "United States",
    "longitude": -82.54566311,
    "latitude": 35.57020551,
    "phone": null,
    "website_url": "http://www.hiwirebrewing.com",
    "state": "North Carolina",
    "street": "2 Huntsman Pl"
  },
  {
    "id": "6f18252e-ae65-4c45-9867-2c1b72b4ce11",
    "name": "Hi-Wire Brewing South Slope Specialty Brewery",
    "brewery_type": "micro",
    "address_1": "197 Hilliard Ave",
    "address_2": null,
    "address_3": null,
    "city": "Asheville",
    "state_province": "North Carolina",
    "postal_code": "28801-3616",
    "country": "United States",
    "longitude": -82.55603747,
    "latitude": 35.5912315,
    "phone": "8285759675",
    "website_url": "http://www.hiwirebrewing.com",
    "state": "North Carolina",
    "street": "197 Hilliard Ave"
  },
  {
    "id": "d7338230-e2a4-478e-bb8d-f0b3563e65e1",
    "name": "Hi-Wire Brewing Taproom",
    "brewery_type": "planning",
    "address_1": null,
    "address_2": null,
    "address_3": null,
    "city": "Durham",
    "state_province": "North Carolina",
    "postal_code": "27701",
    "country": "United States",
    "longitude": null,
    "latitude": null,
    "phone": null,
    "website_url": null,
    "state": "North Carolina",
    "street": null
  },
  {
    "id": "25a0da54-49c0-4228-9c5a-eb8af9a4d259",
    "name": "Hickory Brewery / American Honor Ale House and Brewery",
    "brewery_type": "micro",
    "address_1": "883 Highland Ave SE",
    "address_2": null,
    "address_3": null,
    "city": "Hickory",
    "state_province": "North Carolina",
    "postal_code": "28602-1106",
    "country": "United States",
    "longitude": -81.32549762,
    "latitude": 35.73533517,
    "phone": "8284149600",
    "website_url": null,
    "state": "North Carolina",
    "street": "883 Highland Ave SE"
  },
  {
    "id": "01d05be5-e93c-4889-9024-6a57bf67fe7a",
    "name": "Hickory Creek Brewing Company LLC",
    "brewery_type": "micro",
    "address_1": "1005 W Laraway Rd Unit 260",
    "address_2": null,
    "address_3": null,
    "city": "New Lenox",
    "state_province": "Illinois",
    "postal_code": "60451",
    "country": "United States",
    "longitude": null,
    "latitude": null,
    "phone": "8152456042",
    "website_url": "http://www.hickorycreekbrewingil.com",
    "state": "Illinois",
    "street": "1005 W Laraway Rd Unit 260"
  },
  {
    "id": "8d913abb-4d7e-4282-bad5-bf3f1884af85",
    "name": "Hickory Nut Gorge Brewery",
    "brewery_type": "micro",
    "address_1": "615 Bottemless Pools Rd",
    "address_2": null,
    "address_3": null,
    "city": "Lake Lure",
    "state_province": "North Carolina",
    "postal_code": "28746-5525",
    "country": "United States",
    "longitude": null,
    "latitude": null,
    "phone": null,
    "website_url": null,
    "state": "North Carolina",
    "street": "615 Bottemless Pools Rd"
  },
  {
    "id": "82327d79-b1ca-4120-a8f7-b1a74611dd8c",
    "name": "Hidden Cove Brewing Co",
    "brewery_type": "micro",
    "address_1": "73 Mile Rd",
    "address_2": null,
    "address_3": null,
    "city": "Wells",
    "state_province": "Maine",
    "postal_code": "04090-4135",
    "country": "United States",
    "longitude": -70.58104548,
    "latitude": 43.30407704,
    "phone": "2076460228",
    "website_url": "http://www.hiddencovebrewingcompany.com",
    "state": "Maine",
    "street": "73 Mile Rd"
  },
  {
    "id": "b7cbad5a-14c1-4a1a-baf5-4ac51b372dda",
    "name": "Hidden River Brewing Co",
    "brewery_type": "brewpub",
    "address_1": "1808 W Schuylkill Rd",
    "address_2": null,
    "address_3": null,
    "city": "Douglassville",
    "state_province": "Pennsylvania",
    "postal_code": "19518-9101",
    "country": "United States",
    "longitude": null,
    "latitude": null,
    "phone": "4842732266",
    "website_url": "http://hiddenriverbrewing.com",
    "state": "Pennsylvania",
    "street": "1808 W Schuylkill Rd"
  },
  {
    "id": "27c1e1c4-242d-4b7e-94d4-809f8de2a178",
    "name": "Hidden Sands Brewing Company",
    "brewery_type": "micro",
    "address_1": "6754 Washington Ave. Unit B",
    "address_2": null,
    "address_3": null,
    "city": "Egg Harbor Township",
    "state_province": "New Jersey",
    "postal_code": "08234-3807",
    "country": "United States",
    "longitude": null,
    "latitude": null,
    "phone": "4843191156",
    "website_url": "http://hiddensands.com",
    "state": "New Jersey",
    "street": "6754 Washington Ave. Unit B"
  },
  {
    "id": "457de2b4-b8fd-4821-8f97-38dd0e27bc37",
    "name": "Hidden Springs Ale Works",
    "brewery_type": "micro",
    "address_1": "1631 N Franklin St",
    "address_2": null,
    "address_3": null,
    "city": "Tampa",
    "state_province": "Florida",
    "postal_code": "33602-2621",
    "country": "United States",
    "longitude": -82.46008537,
    "latitude": 27.95878231,
    "phone": "8132262739",
    "website_url": "http://www.Hiddenspringsaleworks.com",
    "state": "Florida",
    "street": "1631 N Franklin St"
  },
  {
    "id": "a55e613d-e948-47ec-a5d7-a789d015c50b",
    "name": "Hidden Stories Brewing Company",
    "brewery_type": "planning",
    "address_1": null,
    "address_2": null,
    "address_3": null,
    "city": "Millerstown",
    "state_province": "Pennsylvania",
    "postal_code": "17062-8474",
    "country": "United States",
    "longitude": null,
    "latitude": null,
    "phone": "6465524847",
    "website_url": null,
    "state": "Pennsylvania",
    "street": null
  },
  {
    "id": "a76526c6-eb26-4c41-bbae-f9e9596d21a8",
    "name": "Hideaway Brewing Co",
    "brewery_type": "micro",
    "address_1": "18731 SE 314th St",
    "address_2": null,
    "address_3": null,
    "city": "Auburn",
    "state_province": "Washington",
    "postal_code": "98092-6556",
    "country": "United States",
    "longitude": -122.1764384,
    "latitude": 47.3206933,
    "phone": "2536319393",
    "website_url": null,
    "state": "Washington",
    "street": "18731 SE 314th St"
  },
  {
    "id": "09b47043-56f9-4167-bbb2-ffa66e3438bb",
    "name": "Hideaway Park Brewery",
    "brewery_type": "micro",
    "address_1": "78927 US Highway 40",
    "address_2": null,
    "address_3": null,
    "city": "Winter Park",
    "state_province": "Colorado",
    "postal_code": "80482",
    "country": "United States",
    "longitude": null,
    "latitude": null,
    "phone": "7204026513",
    "website_url": "http://www.hideawayparkbrewery.com",
    "state": "Colorado",
    "street": "78927 US Highway 40"
  },
  {
    "id": "0cb8a74d-bea4-4fcd-8b90-dbdcbe5b0657",
    "name": "Hideout Brewing Co",
    "brewery_type": "brewpub",
    "address_1": "3113 Plaza Dr NE",
    "address_2": null,
    "address_3": null,
    "city": "Grand Rapids",
    "state_province": "Michigan",
    "postal_code": "49525-2901",
    "country": "United States",
    "longitude": null,
    "latitude": null,
    "phone": "6163619658",
    "website_url": "http://www.hideoutbrewing.com",
    "state": "Michigan",
    "street": "3113 Plaza Dr NE"
  },
  {
    "id": "93000035-2da2-4b19-9efb-9f7c45252684",
    "name": "High Alpine Brewing Company",
    "brewery_type": "brewpub",
    "address_1": "111 N Main St",
    "address_2": null,
    "address_3": null,
    "city": "Gunnison",
    "state_province": "Colorado",
    "postal_code": "81230-2330",
    "country": "United States",
    "longitude": -106.9270377,
    "latitude": 38.54462278,
    "phone": "9706424500",
    "website_url": "http://www.highalpinebrewing.com",
    "state": "Colorado",
    "street": "111 N Main St"
  },
  {
    "id": "71aaef45-0755-40d8-bbbe-a24adfc0932a",
    "name": "High and Dry Brewing",
    "brewery_type": "micro",
    "address_1": "529 Adams St NE",
    "address_2": null,
    "address_3": null,
    "city": "Albuquerque",
    "state_province": "New Mexico",
    "postal_code": "87108-1228",
    "country": "United States",
    "longitude": -106.5942753,
    "latitude": 35.08612571,
    "phone": "2197750232",
    "website_url": "http://www.highanddrybrewing.com",
    "state": "New Mexico",
    "street": "529 Adams St NE"
  },
  {
    "id": "0c6e9e51-ab87-45d7-8204-6450076db013",
    "name": "High Branch Brewing Co",
    "brewery_type": "micro",
    "address_1": "325 McGill Ave NW Ste 148",
    "address_2": null,
    "address_3": null,
    "city": "Concord",
    "state_province": "North Carolina",
    "postal_code": "28027-0011",
    "country": "United States",
    "longitude": null,
    "latitude": null,
    "phone": null,
    "website_url": null,
    "state": "North Carolina",
    "street": "325 McGill Ave NW Ste 148"
  }
]