[
  {
    "id": "aada6ced-9b6b-42ea-8de5-86957754813c",
    "name": "Geronimo Brewing Inc",
    "brewery_type": "planning",
    "address_1": null,
    "address_2": null,
    "address_3": null,
    "city": "Doylestown",
    "state_province": "Pennsylvania",
    "postal_code": "18901",
    "country": "United States",
    "longitude": null,
    "latitude": null,
    "phone": null,
    "website_url": "http://www.geronimobrewing.com",
    "state": "Pennsylvania",
    "street": null
  },
  {
    "id": "589a5420-aaa2-4cca-a8c5-feb60bdfb862",
    "name": "Gezzelig Brewing Company",
    "brewery_type": "brewpub",
    "address_1": "403 W 4th St Ste 103",
    "address_2": null,
    "address_3": null,
    "city": "Newton",
    "state_province": "Iowa",
    "postal_code": "50208-3019",
    "country": "United States",
    "longitude": -93.058182,
    "latitude": 41.7022754,
    "phone": "6417929218",
    "website_url": "https://www.gezelligbrewing.com",
    "state": "Iowa",
    "street": "403 W 4th St Ste 103"
  },
  {
    "id": "50af38eb-7473-4c40-a365-3deadd41da42",
    "name": "Ghost Harbor Brewing Company",
    "brewery_type": "micro",
    "address_1": "606 B E Colonial Ave",
    "address_2": null,
    "address_3": null,
    "city": "Elizabeth City",
    "state_province": "North Carolina",
    "postal_code": "27909",
    "country": "United States",
    "longitude": -76.21879622,
    "latitude": 36.30042229,
    "phone": "2525991030",
    "website_url": "http://www.ghostharborbrewing.com",
    "state": "North Carolina",
    "street": "606 B E Colonial Ave"
  },
  {
    "id": "537b5242-7341-43e4-bab7-5a31b4b2ee23",
    "name": "Ghost Isle Brewing Company",
    "brewery_type": "planning",
    "address_1": null,
    "address_2": null,
    "address_3": null,
    "city": "New Buffalo",
    "state_province": "Michigan",
    "postal_code": "49117",
    "country": "United States",
    "longitude": null,
    "latitude": null,
    "phone": "2195611219",
    "website_url": null,
    "state": "Michigan",
    "street": null
  },
  {
    "id": "90a85b54-55ca-4fa8-b9cc-70560e715dbf",
    "name": "Ghost Monkey Brewery",
    "brewery_type": "micro",
    "address_1": "522 Wando Ln",
    "address_2": null,
    "address_3": null,
    "city": "Mount Pleasant",
    "state_province": "South Carolina",
    "postal_code": "29464-8211",
    "country": "United States",
    "longitude": null,
    "latitude": null,
    "phone": null,
    "website_url": null,
    "state": "South Carolina",
    "street": "522 Wando Ln"
  },
  {
    "id": "b0847fe6-cf6a-4fd5-ad56-d5dae59b07a8",
    "name": "Ghost River Brewing",
    "brewery_type": "micro",
    "address_1": "827 S Main St",
    "address_2": null,
    "address_3": null,
    "city": "Memphis",
    "state_province": "Tennessee",
    "postal_code": "38106-2063",
    "country": "United States",
    "longitude": -90.059285,
    "latitude": 35.125851,
    "phone": "9016614976",
    "website_url": "http://www.ghostriverbrewing.com",
    "state": "Tennessee",
    "street": "827 S Main St"
  },
  {
    "id": "fc2b7dc0-a96f-46c8-a23d-9395d4b48aee",
    "name": "Ghost Runners Brewery",
    "brewery_type": "micro",
    "address_1": "4216 NE Minnehaha St # 108",
    "address_2": null,
    "address_3": null,
    "city": "Vancouver",
    "state_province": "Washington",
    "postal_code": "98661-1244",
    "country": "United States",
    "longitude": -122.639599,
    "latitude": 45.6678127,
    "phone": "3609893912",
    "website_url": "https://ghostrunnersbrewery.com",
    "state": "Washington",
    "street": "4216 NE Minnehaha St # 108"
  },
  {
    "id": "d877471e-4ad3-4317-aaa8-b6c86cdeec58",
    "name": "Ghost Town Brewing",
    "brewery_type": "micro",
    "address_1": "1960 Adeline St",
    "address_2": null,
    "address_3": null,
    "city": "Oakland",
    "state_province": "California",
    "postal_code": "94607-2300",
    "country": "United States",
    "longitude": -122.2844396,
    "latitude": 37.81391748,
    "phone": "5109266728",
    "website_url": "http://www.ghosttownbrewing.com",
    "state": "California",
    "street": "1960 Adeline St"
  },
  {
    "id": "bc569d24-491c-424d-a0ca-f1f01e6a5b94",
    "name": "Ghost Train Brewing Co",
    "brewery_type": "micro",
    "address_1": "2616 3rd Ave S",
    "address_2": null,
    "address_3": null,
    "city": "Birmingham",
    "state_province": "Alabama",
    "postal_code": "35233-2619",
    "country": "United States",
    "longitude": -86.79406151,
    "latitude": 33.51415935,
    "phone": "2053702487",
    "website_url": "http://www.ghosttrainbrewing.com",
    "state": "Alabama",
    "street": "2616 3rd Ave S"
  },
  {
    "id": "1516418f-29e7-42bc-9759-6697ce515c49",
    "name": "Ghostface Brewing Company",
    "brewery_type": "brewpub",
    "address_1": "427 E Statesville Ave Ste 100",
    "address_2": null,
    "address_3": null,
    "city": "Mooresville",
    "state_province": "North Carolina",
    "postal_code": "28115-2595",
    "country": "United States",
    "longitude": null,
    "latitude": null,
    "phone": "7047997433",
    "website_url": "http://www.ghostfacebrewing.com",
    "state": "North Carolina",
    "street": "427 E Statesville Ave Ste 100"
  },
  {
    "id": "59929344-4ce7-4499-ba98-db6bbe6bfca0",
    "name": "Ghostfish Brewing Company",
    "brewery_type": "micro",
    "address_1": "2942 1st Ave S",
    "address_2": null,
    "address_3": null,
    "city": "Seattle",
    "state_province": "Washington",
    "postal_code": "98134-1820",
    "country": "United States",
    "longitude": -122.3338908,
    "latitude": 47.5763508,
    "phone": "2532494650",
    "website_url": "http://www.ghostfishbrewing.com",
    "state": "Washington",
    "street": "2942 1st Ave S"
  },
  {
    "id": "9d2c5b71-2dab-4acb-90f0-671fccc5c0f0",
    "name": "Giant Jones Brewing LLC",
    "brewery_type": "micro",
    "address_1": "931 E Main St Suite 9",
    "address_2": null,
    "address_3": null,
    "city": "Madison",
    "state_province": "Wisconsin",
    "postal_code": "53703",
    "country": "United States",
    "longitude": null,
    "latitude": null,
    "phone": "6086205172",
    "website_url": "http://Www.giantjones.com",
    "state": "Wisconsin",
    "street": "931 E Main St Suite 9"
  },
  {
    "id": "e3f9214c-88cf-470f-81ef-8531d23a69fe",
    "name": "Gibb's Hundred Brewing Company",
    "brewery_type": "micro",
    "address_1": "504 State St",
    "address_2": null,
    "address_3": null,
    "city": "Greensboro",
    "state_province": "North Carolina",
    "postal_code": "27405",
    "country": "United States",
    "longitude": -79.783217,
    "latitude": 36.101006,
    "phone": "3367637087",
    "website_url": "http://www.gibbshundred.com",
    "state": "North Carolina",
    "street": "504 State St"
  },
  {
    "id": "8b812476-b04a-47c3-b4b5-2e83393dac30",
    "name": "Gideon's Brewing Company",
    "brewery_type": "micro",
    "address_1": "107 N 5th St",
    "address_2": null,
    "address_3": null,
    "city": "Bismarck",
    "state_province": "North Dakota",
    "postal_code": "58501-4026",
    "country": "United States",
    "longitude": -100.7844514,
    "latitude": 46.80607237,
    "phone": "7017511044",
    "website_url": "http://gideonsbrewing.com",
    "state": "North Dakota",
    "street": "107 N 5th St"
  },
  {
    "id": "66c64272-72a3-4e8c-96af-2471a32dd812",
    "name": "Giesenbr\u00c3\u00a4u Bier Co LLC",
    "brewery_type": "micro",
    "address_1": "1306 1st St NE",
    "address_2": null,
    "address_3": null,
    "city": "New Prague",
    "state_province": "Minnesota",
    "postal_code": "56071-2451",
    "country": "United States",
    "longitude": -93.5756181,
    "latitude": 44.5447992,
    "phone": "9527584226",
    "website_url": "http://www.giesenbraubierco.com",
    "state": "Minnesota",
    "street": "1306 1st St NE"
  },
  {
    "id": "ee356525-7374-4203-97ee-767fbcef6cc2",
    "name": "Gig Harbor Brewing",
    "brewery_type": "micro",
    "address_1": "3120 South Tacoma Way",
    "address_2": null,
    "address_3": null,
    "city": "Tacoma",
    "state_province": "Washington",
    "postal_code": "98409-4717",
    "country": "United States",
    "longitude": -122.4772721,
    "latitude": 47.22805896,
    "phone": "2538304653",
    "website_url": "http://www.gigharborbrewing.com",
    "state": "Washington",
    "street": "3120 South Tacoma Way"
  },
  {
    "id": "fa51e915-17bb-4a59-b32c-2ccbf025ebe3",
    "name": "Gigantic Brewing Co",
    "brewery_type": "micro",
    "address_1": "5224 SE 26th Ave",
    "address_2": null,
    "address_3": null,
    "city": "Portland",
    "state_province": "Oregon",
    "postal_code": "97202-4627",
    "country": "United States",
    "longitude": -122.6392092,
    "latitude": 45.48500105,
    "phone": "5032083416",
    "website_url": "http://www.giganticbrewing.com",
    "state": "Oregon",
    "street": "5224 SE 26th Ave"
  },
  {
    "id": "9a1e91cf-70a9-4262-99ba-d3fdca9ba42d",
    "name": "GILD BREWING",
    "brewery_type": "planning",
    "address_1": null,
    "address_2": null,
    "address_3": null,
    "city": "Missoula",
    "state_province": "Montana",
    "postal_code": "59801-2734",
    "country": "United States",
    "longitude": null,
    "latitude": null,
    "phone": null,
    "website_url": null,
    "state": "Montana",
    "street": null
  },
  {
    "id": "311072a3-c9ed-4df1-8efa-896888547e86",
    "name": "Gilded Goat Brewing Company",
    "brewery_type": "micro",
    "address_1": "3500 S College Ave Ste 194",
    "address_2": null,
    "address_3": null,
    "city": "Fort Collins",
    "state_province": "Colorado",
    "postal_code": "80525-2639",
    "country": "United States",
    "longitude": null,
    "latitude": null,
    "phone": "9708257192",
    "website_url": "http://www.gildedgoatbrewing.com",
    "state": "Colorado",
    "street": "3500 S College Ave Ste 194"
  },
  {
    "id": "81420933-352b-4dca-8f90-665aa5d5a131",
    "name": "Gilded Otter Brewing Co",
    "brewery_type": "brewpub",
    "address_1": "3 Main St",
    "address_2": null,
    "address_3": null,
    "city": "New Paltz",
    "state_province": "New York",
    "postal_code": "12561-1742",
    "country": "United States",
    "longitude": -74.08958631,
    "latitude": 41.7469771,
    "phone": "8452561700",
    "website_url": "http://www.gildedotter.com",
    "state": "New York",
    "street": "3 Main St"
  },
  {
    "id": "8e28ee7d-4671-474f-b967-67319470a2af",
    "name": "Gilgamesh Brewing Co",
    "brewery_type": "micro",
    "address_1": "2065 Madrona Ave SE",
    "address_2": null,
    "address_3": null,
    "city": "Salem",
    "state_province": "Oregon",
    "postal_code": "97302-1010",
    "country": "United States",
    "longitude": -123.0191178,
    "latitude": 44.90504576,
    "phone": "9702014409",
    "website_url": "http://gilgameshbrewing.com",
    "state": "Oregon",
    "street": "2065 Madrona Ave SE"
  },
  {
    "id": "1b089764-3735-43f2-98a8-547b88e4a487",
    "name": "Gillette Brewing Company",
    "brewery_type": "closed",
    "address_1": "301 S Gillette Ave",
    "address_2": null,
    "address_3": null,
    "city": "Gillette",
    "state_province": "Wyoming",
    "postal_code": "82716-3705",
    "country": "United States",
    "longitude": -105.5036145,
    "latitude": 44.29203825,
    "phone": "3076708948",
    "website_url": "http://www.gillettebrewingcompany.com",
    "state": "Wyoming",
    "street": "301 S Gillette Ave"
  },
  {
    "id": "4ace443f-a4fb-47ec-89f5-5d75138420f7",
    "name": "Gilman Brewing Company",
    "brewery_type": "micro",
    "address_1": "912 Gilman St",
    "address_2": null,
    "address_3": null,
    "city": "Berkeley",
    "state_province": "California",
    "postal_code": "94710-1424",
    "country": "United States",
    "longitude": -122.2998747,
    "latitude": 37.879466,
    "phone": null,
    "website_url": "http://www.gilmanbrew.com",
    "state": "California",
    "street": "912 Gilman St"
  },
  {
    "id": "c0299ec0-af83-4a32-8c75-6d51d9c6956e",
    "name": "Gino's Brewing Company",
    "brewery_type": "brewpub",
    "address_1": "500 N La Salle Dr",
    "address_2": null,
    "address_3": null,
    "city": "Chicago",
    "state_province": "Illinois",
    "postal_code": "60654-7109",
    "country": "United States",
    "longitude": null,
    "latitude": null,
    "phone": "3129884200",
    "website_url": null,
    "state": "Illinois",
    "street": "500 N La Salle Dr"
  },
  {
    "id": "4c0a2216-b456-49fa-821e-2fec06c653d2",
    "name": "Girdwood Brewing Company",
    "brewery_type": "micro",
    "address_1": "2700 Alyeska Highway",
    "address_2": null,
    "address_3": null,
    "city": "Girdwood",
    "state_province": "Alaska",
    "postal_code": "99587-0058",
    "country": "United States",
    "longitude": -149.1540907,
    "latitude": 60.9578421,
    "phone": "907783",
    "website_url": "http://www.girdwoodbrewing.com",
    "state": "Alaska",
    "street": "2700 Alyeska Highway"
  },
  {
    "id": "11db5351-443e-469e-a2ee-705d8449dd37",
    "name": "Gizmo Brew Works",
    "brewery_type": "micro",
    "address_1": "5907 Triangle Dr",
    "address_2": null,
    "address_3": null,
    "city": "Raleigh",
    "state_province": "North Carolina",
    "postal_code": "27617-4742",
    "country": "United States",
    "longitude": -78.74513578,
    "latitude": 35.89611719,
    "phone": "9197822099",
    "website_url": "http://www.gizmobrewworks.com",
    "state": "North Carolina",
    "street": "5907 Triangle Dr"
  },
  {
    "id": "39590a48-9284-4b47-93a5-2c8d9bca2484",
    "name": "Glacier Brewhouse",
    "brewery_type": "brewpub",
    "address_1": "737 W 5th Ave Ste 110",
    "address_2": null,
    "address_3": null,
    "city": "Anchorage",
    "state_province": "Alaska",
    "postal_code": "99501-2129",
    "country": "United States",
    "longitude": -149.896703,
    "latitude": 61.218047,
    "phone": "9072742739",
    "website_url": "http://www.glacierbrewhouse.com",
    "state": "Alaska",
    "street": "737 W 5th Ave Ste 110"
  },
  {
    "id": "843c6645-01fc-4203-af72-efdde75c572d",
    "name": "Glacier Brewing Co",
    "brewery_type": "micro",
    "address_1": "6 10th Ave E",
    "address_2": null,
    "address_3": null,
    "city": "Polson",
    "state_province": "Montana",
    "postal_code": "59860-3219",
    "country": "United States",
    "longitude": -114.1627735,
    "latitude": 47.6862114,
    "phone": "4068832595",
    "website_url": "http://www.glacierbrewing.com",
    "state": "Montana",
    "street": "6 10th Ave E"
  },
  {
    "id": "44ed4be7-68d3-4f49-a8b0-5deca09e43fe",
    "name": "Gladiator Brewing Co.",
    "brewery_type": "planning",
    "address_1": null,
    "address_2": null,
    "address_3": null,
    "city": "Clarksville",
    "state_province": "Tennessee",
    "postal_code": "37040",
    "country": "United States",
    "longitude": null,
    "latitude": null,
    "phone": "9137497035",
    "website_url": null,
    "state": "Tennessee",
    "street": null
  },
  {
    "id": "5b22de55-7a06-4584-9424-a838f1b8481b",
    "name": "Glass Creek Winery",
    "brewery_type": "micro",
    "address_1": "450 N Whitmore Rd",
    "address_2": null,
    "address_3": null,
    "city": "Hastings",
    "state_province": "Michigan",
    "postal_code": "49058-9791",
    "country": "United States",
    "longitude": null,
    "latitude": null,
    "phone": "2699482752",
    "website_url": "http://www.glasscreekwinery.com",
    "state": "Michigan",
    "street": "450 N Whitmore Rd"
  },
  {
    "id": "69abf157-f2fb-43e2-ae69-38ca4ff87d9c",
    "name": "Glasstown Brewing",
    "brewery_type": "micro",
    "address_1": "10 Peterson St",
    "address_2": null,
    "address_3": null,
    "city": "Millville",
    "state_province": "New Jersey",
    "postal_code": "08332-4818",
    "country": "United States",
    "longitude": null,
    "latitude": null,
    "phone": "8563277770",
    "website_url": "http://www.glasstownbrewery.com",
    "state": "New Jersey",
    "street": "10 Peterson St"
  },
  {
    "id": "a4e28559-81cb-4485-b923-c3f56b7fe24e",
    "name": "Glen Luss Craft Brewery & Distillery",
    "brewery_type": "micro",
    "address_1": "Church Road",
    "address_2": "Luss",
    "address_3": null,
    "city": "Alexandria",
    "state_province": "West Dunbartonshire",
    "postal_code": "G83 8NZ",
    "country": "Scotland",
    "longitude": -4.637915,
    "latitude": 56.101269,
    "phone": "7913413699",
    "website_url": "https://glenluss.co.uk/",
    "state": "West Dunbartonshire",
    "street": "Church Road"
  },
  {
    "id": "eab9ccc1-7858-43aa-b808-37a9484be013",
    "name": "Glenmere Brewing Co, Inc",
    "brewery_type": "micro",
    "address_1": "55 Maple Ave",
    "address_2": null,
    "address_3": null,
    "city": "Florida",
    "state_province": "New York",
    "postal_code": "10921-1124",
    "country": "United States",
    "longitude": -74.360033,
    "latitude": 41.335404,
    "phone": "8456511939",
    "website_url": "http://www.glenmerebrewingco.com",
    "state": "New York",
    "street": "55 Maple Ave"
  },
  {
    "id": "b7946db8-7313-4d80-a9a9-8b41971f49d0",
    "name": "Glenwood Canyon Brewing Co",
    "brewery_type": "brewpub",
    "address_1": "402 7th St",
    "address_2": null,
    "address_3": null,
    "city": "Glenwood Springs",
    "state_province": "Colorado",
    "postal_code": "81601-3406",
    "country": "United States",
    "longitude": -107.323424,
    "latitude": 39.5476563,
    "phone": "9709451276",
    "website_url": "http://www.glenwoodcanyon.com",
    "state": "Colorado",
    "street": "402 7th St"
  },
  {
    "id": "f7e064d7-a23d-4078-85a4-5407d2ce4909",
    "name": "Globier",
    "brewery_type": "planning",
    "address_1": null,
    "address_2": null,
    "address_3": null,
    "city": "San Diego",
    "state_province": "California",
    "postal_code": "92117-1604",
    "country": "United States",
    "longitude": -117.1627714,
    "latitude": 32.7174209,
    "phone": "7757623818",
    "website_url": "http://www.drinkglobier.com",
    "state": "California",
    "street": null
  },
  {
    "id": "f84b8f31-6675-40c6-bb28-3ed87861ae7e",
    "name": "Gloucester Brewing Company",
    "brewery_type": "planning",
    "address_1": null,
    "address_2": null,
    "address_3": null,
    "city": "Gloucester",
    "state_province": "Virginia",
    "postal_code": "23061",
    "country": "United States",
    "longitude": null,
    "latitude": null,
    "phone": null,
    "website_url": null,
    "state": "Virginia",
    "street": null
  },
  {
    "id": "748e5fbd-c51a-4dfb-8862-089ac305832b",
    "name": "Glover Park Brewery",
    "brewery_type": "planning",
    "address_1": null,
    "address_2": null,
    "address_3": null,
    "city": "Marietta",
    "state_province": "Georgia",
    "postal_code": "30060",
    "country": "United States",
    "longitude": null,
    "latitude": null,
    "phone": null,
    "website_url": null,
    "state": "Georgia",
    "street": null
  },
  {
    "id": "14c9d060-b540-4055-8182-a9e02ab70452",
    "name": "Gnarly Barley Brewing",
    "brewery_type": "micro",
    "address_1": "1709 Corbin Rd",
    "address_2": null,
    "address_3": null,
    "city": "Hammond",
    "state_province": "Louisiana",
    "postal_code": "70403-3719",
    "country": "United States",
    "longitude": -90.47912007,
    "latitude": 30.49701825,
    "phone": "9853180723",
    "website_url": "http://www.gnarlybeer.com",
    "state": "Louisiana",
    "street": "1709 Corbin Rd"
  },
  {
    "id": "c025c15a-c757-402d-adf2-331a35f3721a",
    "name": "Gnarly Cedar Brewing",
    "brewery_type": "nano",
    "address_1": "6381 Hwy 57",
    "address_2": null,
    "address_3": null,
    "city": "Greenleaf",
    "state_province": "Wisconsin",
    "postal_code": "54126",
    "country": "United States",
    "longitude": -88.0909977,
    "latitude": 44.3341752,
    "phone": "9205324384",
    "website_url": "https://www.ledgestonevineyards.xyz/gnarly-cedar-brewing/",
    "state": "Wisconsin",
    "street": "6381 Hwy 57"
  },
  {
    "id": "4334a92c-8d08-42b0-86b0-b5e73b282253",
    "name": "Gneiss Brewing",
    "brewery_type": "micro",
    "address_1": "94 Patterson Rd",
    "address_2": null,
    "address_3": null,
    "city": "Limerick",
    "state_province": "Maine",
    "postal_code": "04048-4242",
    "country": "United States",
    "longitude": -70.81799747,
    "latitude": 43.64831306,
    "phone": "2077930046",
    "website_url": "http://www.gneissbeer.com",
    "state": "Maine",
    "street": "94 Patterson Rd"
  },
  {
    "id": "d0b10e4c-895c-4af9-9d07-b3de6d4d882a",
    "name": "GnomeTown Brewing Co",
    "brewery_type": "brewpub",
    "address_1": "203 E Berry St Ste 104",
    "address_2": null,
    "address_3": null,
    "city": "Fort Wayne",
    "state_province": "Indiana",
    "postal_code": "46802",
    "country": "United States",
    "longitude": null,
    "latitude": null,
    "phone": "2604220070",
    "website_url": "http://www.gnometownbrewing.com",
    "state": "Indiana",
    "street": "203 E Berry St Ste 104"
  },
  {
    "id": "553e835b-4c41-4d59-954d-25f773afcf80",
    "name": "Goat Creek Brewing",
    "brewery_type": "planning",
    "address_1": null,
    "address_2": null,
    "address_3": null,
    "city": "Northampton",
    "state_province": "Massachusetts",
    "postal_code": "01062-1326",
    "country": "United States",
    "longitude": null,
    "latitude": null,
    "phone": null,
    "website_url": null,
    "state": "Massachusetts",
    "street": null
  },
  {
    "id": "7ab0e9c9-ffb3-44e1-91fb-99dc7fd4959d",
    "name": "Goat Island Brewing",
    "brewery_type": "micro",
    "address_1": "1646 A John H Cooper Drive",
    "address_2": null,
    "address_3": null,
    "city": "Cullman",
    "state_province": "Alabama",
    "postal_code": "35055",
    "country": "United States",
    "longitude": null,
    "latitude": null,
    "phone": "2565909081",
    "website_url": "http://www.goatislandbrewing.com",
    "state": "Alabama",
    "street": "1646 A John H Cooper Drive"
  },
  {
    "id": "4a3268b5-c896-462f-9567-57a490d77f22",
    "name": "Goat Lips Chew and Brewhouse / Redneck Riviera Brewing",
    "brewery_type": "brewpub",
    "address_1": "2811 Copter Rd",
    "address_2": null,
    "address_3": null,
    "city": "Pensacola",
    "state_province": "Florida",
    "postal_code": "32514-7606",
    "country": "United States",
    "longitude": null,
    "latitude": null,
    "phone": "8504741919",
    "website_url": "http://www.goatlips.com",
    "state": "Florida",
    "street": "2811 Copter Rd"
  },
  {
    "id": "277c5afe-ab6b-41d9-9200-fafcbf1729e0",
    "name": "Goat Patch Brewing Co.",
    "brewery_type": "micro",
    "address_1": "2727 N Cascade Ave Ste 123",
    "address_2": null,
    "address_3": null,
    "city": "Colorado Springs",
    "state_province": "Colorado",
    "postal_code": "80907-6288",
    "country": "United States",
    "longitude": null,
    "latitude": null,
    "phone": "7194714628",
    "website_url": "http://www.goatpatchbrewing.com",
    "state": "Colorado",
    "street": "2727 N Cascade Ave Ste 123"
  },
  {
    "id": "4626a269-2893-4805-9b88-27152e8a6fab",
    "name": "Goat Ridge Brewing",
    "brewery_type": "micro",
    "address_1": "17 Central Ave W",
    "address_2": null,
    "address_3": null,
    "city": "New London",
    "state_province": "Minnesota",
    "postal_code": "56273-",
    "country": "United States",
    "longitude": -94.94412651,
    "latitude": 45.30119537,
    "phone": "3203542383",
    "website_url": "http://www.goatridgebrewing.com",
    "state": "Minnesota",
    "street": "17 Central Ave W"
  },
  {
    "id": "95872557-1936-47c2-b57c-630e4f1a4466",
    "name": "GoatHouse Brewing Co",
    "brewery_type": "micro",
    "address_1": "600 Wise Rd",
    "address_2": null,
    "address_3": null,
    "city": "Lincoln",
    "state_province": "California",
    "postal_code": "95648-8518",
    "country": "United States",
    "longitude": -121.2686181,
    "latitude": 38.92452521,
    "phone": "9167409100",
    "website_url": "http://www.goathousebrewing.com",
    "state": "California",
    "street": "600 Wise Rd"
  },
  {
    "id": "ae816087-1f84-4ea5-aa7f-630e6bacb87d",
    "name": "Gold Camp Brewing Co",
    "brewery_type": "micro",
    "address_1": "1007 S Tejon St",
    "address_2": null,
    "address_3": null,
    "city": "Colorado Springs",
    "state_province": "Colorado",
    "postal_code": "80903-4238",
    "country": "United States",
    "longitude": -104.823552,
    "latitude": 38.8195724,
    "phone": "7196950344",
    "website_url": null,
    "state": "Colorado",
    "street": "1007 S Tejon St"
  },
  {
    "id": "503bccde-e659-431a-9797-c855f31a61bc",
    "name": "Gold Hill Brewery",
    "brewery_type": "micro",
    "address_1": "5660 Vineyard Ln",
    "address_2": null,
    "address_3": null,
    "city": "Placerville",
    "state_province": "California",
    "postal_code": "95667-9330",
    "country": "United States",
    "longitude": -120.8889631,
    "latitude": 38.78402952,
    "phone": "5306266522",
    "website_url": "http://www.goldhillvineyard.com",
    "state": "California",
    "street": "5660 Vineyard Ln"
  },
  {
    "id": "827402bd-02f7-4a94-ae11-fd3b0f7534e5",
    "name": "Golden Avalanche Brewing Co",
    "brewery_type": "brewpub",
    "address_1": "272 W Main St",
    "address_2": null,
    "address_3": null,
    "city": "Kutztown",
    "state_province": "Pennsylvania",
    "postal_code": "19530-1604",
    "country": "United States",
    "longitude": -75.7780207,
    "latitude": 40.5164127,
    "phone": "6106839600",
    "website_url": "http://www.kutztowntavern.com/GoldenAvalancheBrewery",
    "state": "Pennsylvania",
    "street": "272 W Main St"
  }
]