[
  {
    "id": "6817baf7-52fc-4ab6-8d28-79d598676fad",
    "name": "Brueprint Brewing Company LLC",
    "brewery_type": "micro",
    "address_1": "1229 Perry Rd Ste 101",
    "address_2": null,
    "address_3": null,
    "city": "Apex",
    "state_province": "North Carolina",
    "postal_code": "27502-6898",
    "country": "United States",
    "longitude": -78.85014375,
    "latitude": 35.70884819,
    "phone": "9199718846",
    "website_url": "http://www.brueprint.com",
    "state": "North Carolina",
    "street": "1229 Perry Rd Ste 101"
  },
  {
    "id": "a3ee5b9a-f9a9-42d1-a176-5ae6d98be4a9",
    "name": "Bruery Terreux",
    "brewery_type": "micro",
    "address_1": "1174 N Grove St",
    "address_2": null,
    "address_3": null,
    "city": "Anaheim",
    "state_province": "California",
    "postal_code": "92806-2129",
    "country": "United States",
    "longitude": -117.8418759,
    "latitude": 33.85793692,
    "phone": "7149966258",
    "website_url": "http://www.thebruery.com",
    "state": "California",
    "street": "1174 N Grove St"
  },
  {
    "id": "54a69c5d-8605-441b-bd39-ead94e777450",
    "name": "Bruery, The",
    "brewery_type": "micro",
    "address_1": "717 Dunn Way",
    "address_2": null,
    "address_3": null,
    "city": "Placentia",
    "state_province": "California",
    "postal_code": "92870-6806",
    "country": "United States",
    "longitude": -117.8791616,
    "latitude": 33.8623093,
    "phone": "7149966258",
    "website_url": "http://www.thebruery.com",
    "state": "California",
    "street": "717 Dunn Way"
  },
  {
    "id": "5ad3e5b9-e203-40eb-bc84-6e28356993d6",
    "name": "Brues Alehouse Brewing Company",
    "brewery_type": "brewpub",
    "address_1": "120 Riverwalk Place",
    "address_2": null,
    "address_3": null,
    "city": "Pueblo",
    "state_province": "Colorado",
    "postal_code": "81003",
    "country": "United States",
    "longitude": null,
    "latitude": null,
    "phone": "7199249670",
    "website_url": "http://www.bruesalehouse.com",
    "state": "Colorado",
    "street": "120 Riverwalk Place"
  },
  {
    "id": "8029560b-c49b-4979-a971-461bfac424f6",
    "name": "Brugge Brasserie",
    "brewery_type": "brewpub",
    "address_1": "1011A E Westfield Blvd",
    "address_2": null,
    "address_3": null,
    "city": "Indianapolis",
    "state_province": "Indiana",
    "postal_code": "46220-",
    "country": "United States",
    "longitude": null,
    "latitude": null,
    "phone": "3172550978",
    "website_url": "http://www.bruggebrasserie.com",
    "state": "Indiana",
    "street": "1011A E Westfield Blvd"
  },
  {
    "id": "131050bc-6ba0-4eab-a7ba-7cb42becdbeb",
    "name": "BruRm At Bar",
    "brewery_type": "brewpub",
    "address_1": "254 Crown St",
    "address_2": null,
    "address_3": null,
    "city": "New Haven",
    "state_province": "Connecticut",
    "postal_code": "06511-6610",
    "country": "United States",
    "longitude": -72.9302577,
    "latitude": 41.3061639,
    "phone": "2034958924",
    "website_url": "http://www.barnightclub.com",
    "state": "Connecticut",
    "street": "254 Crown St"
  },
  {
    "id": "5349a160-b8e9-4447-bb32-947718daf82f",
    "name": "Brush Creek Brewing Company",
    "brewery_type": "brewpub",
    "address_1": "102 N Main St",
    "address_2": null,
    "address_3": null,
    "city": "Atkinson",
    "state_province": "Nebraska",
    "postal_code": "68713-4946",
    "country": "United States",
    "longitude": -98.97836727,
    "latitude": 42.53141502,
    "phone": "4029252629",
    "website_url": "https://www.brushcreekbrewingcompany.com",
    "state": "Nebraska",
    "street": "102 N Main St"
  },
  {
    "id": "1b93afb3-f335-4c76-b247-16021324c687",
    "name": "Brutopia Brewery and Kitchen",
    "brewery_type": "brewpub",
    "address_1": "505 Atwood Ave",
    "address_2": null,
    "address_3": null,
    "city": "Cranston",
    "state_province": "Rhode Island",
    "postal_code": "02920-5327",
    "country": "United States",
    "longitude": -71.47169613,
    "latitude": 41.78983825,
    "phone": "4014648877",
    "website_url": "http://www.brutopiabrewery.com",
    "state": "Rhode Island",
    "street": "505 Atwood Ave"
  },
  {
    "id": "83aef3a5-e9ba-47e7-bb58-3b061caff00d",
    "name": "Bruz Beers",
    "brewery_type": "micro",
    "address_1": "1675 W 67th Ave Ste 100",
    "address_2": null,
    "address_3": null,
    "city": "Denver",
    "state_province": "Colorado",
    "postal_code": "80221-2595",
    "country": "United States",
    "longitude": null,
    "latitude": null,
    "phone": "3036502337",
    "website_url": "http://www.bruzbeers.com",
    "state": "Colorado",
    "street": "1675 W 67th Ave Ste 100"
  },
  {
    "id": "f1855903-dd7f-428d-86bd-14fa054e4771",
    "name": "Bryggerifabriken i Karlskrona AB",
    "brewery_type": "micro",
    "address_1": "Alamedan 10",
    "address_2": "c/o Karlskrona Hotel o Fastigheter AB",
    "address_3": null,
    "city": "Karlskrona",
    "state_province": "Blekinge",
    "postal_code": "371 31",
    "country": "Sweden",
    "longitude": 15.59114,
    "latitude": 56.15906,
    "phone": null,
    "website_url": "http://bryggerifabriken.se/",
    "state": "Blekinge",
    "street": "Alamedan 10"
  },
  {
    "id": "fdbb4b87-70d0-4362-834f-502fd5b05feb",
    "name": "Brygghus19",
    "brewery_type": "micro",
    "address_1": "V\u00e4stra Kajen 8F",
    "address_2": null,
    "address_3": null,
    "city": "Karlshamn",
    "state_province": "Blekinge",
    "postal_code": "374 31",
    "country": "Sweden",
    "longitude": 14.86054,
    "latitude": 56.16757,
    "phone": "+46709191950",
    "website_url": "http://www.brygghus19.se/",
    "state": "Blekinge",
    "street": "V\u00e4stra Kajen 8F"
  },
  {
    "id": "84574ef8-dd32-4f5d-836c-bb67a35584a5",
    "name": "BRZN",
    "brewery_type": "micro",
    "address_1": "New England Road",
    "address_2": null,
    "address_3": null,
    "city": "Brighton",
    "state_province": "East Sussex",
    "postal_code": "BN1 4ZR",
    "country": "England",
    "longitude": -0.140921,
    "latitude": 50.833413,
    "phone": null,
    "website_url": null,
    "state": "East Sussex",
    "street": "New England Road"
  },
  {
    "id": "91fe878b-f118-4ed2-b733-bcde32a53f1d",
    "name": "BS Brewing",
    "brewery_type": "micro",
    "address_1": "1408 Old Lehmann Rd",
    "address_2": null,
    "address_3": null,
    "city": "Seguin",
    "state_province": "Texas",
    "postal_code": "78155-5048",
    "country": "United States",
    "longitude": -97.90477894,
    "latitude": 29.69091561,
    "phone": "8306608124",
    "website_url": "http://www.bsbrewingtx.com",
    "state": "Texas",
    "street": "1408 Old Lehmann Rd"
  },
  {
    "id": "77ff798d-2961-4062-8c4d-c50b49bbbe2e",
    "name": "Bubba Brew's Brewing Company",
    "brewery_type": "micro",
    "address_1": "8091 Airport Rd",
    "address_2": null,
    "address_3": null,
    "city": "Bonnerdale",
    "state_province": "Arkansas",
    "postal_code": "71933-6648",
    "country": "United States",
    "longitude": null,
    "latitude": null,
    "phone": "8703564001",
    "website_url": "http://www.bubbabrewsbrewingco.com",
    "state": "Arkansas",
    "street": "8091 Airport Rd"
  },
  {
    "id": "a75a8cd7-7531-4df5-8edb-48782916a3da",
    "name": "Bubes Brewery",
    "brewery_type": "brewpub",
    "address_1": "102 N Market St",
    "address_2": null,
    "address_3": null,
    "city": "Mount Joy",
    "state_province": "Pennsylvania",
    "postal_code": "17552-1306",
    "country": "United States",
    "longitude": -76.50290152,
    "latitude": 40.11180762,
    "phone": "7176532056",
    "website_url": "http://www.bubesbrewery.com",
    "state": "Pennsylvania",
    "street": "102 N Market St"
  },
  {
    "id": "e869121f-a5be-4382-8243-8a51ab8af429",
    "name": "Buchanan Craft LLC",
    "brewery_type": "planning",
    "address_1": null,
    "address_2": null,
    "address_3": null,
    "city": "Chicago",
    "state_province": "Illinois",
    "postal_code": "60647-9735",
    "country": "United States",
    "longitude": null,
    "latitude": null,
    "phone": "6307722199",
    "website_url": null,
    "state": "Illinois",
    "street": null
  },
  {
    "id": "80a6159f-2196-4c18-bfdb-4fc34a723524",
    "name": "Buck Bald Brewing Corporation",
    "brewery_type": "planning",
    "address_1": null,
    "address_2": null,
    "address_3": null,
    "city": "Blue Ridge",
    "state_province": "Georgia",
    "postal_code": "30513",
    "country": "United States",
    "longitude": null,
    "latitude": null,
    "phone": "7703169971",
    "website_url": "http://www.buckbaldbrewing.com",
    "state": "Georgia",
    "street": null
  },
  {
    "id": "6ba05499-27cc-40c8-9fc6-003190f93adb",
    "name": "Buck Hill Brewery and Restaurant",
    "brewery_type": "brewpub",
    "address_1": "45 Route 94",
    "address_2": null,
    "address_3": null,
    "city": "Blairstown",
    "state_province": "New Jersey",
    "postal_code": "07825",
    "country": "United States",
    "longitude": null,
    "latitude": null,
    "phone": "9088545300",
    "website_url": "http://www.buckhillbrewery.com",
    "state": "New Jersey",
    "street": "45 Route 94"
  },
  {
    "id": "3e7df4e6-1fb8-4509-9943-124da33f3bec",
    "name": "Buck's Brewing Co",
    "brewery_type": "micro",
    "address_1": "993 Mount Vernon Rd",
    "address_2": null,
    "address_3": null,
    "city": "Newark",
    "state_province": "Ohio",
    "postal_code": "43055-4728",
    "country": "United States",
    "longitude": -82.41752143,
    "latitude": 40.08367829,
    "phone": "7406412337",
    "website_url": null,
    "state": "Ohio",
    "street": "993 Mount Vernon Rd"
  },
  {
    "id": "fcf8351b-616e-4c8e-a372-a026c64746cf",
    "name": "Bucket Brigade Brewery",
    "brewery_type": "micro",
    "address_1": "205 N Main St",
    "address_2": null,
    "address_3": null,
    "city": "Cape May Court House",
    "state_province": "New Jersey",
    "postal_code": "08210-2121",
    "country": "United States",
    "longitude": -74.81946353,
    "latitude": 39.086856,
    "phone": "6097782641",
    "website_url": "http://www.bucketbrigadebrewery.com",
    "state": "New Jersey",
    "street": "205 N Main St"
  },
  {
    "id": "c2cb20bd-eb6d-40af-afef-44896bb4e3d8",
    "name": "Buckeye Beer Engine",
    "brewery_type": "brewpub",
    "address_1": "15315 Madison Ave",
    "address_2": null,
    "address_3": null,
    "city": "Lakewood",
    "state_province": "Ohio",
    "postal_code": "44107-4020",
    "country": "United States",
    "longitude": -81.803918,
    "latitude": 41.477245,
    "phone": "2162262337",
    "website_url": "http://www.buckeyebeerengine.com",
    "state": "Ohio",
    "street": "15315 Madison Ave"
  },
  {
    "id": "2af8709e-55ca-41bc-8686-673157606216",
    "name": "Buckeye Lake Brewery",
    "brewery_type": "micro",
    "address_1": "5176 Walnut Rd",
    "address_2": null,
    "address_3": null,
    "city": "Buckeye Lake",
    "state_province": "Ohio",
    "postal_code": "43008",
    "country": "United States",
    "longitude": -82.488973,
    "latitude": 39.928559,
    "phone": "7405356225",
    "website_url": null,
    "state": "Ohio",
    "street": "5176 Walnut Rd"
  },
  {
    "id": "6f2a1d53-ab52-4a33-b9cf-0d3352156a7e",
    "name": "Buckhorn Brewers LLC",
    "brewery_type": "micro",
    "address_1": "4229 W Eisenhower Blvd",
    "address_2": null,
    "address_3": null,
    "city": "Loveland",
    "state_province": "Colorado",
    "postal_code": "80537-9202",
    "country": "United States",
    "longitude": -105.0925735,
    "latitude": 40.4058904,
    "phone": "9709808688",
    "website_url": null,
    "state": "Colorado",
    "street": "4229 W Eisenhower Blvd"
  },
  {
    "id": "cbe836b4-5236-4448-9587-b9da70e18355",
    "name": "BuckleDown Brewing",
    "brewery_type": "micro",
    "address_1": "8700 47th St",
    "address_2": null,
    "address_3": null,
    "city": "Lyons",
    "state_province": "Illinois",
    "postal_code": "60534-1626",
    "country": "United States",
    "longitude": -87.8034082,
    "latitude": 41.8083636,
    "phone": "7087771842",
    "website_url": "http://buckledownbrewing.com",
    "state": "Illinois",
    "street": "8700 47th St"
  },
  {
    "id": "f58e18b4-a2ff-4917-8bb3-d9a5e852add6",
    "name": "Bucks County Brewery",
    "brewery_type": "micro",
    "address_1": "31 Appletree Ln",
    "address_2": null,
    "address_3": null,
    "city": "Pipersville",
    "state_province": "Pennsylvania",
    "postal_code": "18947-1083",
    "country": "United States",
    "longitude": null,
    "latitude": null,
    "phone": "6094392468",
    "website_url": "http://www.buckscountybrewery.com",
    "state": "Pennsylvania",
    "street": "31 Appletree Ln"
  },
  {
    "id": "245f05e1-8216-45f4-9a5d-d8f6f600719a",
    "name": "Buckwheat Brewing",
    "brewery_type": "brewpub",
    "address_1": "148 E Main St",
    "address_2": null,
    "address_3": null,
    "city": "Dayton",
    "state_province": "Washington",
    "postal_code": "99328-1351",
    "country": "United States",
    "longitude": -117.9811345,
    "latitude": 46.3192285,
    "phone": "5093824677",
    "website_url": "https://buckwheatbrewing.com",
    "state": "Washington",
    "street": "148 E Main St"
  },
  {
    "id": "7ce4f9c5-bf79-4d42-b7bb-aaa70cd2e069",
    "name": "Buffalo Bayou Brewing Co",
    "brewery_type": "micro",
    "address_1": "5301 Nolda St",
    "address_2": null,
    "address_3": null,
    "city": "Houston",
    "state_province": "Texas",
    "postal_code": "77007-2234",
    "country": "United States",
    "longitude": -95.4160849,
    "latitude": 29.775978,
    "phone": "7137509795",
    "website_url": "http://www.buffbrew.com",
    "state": "Texas",
    "street": "5301 Nolda St"
  },
  {
    "id": "d0d1897a-d4d4-46e1-9f35-5c21cf0b49a5",
    "name": "Buffalo Bills Brewery",
    "brewery_type": "brewpub",
    "address_1": "1082 B St",
    "address_2": null,
    "address_3": null,
    "city": "Hayward",
    "state_province": "California",
    "postal_code": "94541-4108",
    "country": "United States",
    "longitude": -122.0768666,
    "latitude": 37.6770284,
    "phone": "5108869823",
    "website_url": "http://www.buffalobillsbrewery.com",
    "state": "California",
    "street": "1082 B St"
  },
  {
    "id": "28001115-35a0-41eb-93f3-c5f2de448461",
    "name": "Buffalo Brewing Co",
    "brewery_type": "planning",
    "address_1": "790 Hop Rd",
    "address_2": null,
    "address_3": null,
    "city": "Toppenish",
    "state_province": "Washington",
    "postal_code": "98948-9674",
    "country": "United States",
    "longitude": -120.1634675,
    "latitude": 46.23727233,
    "phone": null,
    "website_url": null,
    "state": "Washington",
    "street": "790 Hop Rd"
  },
  {
    "id": "3bcf5ff2-81b5-4805-ad50-92ec6d059d3c",
    "name": "Buffalo Brewing Company",
    "brewery_type": "micro",
    "address_1": "314 Myrtle Ave",
    "address_2": null,
    "address_3": null,
    "city": "Buffalo",
    "state_province": "New York",
    "postal_code": "14204-2058",
    "country": "United States",
    "longitude": -78.85968835,
    "latitude": 42.87851264,
    "phone": "7168682218",
    "website_url": "http://www.buffalo-brewing-company.com",
    "state": "New York",
    "street": "314 Myrtle Ave"
  },
  {
    "id": "56325083-b952-40de-b38c-76beb3b3b876",
    "name": "Buffalo Brewing Company At The Water Buffalo",
    "brewery_type": "micro",
    "address_1": "106 S Rodney Parham Rd",
    "address_2": null,
    "address_3": null,
    "city": "Little Rock",
    "state_province": "Arkansas",
    "postal_code": "72205",
    "country": "United States",
    "longitude": -92.366648,
    "latitude": 34.752616,
    "phone": "5012311062",
    "website_url": "http://www.thewaterbuffalo.com",
    "state": "Arkansas",
    "street": "106 S Rodney Parham Rd"
  },
  {
    "id": "b52360f6-016f-453a-b9e1-67c5d0ca9b60",
    "name": "Buffalo Brewpub",
    "brewery_type": "brewpub",
    "address_1": "6861 Main St",
    "address_2": null,
    "address_3": null,
    "city": "Buffalo",
    "state_province": "New York",
    "postal_code": "14221-5929",
    "country": "United States",
    "longitude": -78.831057,
    "latitude": 42.946564,
    "phone": "7166320552",
    "website_url": "http://www.buffalobrewpub.com",
    "state": "New York",
    "street": "6861 Main St"
  },
  {
    "id": "6bd08522-4294-441d-8727-1e7c61e19e41",
    "name": "Buffalo Commons Brewing Company",
    "brewery_type": "micro",
    "address_1": "2307 Memorial Hwy",
    "address_2": null,
    "address_3": null,
    "city": "Mandan",
    "state_province": "North Dakota",
    "postal_code": "58554-4624",
    "country": "United States",
    "longitude": -100.8618267,
    "latitude": 46.82409056,
    "phone": "7015952255",
    "website_url": "http://www.buffalocommonsbeer.com",
    "state": "North Dakota",
    "street": "2307 Memorial Hwy"
  },
  {
    "id": "0e2a877e-eb87-46bc-a614-c27999391442",
    "name": "Buffalo Creek Brewing",
    "brewery_type": "micro",
    "address_1": "360 Historical Ln",
    "address_2": null,
    "address_3": null,
    "city": "Long Grove",
    "state_province": "Illinois",
    "postal_code": "60047-9613",
    "country": "United States",
    "longitude": -87.99776222,
    "latitude": 42.17719457,
    "phone": "8478216140",
    "website_url": "http://www.facebook.com/buffalocreekbrewing",
    "state": "Illinois",
    "street": "360 Historical Ln"
  },
  {
    "id": "c32ab865-0ed9-4136-bffe-f5d61dff11f4",
    "name": "Buffalo Mountain Brewery",
    "brewery_type": "micro",
    "address_1": "332 Webbs Mill Rd N",
    "address_2": null,
    "address_3": null,
    "city": "Floyd",
    "state_province": "Virginia",
    "postal_code": "24091",
    "country": "United States",
    "longitude": -80.32462582,
    "latitude": 36.92079563,
    "phone": null,
    "website_url": null,
    "state": "Virginia",
    "street": "332 Webbs Mill Rd N"
  },
  {
    "id": "52c75863-28c7-43cf-8700-3357885beea3",
    "name": "Buffalo Ridge Brewing",
    "brewery_type": "micro",
    "address_1": "102 N Main Ave",
    "address_2": null,
    "address_3": null,
    "city": "Hartford",
    "state_province": "South Dakota",
    "postal_code": "57033-2165",
    "country": "United States",
    "longitude": -96.94549247,
    "latitude": 43.62226751,
    "phone": "6055282739",
    "website_url": "http://buffaloridgebrewing.com",
    "state": "South Dakota",
    "street": "102 N Main Ave"
  },
  {
    "id": "84d94163-0441-44eb-bd8d-c8d05005ff32",
    "name": "Buffalo RiverWorks Brewery",
    "brewery_type": "brewpub",
    "address_1": "359 Ganson St",
    "address_2": null,
    "address_3": null,
    "city": "Buffalo",
    "state_province": "New York",
    "postal_code": "14203-3062",
    "country": "United States",
    "longitude": -78.87249292,
    "latitude": 42.8696795,
    "phone": "7163422292",
    "website_url": "http://www.buffaloriverworks.com",
    "state": "New York",
    "street": "359 Ganson St"
  },
  {
    "id": "89c19afc-7874-4372-8edf-1e86f9e0fe90",
    "name": "Buffalo Theory Brewing Co. LLC",
    "brewery_type": "planning",
    "address_1": null,
    "address_2": null,
    "address_3": null,
    "city": "Merritt Island",
    "state_province": "Florida",
    "postal_code": "32953-3222",
    "country": "United States",
    "longitude": null,
    "latitude": null,
    "phone": null,
    "website_url": "http://www.Buffalotheorybrewingco.com",
    "state": "Florida",
    "street": null
  },
  {
    "id": "b9a37b8e-13e6-4c20-aeda-c19bdc6a0804",
    "name": "Buffalo Water Beer Co",
    "brewery_type": "closed",
    "address_1": "309 N Water St, #315",
    "address_2": null,
    "address_3": null,
    "city": "Milwaukee",
    "state_province": "Wisconsin",
    "postal_code": "53202-5710",
    "country": "United States",
    "longitude": -87.9092089,
    "latitude": 43.0341323,
    "phone": "4142734680",
    "website_url": "http://www.buffalowaterbeer.com",
    "state": "Wisconsin",
    "street": "309 N Water St, #315"
  },
  {
    "id": "ebeb8215-5ffe-4bd6-af1f-d39016bc77e4",
    "name": "Bugnutty Brewing Company",
    "brewery_type": "brewpub",
    "address_1": "715 N Courtenay Pkwy",
    "address_2": null,
    "address_3": null,
    "city": "Merritt Island",
    "state_province": "Florida",
    "postal_code": "32953-4651",
    "country": "United States",
    "longitude": null,
    "latitude": null,
    "phone": "3214524460",
    "website_url": "http://www.bugnutty.com",
    "state": "Florida",
    "street": "715 N Courtenay Pkwy"
  },
  {
    "id": "30c2ef0c-ca81-4b5a-b0b1-63df9cc9c586",
    "name": "Bugu Brewing Company",
    "brewery_type": "nano",
    "address_1": "14751 N Kelsey St",
    "address_2": null,
    "address_3": null,
    "city": "Monroe",
    "state_province": "Washington",
    "postal_code": "98272-1457",
    "country": "United States",
    "longitude": -121.975204,
    "latitude": 47.864025,
    "phone": "3602433364",
    "website_url": "https://www.bugubrewing.com",
    "state": "Washington",
    "street": "14751 N Kelsey St"
  },
  {
    "id": "f20f4c6b-9e45-4ff6-af3e-c3f11d6a1828",
    "name": "Building 8 Brewing",
    "brewery_type": "micro",
    "address_1": "320 Riverside Dr Ste 8",
    "address_2": null,
    "address_3": null,
    "city": "Florence",
    "state_province": "Massachusetts",
    "postal_code": "01062-2750",
    "country": "United States",
    "longitude": null,
    "latitude": null,
    "phone": "4132501602",
    "website_url": null,
    "state": "Massachusetts",
    "street": "320 Riverside Dr Ste 8"
  },
  {
    "id": "3a0cfc97-fb6d-4485-9aee-1df7b8c8091a",
    "name": "Bull & Bones Brewhaus & Grill",
    "brewery_type": "brewpub",
    "address_1": "1470 S Main St Ste 120",
    "address_2": null,
    "address_3": null,
    "city": "Blacksburg",
    "state_province": "Virginia",
    "postal_code": "24060-5571",
    "country": "United States",
    "longitude": null,
    "latitude": null,
    "phone": "5409532855",
    "website_url": "http://www.bullandbones.com",
    "state": "Virginia",
    "street": "1470 S Main St Ste 120"
  },
  {
    "id": "a235f4c4-1a4f-4ef7-bbaf-b95142e2bd44",
    "name": "Bull & Bush Brewery",
    "brewery_type": "brewpub",
    "address_1": "4700 E Cherry Creek South Dr",
    "address_2": null,
    "address_3": null,
    "city": "Denver",
    "state_province": "Colorado",
    "postal_code": "80246-1819",
    "country": "United States",
    "longitude": -104.9488456,
    "latitude": 39.7116689,
    "phone": "3037590333",
    "website_url": "http://www.bullandbush.com",
    "state": "Colorado",
    "street": "4700 E Cherry Creek South Dr"
  },
  {
    "id": "efc9b189-81df-447a-a2eb-c94828d4d275",
    "name": "Bull and Barrel Brew Pub",
    "brewery_type": "brewpub",
    "address_1": "988 Route 22",
    "address_2": null,
    "address_3": null,
    "city": "Brewster",
    "state_province": "New York",
    "postal_code": "10509-1576",
    "country": "United States",
    "longitude": null,
    "latitude": null,
    "phone": "8452782855",
    "website_url": "http://www.bullandbarrelbrewpub.com",
    "state": "New York",
    "street": "988 Route 22"
  },
  {
    "id": "cd922df7-7e27-4fdd-9beb-a203c859b25f",
    "name": "Bull and Goat Brewery",
    "brewery_type": "micro",
    "address_1": "204 Banjo Ln",
    "address_2": null,
    "address_3": null,
    "city": "Centreville",
    "state_province": "Maryland",
    "postal_code": "21617-1067",
    "country": "United States",
    "longitude": null,
    "latitude": null,
    "phone": null,
    "website_url": "http://www.bullandgoatbrewery.com",
    "state": "Maryland",
    "street": "204 Banjo Ln"
  },
  {
    "id": "d89ba7ba-c249-48a2-bae7-48f3b39cb18f",
    "name": "Bull City Burger And Brewery",
    "brewery_type": "brewpub",
    "address_1": "107 E Parrish St Ste 105",
    "address_2": null,
    "address_3": null,
    "city": "Durham",
    "state_province": "North Carolina",
    "postal_code": "27701-3318",
    "country": "United States",
    "longitude": null,
    "latitude": null,
    "phone": "9196802333",
    "website_url": "http://www.bullcityburgerandbrewery.com",
    "state": "North Carolina",
    "street": "107 E Parrish St Ste 105"
  },
  {
    "id": "2a1e79cc-7f90-4309-a7c7-ab03566417dd",
    "name": "Bull Creek Brewing Company",
    "brewery_type": "proprietor",
    "address_1": "7100 FM3405",
    "address_2": null,
    "address_3": null,
    "city": "Liberty Hill",
    "state_province": "Texas",
    "postal_code": "78642",
    "country": "United States",
    "longitude": null,
    "latitude": null,
    "phone": "5128399510",
    "website_url": "http://www.bullcreekbrewing.com",
    "state": "Texas",
    "street": "7100 FM3405"
  },
  {
    "id": "6e967aa2-6e2b-4396-ac4e-d4cd8119cbb3",
    "name": "Bull Durham Beer Co",
    "brewery_type": "micro",
    "address_1": "409 Blackwell St",
    "address_2": null,
    "address_3": null,
    "city": "Durham",
    "state_province": "North Carolina",
    "postal_code": "27701-3972",
    "country": "United States",
    "longitude": -78.90481568,
    "latitude": 35.9915653,
    "phone": "9197443568",
    "website_url": "http://www.bulldurhambeer.com",
    "state": "North Carolina",
    "street": "409 Blackwell St"
  },
  {
    "id": "553af7a3-d288-43f0-b635-aee72520cf49",
    "name": "Bull Falls Brewery LLC",
    "brewery_type": "micro",
    "address_1": "901 E Thomas St",
    "address_2": null,
    "address_3": null,
    "city": "Wausau",
    "state_province": "Wisconsin",
    "postal_code": "54403-6450",
    "country": "United States",
    "longitude": -89.6174386,
    "latitude": 44.951511,
    "phone": "715842",
    "website_url": "http://www.bullfallsbrewery.com",
    "state": "Wisconsin",
    "street": "901 E Thomas St"
  }
]