[
  {
    "id": "64749ace-0bca-4548-83e4-c6465547c60f",
    "name": "Ashby Brewing Company",
    "brewery_type": "micro",
    "address_1": "109 Main St",
    "address_2": null,
    "address_3": null,
    "city": "Ashby",
    "state_province": "Minnesota",
    "postal_code": "56309-4687",
    "country": "United States",
    "longitude": -95.81621756,
    "latitude": 46.09300639,
    "phone": "8886350291",
    "website_url": "http://www.abcbrewing.net",
    "state": "Minnesota",
    "street": "109 Main St"
  },
  {
    "id": "051edb66-62ad-455e-a04a-d6a0e5fa4178",
    "name": "Asher Brewing Co",
    "brewery_type": "micro",
    "address_1": "4699 Nautilus Ct S Ste 104",
    "address_2": null,
    "address_3": null,
    "city": "Boulder",
    "state_province": "Colorado",
    "postal_code": "80301-5306",
    "country": "United States",
    "longitude": null,
    "latitude": null,
    "phone": "3035301381",
    "website_url": "http://asherbrewing.com",
    "state": "Colorado",
    "street": "4699 Nautilus Ct S Ste 104"
  },
  {
    "id": "b5671147-4dec-4e19-b256-79a2f03b94e9",
    "name": "Asheville Brewing Co",
    "brewery_type": "brewpub",
    "address_1": "77 Coxe Ave",
    "address_2": null,
    "address_3": null,
    "city": "Asheville",
    "state_province": "North Carolina",
    "postal_code": "28801-3621",
    "country": "United States",
    "longitude": -82.55530545,
    "latitude": 35.5917763,
    "phone": "8282554077",
    "website_url": "http://www.ashevillepizza.com",
    "state": "North Carolina",
    "street": "77 Coxe Ave"
  },
  {
    "id": "3638576a-b41f-4ffc-a039-9d2b27df4a47",
    "name": "Ashtown Brewing Co",
    "brewery_type": "micro",
    "address_1": "1145 11th Ave",
    "address_2": null,
    "address_3": null,
    "city": "Longview",
    "state_province": "Washington",
    "postal_code": "98632",
    "country": "United States",
    "longitude": -122.9330459,
    "latitude": 46.13507657,
    "phone": "3602187519",
    "website_url": "http://www.ashtownbrewing.com",
    "state": "Washington",
    "street": "1145 11th Ave"
  },
  {
    "id": "799a4fc7-16fb-40e7-9fd5-4664da3976f3",
    "name": "Ashuelot Brewing Company",
    "brewery_type": "closed",
    "address_1": "101 Old County Rd",
    "address_2": null,
    "address_3": null,
    "city": "Richmond",
    "state_province": "New Hampshire",
    "postal_code": "03470-4918",
    "country": "United States",
    "longitude": -72.23236816,
    "latitude": 42.75946232,
    "phone": null,
    "website_url": null,
    "state": "New Hampshire",
    "street": "101 Old County Rd"
  },
  {
    "id": "e5c53698-deb0-4bb9-ab37-56db1bc09efb",
    "name": "Asia Pacific Breweries Pte Ltd",
    "brewery_type": "large",
    "address_1": "459 Jalan Ahmad Ibrahim",
    "address_2": null,
    "address_3": null,
    "city": "Singapore",
    "state_province": "Singapore",
    "postal_code": "639934",
    "country": "Singapore",
    "longitude": 1.3365111315439,
    "latitude": 103.64778327672,
    "phone": "+65 6861 6200",
    "website_url": "https://www.apbsingapore.com.sg/",
    "state": "Singapore",
    "street": "459 Jalan Ahmad Ibrahim"
  },
  {
    "id": "be30d928-4a14-45eb-a944-89b01b544080",
    "name": "Aslan Brewing Company",
    "brewery_type": "micro",
    "address_1": "1330 N Forest St",
    "address_2": null,
    "address_3": null,
    "city": "Bellingham",
    "state_province": "Washington",
    "postal_code": "98225-4702",
    "country": "United States",
    "longitude": -122.4754509,
    "latitude": 48.74801531,
    "phone": "3603934106",
    "website_url": "http://aslanbrewing.com",
    "state": "Washington",
    "street": "1330 N Forest St"
  },
  {
    "id": "9c9090eb-a361-47e7-b2e5-06fefe21eef7",
    "name": "Aslan Brewing Seattle",
    "brewery_type": "micro",
    "address_1": "401 N 36th St Ste 102",
    "address_2": null,
    "address_3": null,
    "city": "Seattle",
    "state_province": "Washington",
    "postal_code": "98103-8630",
    "country": "United States",
    "longitude": -122.354134,
    "latitude": 47.652201,
    "phone": "3603934106",
    "website_url": "https://aslanbrewing.com/seattle",
    "state": "Washington",
    "street": "401 N 36th St Ste 102"
  },
  {
    "id": "59bdcaa8-a690-429d-8f85-539eb4e57120",
    "name": "Aslin Beer Company",
    "brewery_type": "micro",
    "address_1": "257 Sunset Park Dr.",
    "address_2": null,
    "address_3": null,
    "city": "Herndon",
    "state_province": "Virginia",
    "postal_code": "20170",
    "country": "United States",
    "longitude": null,
    "latitude": null,
    "phone": "7037875766",
    "website_url": "http://www.aslinbeer.com",
    "state": "Virginia",
    "street": "257 Sunset Park Dr."
  },
  {
    "id": "5b2501b2-d069-4e5f-8c6b-ef9f6ee408cd",
    "name": "Aspen Brewing Company",
    "brewery_type": "micro",
    "address_1": "404 Aspen Airport Business Ctr",
    "address_2": null,
    "address_3": null,
    "city": "Aspen",
    "state_province": "Colorado",
    "postal_code": "81611-3530",
    "country": "United States",
    "longitude": -106.8597747,
    "latitude": 39.22153402,
    "phone": "9709202739",
    "website_url": "http://www.aspenbrewingcompany.com",
    "state": "Colorado",
    "street": "404 Aspen Airport Business Ctr"
  },
  {
    "id": "60195a53-786c-4540-ae1d-a3bbca7a41fd",
    "name": "Aspetuck Brew Lab",
    "brewery_type": "micro",
    "address_1": "3389 Fairfield Avenue",
    "address_2": null,
    "address_3": null,
    "city": "Bridgeport",
    "state_province": "Connecticut",
    "postal_code": "06605",
    "country": "United States",
    "longitude": -73.2357109,
    "latitude": 41.1544649,
    "phone": "2032539423",
    "website_url": "http://www.aspetuckbrewlab.com",
    "state": "Connecticut",
    "street": "3389 Fairfield Avenue"
  },
  {
    "id": "eafb7a5f-83c9-427b-b894-8ea1d0751c31",
    "name": "Ass Clown Brewing Co",
    "brewery_type": "micro",
    "address_1": "10620 Bailey Rd Ste E",
    "address_2": null,
    "address_3": null,
    "city": "Cornelius",
    "state_province": "North Carolina",
    "postal_code": "28031-9364",
    "country": "United States",
    "longitude": null,
    "latitude": null,
    "phone": "9805050399",
    "website_url": "http://www.assclownbrewery.com",
    "state": "North Carolina",
    "street": "10620 Bailey Rd Ste E"
  },
  {
    "id": "4cabbfbc-d07c-40b0-b5f5-fa456c22b7a2",
    "name": "Assembly brewing",
    "brewery_type": "planning",
    "address_1": null,
    "address_2": null,
    "address_3": null,
    "city": "Portland",
    "state_province": "Oregon",
    "postal_code": "97206-3739",
    "country": "United States",
    "longitude": -122.6003912,
    "latitude": 45.491048,
    "phone": "5037299080",
    "website_url": "http://www.assemblybrewingco.com",
    "state": "Oregon",
    "street": null
  },
  {
    "id": "215dc8f1-754b-4dac-a448-255375c5a8d9",
    "name": "Aston Abbey Brewing Co",
    "brewery_type": "micro",
    "address_1": "340 Turner Industrial Way",
    "address_2": null,
    "address_3": null,
    "city": "Aston",
    "state_province": "Pennsylvania",
    "postal_code": "19014-3014",
    "country": "United States",
    "longitude": null,
    "latitude": null,
    "phone": "6102452178",
    "website_url": "http://www.astonabbeybrewing.com",
    "state": "Pennsylvania",
    "street": "340 Turner Industrial Way"
  },
  {
    "id": "686e0f81-196a-4e76-9b73-2e3957c7b871",
    "name": "Astoria Brewing Company",
    "brewery_type": "micro",
    "address_1": "1196 Marine Dr",
    "address_2": null,
    "address_3": null,
    "city": "Astoria",
    "state_province": "Oregon",
    "postal_code": "97103-4112",
    "country": "United States",
    "longitude": -123.831516,
    "latitude": 46.18980259,
    "phone": "5037413040",
    "website_url": null,
    "state": "Oregon",
    "street": "1196 Marine Dr"
  },
  {
    "id": "d916497e-0b1b-48aa-8add-10a62c0b3e90",
    "name": "Astral Brewing",
    "brewery_type": "micro",
    "address_1": "4816 N Shepherd Dr suite a",
    "address_2": null,
    "address_3": null,
    "city": "Houston",
    "state_province": "Texas",
    "postal_code": "77018",
    "country": "United States",
    "longitude": null,
    "latitude": null,
    "phone": "7135341067",
    "website_url": "https://www.astralbrewing.com",
    "state": "Texas",
    "street": "4816 N Shepherd Dr suite a"
  },
  {
    "id": "d94c95b9-509c-4d53-86a6-769555e1773e",
    "name": "Astro Lab Brewing",
    "brewery_type": "planning",
    "address_1": null,
    "address_2": null,
    "address_3": null,
    "city": "Silver Spring",
    "state_province": "Maryland",
    "postal_code": "20910-4519",
    "country": "United States",
    "longitude": null,
    "latitude": null,
    "phone": "3106910475",
    "website_url": "http://www.astrolabbrewing.com",
    "state": "Maryland",
    "street": null
  },
  {
    "id": "e49978bd-c6d2-46c6-a3a4-50964ab4f783",
    "name": "Astronomy Aleworks",
    "brewery_type": "planning",
    "address_1": null,
    "address_2": null,
    "address_3": null,
    "city": "Henderson",
    "state_province": "Nevada",
    "postal_code": "89011",
    "country": "United States",
    "longitude": null,
    "latitude": null,
    "phone": "7023754968",
    "website_url": "http://astronomyaleworks.com",
    "state": "Nevada",
    "street": null
  },
  {
    "id": "7b552890-643d-4615-a73b-791cff62299b",
    "name": "Asylum Brewing",
    "brewery_type": "micro",
    "address_1": "2970 E. La Palma Ave. Suite D",
    "address_2": null,
    "address_3": null,
    "city": "Anaheim",
    "state_province": "California",
    "postal_code": "92806",
    "country": "United States",
    "longitude": -117.8612062,
    "latitude": 33.84988007,
    "phone": "9494495191",
    "website_url": "http://Www.asylumbrewing.beer",
    "state": "California",
    "street": "2970 E. La Palma Ave. Suite D"
  },
  {
    "id": "f786b344-af07-4b30-a236-93a93314f9d5",
    "name": "At Ease Brewing",
    "brewery_type": "planning",
    "address_1": null,
    "address_2": null,
    "address_3": null,
    "city": "Sacramento",
    "state_province": "California",
    "postal_code": "95811-3003",
    "country": "United States",
    "longitude": -121.4943996,
    "latitude": 38.5815719,
    "phone": "9167362267",
    "website_url": "http://www.ateasebrewing.com",
    "state": "California",
    "street": null
  },
  {
    "id": "05f7ec4a-c1ed-4494-a2b0-5ef1ce6a8022",
    "name": "At Large Brewing",
    "brewery_type": "micro",
    "address_1": "2730 W Marine View Dr",
    "address_2": null,
    "address_3": null,
    "city": "Everett",
    "state_province": "Washington",
    "postal_code": "98201-3421",
    "country": "United States",
    "longitude": -122.2146867,
    "latitude": 47.9808918,
    "phone": "4253240039",
    "website_url": "http://www.atlargebrewing.com",
    "state": "Washington",
    "street": "2730 W Marine View Dr"
  },
  {
    "id": "ba385e5a-6c50-431a-a820-21d783b9e0b1",
    "name": "Atco Brewing LLC",
    "brewery_type": "micro",
    "address_1": "302 White Horse Pike",
    "address_2": null,
    "address_3": null,
    "city": "Atco",
    "state_province": "New Jersey",
    "postal_code": "08004-2209",
    "country": "United States",
    "longitude": -74.89973165,
    "latitude": 39.77167345,
    "phone": "6097072628",
    "website_url": "http://Www.atcobrewingcompany.com",
    "state": "New Jersey",
    "street": "302 White Horse Pike"
  },
  {
    "id": "be88a2bb-0975-416c-b9f4-c571ddf70e5c",
    "name": "Athens Brewing Co",
    "brewery_type": "brewpub",
    "address_1": "101 E Tyler St",
    "address_2": null,
    "address_3": null,
    "city": "Athens",
    "state_province": "Texas",
    "postal_code": "75751-2547",
    "country": "United States",
    "longitude": -95.852642,
    "latitude": 32.205458,
    "phone": "9039527493",
    "website_url": "http://www.athensbrewingco.com",
    "state": "Texas",
    "street": "101 E Tyler St"
  },
  {
    "id": "01dfa6a1-0ad4-4ac5-a184-1d6c69294460",
    "name": "Athletic Brewing Company",
    "brewery_type": "planning",
    "address_1": null,
    "address_2": null,
    "address_3": null,
    "city": "Stratford",
    "state_province": "Connecticut",
    "postal_code": "06615-7167",
    "country": "United States",
    "longitude": null,
    "latitude": null,
    "phone": "2032730422",
    "website_url": "http://www.AthleticBrewing.com",
    "state": "Connecticut",
    "street": null
  },
  {
    "id": "4e0403f6-c040-4d4c-b9fe-1f5a115b0172",
    "name": "Atlantic Beach Brewing Company",
    "brewery_type": "micro",
    "address_1": "725 Atlantic Blvd Suite 3",
    "address_2": null,
    "address_3": null,
    "city": "Atlantic Beach",
    "state_province": "Florida",
    "postal_code": "32233-3946",
    "country": "United States",
    "longitude": null,
    "latitude": null,
    "phone": "9048948426",
    "website_url": "http://www.atlanticbeachbrewingcompany.com",
    "state": "Florida",
    "street": "725 Atlantic Blvd Suite 3"
  },
  {
    "id": "5f353918-3d93-49ba-93d1-098a0ecf318f",
    "name": "Atlantic Brewing Co",
    "brewery_type": "micro",
    "address_1": "15 Knox Rd",
    "address_2": null,
    "address_3": null,
    "city": "Bar Harbor",
    "state_province": "Maine",
    "postal_code": "04609-7770",
    "country": "United States",
    "longitude": null,
    "latitude": null,
    "phone": "2072882337",
    "website_url": "http://atlanticbrewing.com",
    "state": "Maine",
    "street": "15 Knox Rd"
  },
  {
    "id": "36a6f65e-aa9d-45d5-9ce8-cbbc82ca9ab1",
    "name": "Atlantic Brewing Co / Bar Harbor Brewing",
    "brewery_type": "brewpub",
    "address_1": "52 Cottage Street Bar Harbor",
    "address_2": null,
    "address_3": null,
    "city": "Bar Harbor",
    "state_province": "Maine",
    "postal_code": "04609",
    "country": "United States",
    "longitude": -68.20607075,
    "latitude": 44.389488,
    "phone": "2072884592",
    "website_url": "http://www.barharborbrewing.com",
    "state": "Maine",
    "street": "52 Cottage Street Bar Harbor"
  },
  {
    "id": "41b3fd0e-0083-4f6a-96d8-dff2554e4731",
    "name": "Atlas Brew Works",
    "brewery_type": "micro",
    "address_1": "2052 W Virginia Ave NE Ste 102",
    "address_2": null,
    "address_3": null,
    "city": "Washington",
    "state_province": "District of Columbia",
    "postal_code": "20002-1832",
    "country": "United States",
    "longitude": null,
    "latitude": null,
    "phone": "2028320420",
    "website_url": "http://www.atlasbrewworks.com",
    "state": "District of Columbia",
    "street": "2052 W Virginia Ave NE Ste 102"
  },
  {
    "id": "325d44c0-53fb-4991-a694-659ac9f89fa9",
    "name": "Atom Brewing Company",
    "brewery_type": "micro",
    "address_1": "654 Moffat St",
    "address_2": null,
    "address_3": null,
    "city": "Erie",
    "state_province": "Colorado",
    "postal_code": "80516",
    "country": "United States",
    "longitude": -105.0542327,
    "latitude": 40.0488359,
    "phone": "8634120917",
    "website_url": "http://www.atombrewingcompany.com",
    "state": "Colorado",
    "street": "654 Moffat St"
  },
  {
    "id": "aaba0413-9bee-49ac-9bef-8159dcd353d0",
    "name": "Atomic Ale Brewpub and Eatery",
    "brewery_type": "brewpub",
    "address_1": "1015 Lee Blvd",
    "address_2": null,
    "address_3": null,
    "city": "Richland",
    "state_province": "Washington",
    "postal_code": "99352-4226",
    "country": "United States",
    "longitude": -119.2782003,
    "latitude": 46.27475515,
    "phone": "5099465465",
    "website_url": "http://www.atomicalebrewpub.com",
    "state": "Washington",
    "street": "1015 Lee Blvd"
  },
  {
    "id": "26567ffb-52fb-40b2-a31f-08f4ea3699b9",
    "name": "Atrevida Beer Company",
    "brewery_type": "micro",
    "address_1": "204 Mount View Ln Unit 3",
    "address_2": null,
    "address_3": null,
    "city": "Colorado Springs",
    "state_province": "Colorado",
    "postal_code": "80908",
    "country": "United States",
    "longitude": null,
    "latitude": null,
    "phone": "7192664200",
    "website_url": "http://www.atrevidabeerco.com",
    "state": "Colorado",
    "street": "204 Mount View Ln Unit 3"
  },
  {
    "id": "724a6296-cdac-4d35-92fd-cc44960010ff",
    "name": "Attaboy Beer",
    "brewery_type": "micro",
    "address_1": "400 Sagner Ave Ste 400",
    "address_2": null,
    "address_3": null,
    "city": "Frederick",
    "state_province": "Maryland",
    "postal_code": "21701-6083",
    "country": "United States",
    "longitude": null,
    "latitude": null,
    "phone": "4157106459",
    "website_url": null,
    "state": "Maryland",
    "street": "400 Sagner Ave Ste 400"
  },
  {
    "id": "87d71c35-9537-4ef1-b232-668bea736ffa",
    "name": "Attic Brewing",
    "brewery_type": "planning",
    "address_1": null,
    "address_2": null,
    "address_3": null,
    "city": "Philadelphia",
    "state_province": "Pennsylvania",
    "postal_code": "19144-3603",
    "country": "United States",
    "longitude": null,
    "latitude": null,
    "phone": "7082047376",
    "website_url": null,
    "state": "Pennsylvania",
    "street": null
  },
  {
    "id": "70fc7667-dda2-4cf0-ae7e-cbb43b5c43c4",
    "name": "Atwater Brewing Co",
    "brewery_type": "regional",
    "address_1": "237 Joseph Campau St",
    "address_2": null,
    "address_3": null,
    "city": "Detroit",
    "state_province": "Michigan",
    "postal_code": "48207-4107",
    "country": "United States",
    "longitude": -83.072904,
    "latitude": 42.4190883,
    "phone": "3138779205",
    "website_url": "http://www.atwaterbeer.com",
    "state": "Michigan",
    "street": "237 Joseph Campau St"
  },
  {
    "id": "14693124-55bc-43e9-817e-b99a85f662ac",
    "name": "Atwater Grand Rapids",
    "brewery_type": "brewpub",
    "address_1": "201 Michigan St NW",
    "address_2": null,
    "address_3": null,
    "city": "Grand Rapids",
    "state_province": "Michigan",
    "postal_code": "49503-2323",
    "country": "United States",
    "longitude": -85.672454,
    "latitude": 42.970463,
    "phone": "6166493020",
    "website_url": null,
    "state": "Michigan",
    "street": "201 Michigan St NW"
  },
  {
    "id": "89d36a6d-1226-4c61-b4c6-22676a55a364",
    "name": "Atwater In the Park Biergarten and Tap House",
    "brewery_type": "brewpub",
    "address_1": "1175 Lakepointe St",
    "address_2": null,
    "address_3": null,
    "city": "Grosse Pointe Park",
    "state_province": "Michigan",
    "postal_code": "48230-1319",
    "country": "United States",
    "longitude": -82.9399103,
    "latitude": 42.3814617,
    "phone": "3133445104",
    "website_url": "http://www.atwaterbeer.com",
    "state": "Michigan",
    "street": "1175 Lakepointe St"
  },
  {
    "id": "aa0195bf-8258-4262-89c4-af8a89793822",
    "name": "Atwood Ales",
    "brewery_type": "micro",
    "address_1": "4012 Sweet Rd",
    "address_2": null,
    "address_3": null,
    "city": "Blaine",
    "state_province": "Washington",
    "postal_code": "98230-9108",
    "country": "United States",
    "longitude": -122.6990459,
    "latitude": 48.97900614,
    "phone": "3603996239",
    "website_url": "http://www.atwoodales.com",
    "state": "Washington",
    "street": "4012 Sweet Rd"
  },
  {
    "id": "65706566-c0f6-4995-ae18-0b07feea8396",
    "name": "Atypical Brewery & Barrelworks",
    "brewery_type": "micro",
    "address_1": "510 Central Ave E",
    "address_2": null,
    "address_3": null,
    "city": "Minot",
    "state_province": "North Dakota",
    "postal_code": "58701-4056",
    "country": "United States",
    "longitude": -101.2854035,
    "latitude": 48.23634956,
    "phone": "7018330567",
    "website_url": "https://www.facebook.com/AtypicalBrew",
    "state": "North Dakota",
    "street": "510 Central Ave E"
  },
  {
    "id": "b556e8ca-eb4b-46c4-a1bc-b5bb2e33b605",
    "name": "Auburn Alehouse",
    "brewery_type": "brewpub",
    "address_1": "289 Washington St",
    "address_2": null,
    "address_3": null,
    "city": "Auburn",
    "state_province": "California",
    "postal_code": "95603-5036",
    "country": "United States",
    "longitude": -121.0789583,
    "latitude": 38.89612107,
    "phone": "5308852537",
    "website_url": "http://www.auburnalehouse.com",
    "state": "California",
    "street": "289 Washington St"
  },
  {
    "id": "b96d27cf-42b8-4791-8fb8-87840016e497",
    "name": "Auburn Brewing Company",
    "brewery_type": "planning",
    "address_1": null,
    "address_2": null,
    "address_3": null,
    "city": "Auburn",
    "state_province": "Indiana",
    "postal_code": "46706",
    "country": "United States",
    "longitude": null,
    "latitude": null,
    "phone": "2609081074",
    "website_url": null,
    "state": "Indiana",
    "street": null
  },
  {
    "id": "2728266c-bb3e-4e98-81b8-52489bc019ae",
    "name": "Audacious Aleworks",
    "brewery_type": "micro",
    "address_1": "110 E Fairfax St",
    "address_2": null,
    "address_3": null,
    "city": "Falls Church",
    "state_province": "Virginia",
    "postal_code": "22046",
    "country": "United States",
    "longitude": -77.17234359,
    "latitude": 38.88076482,
    "phone": null,
    "website_url": null,
    "state": "Virginia",
    "street": "110 E Fairfax St"
  },
  {
    "id": "bd7e4765-9179-47b5-8888-219d1af19fe1",
    "name": "Audacity Brewing",
    "brewery_type": "closed",
    "address_1": "1208 10th St Ste C",
    "address_2": null,
    "address_3": null,
    "city": "Snohomish",
    "state_province": "Washington",
    "postal_code": "98290",
    "country": "United States",
    "longitude": -122.0966776,
    "latitude": 47.925023,
    "phone": "3602948742",
    "website_url": "http://www.audacitybrewing.com",
    "state": "Washington",
    "street": "1208 10th St Ste C"
  },
  {
    "id": "e8f104ff-0e7e-429d-b3da-ae6655830e8c",
    "name": "August Schell Brewing Co",
    "brewery_type": "regional",
    "address_1": "Schells Park/1860 Schell Rd",
    "address_2": null,
    "address_3": null,
    "city": "New Ulm",
    "state_province": "Minnesota",
    "postal_code": "56073",
    "country": "United States",
    "longitude": null,
    "latitude": null,
    "phone": "5073545528",
    "website_url": "http://www.schellsbrewery.com",
    "state": "Minnesota",
    "street": "Schells Park/1860 Schell Rd"
  },
  {
    "id": "895ef2f2-7ce5-44c7-af97-ee9c7cce774b",
    "name": "Augusta Brewing Co",
    "brewery_type": "brewpub",
    "address_1": "109 W Main St",
    "address_2": null,
    "address_3": null,
    "city": "Washington",
    "state_province": "Missouri",
    "postal_code": "63090-2191",
    "country": "United States",
    "longitude": -91.01173472,
    "latitude": 38.56026935,
    "phone": "6362395010",
    "website_url": "http://www.augustabrewing.com",
    "state": "Missouri",
    "street": "109 W Main St"
  },
  {
    "id": "9209ed61-b9dd-4b06-bf2c-8cacbef097f8",
    "name": "Augustino Brewing",
    "brewery_type": "brewpub",
    "address_1": "756 N Tyler Rd",
    "address_2": null,
    "address_3": null,
    "city": "Wichita",
    "state_province": "Kansas",
    "postal_code": "67212-3617",
    "country": "United States",
    "longitude": -97.44431468,
    "latitude": 37.69517328,
    "phone": "3167215554",
    "website_url": "http://www.augustinobrew.com",
    "state": "Kansas",
    "street": "756 N Tyler Rd"
  },
  {
    "id": "506f8ec3-7cac-42c1-b7fd-9fe1a5865b2c",
    "name": "Aurochs Brewing Company",
    "brewery_type": "micro",
    "address_1": "8321 Ohio River Blvd",
    "address_2": null,
    "address_3": null,
    "city": "Pittsburgh",
    "state_province": "Pennsylvania",
    "postal_code": "15202-1451",
    "country": "United States",
    "longitude": -80.0221567,
    "latitude": 40.4488158,
    "phone": "7242608737",
    "website_url": null,
    "state": "Pennsylvania",
    "street": "8321 Ohio River Blvd"
  },
  {
    "id": "74f46cc4-156c-4986-b653-b5240678ff54",
    "name": "Aurora Ale & Lager",
    "brewery_type": "micro",
    "address_1": "1891 State Route 90 N",
    "address_2": null,
    "address_3": null,
    "city": "King Ferry",
    "state_province": "New York",
    "postal_code": "13081-9719",
    "country": "United States",
    "longitude": null,
    "latitude": null,
    "phone": null,
    "website_url": "http://www.brewaurora.com",
    "state": "New York",
    "street": "1891 State Route 90 N"
  },
  {
    "id": "16ead71f-bbd5-4b34-b434-a3bc7849349f",
    "name": "Ausable Brewing Co",
    "brewery_type": "micro",
    "address_1": "765 Mace Chasm Rd",
    "address_2": null,
    "address_3": null,
    "city": "Keeseville",
    "state_province": "New York",
    "postal_code": "12944-2425",
    "country": "United States",
    "longitude": null,
    "latitude": null,
    "phone": "3152443295",
    "website_url": "http://ausablebrewing.tumblr.com",
    "state": "New York",
    "street": "765 Mace Chasm Rd"
  },
  {
    "id": "9a280fbb-adee-484a-876b-50e71235a711",
    "name": "Austin Beerworks",
    "brewery_type": "regional",
    "address_1": "3001 Industrial Ter",
    "address_2": null,
    "address_3": null,
    "city": "Austin",
    "state_province": "Texas",
    "postal_code": "78758-7609",
    "country": "United States",
    "longitude": -97.72984444,
    "latitude": 30.3795705,
    "phone": "5128212494",
    "website_url": "http://www.austinbeerworks.com",
    "state": "Texas",
    "street": "3001 Industrial Ter"
  },
  {
    "id": "26079ee9-0313-425a-84b6-25d0eda4f596",
    "name": "Austin Brothers' Beer Company",
    "brewery_type": "brewpub",
    "address_1": "821 W Miller St",
    "address_2": null,
    "address_3": null,
    "city": "Alpena",
    "state_province": "Michigan",
    "postal_code": "49707-1825",
    "country": "United States",
    "longitude": -83.43583578,
    "latitude": 45.07296998,
    "phone": "9893402300",
    "website_url": "http://www.austinbrosbeerco.com",
    "state": "Michigan",
    "street": "821 W Miller St"
  }
]