[
  {
    "id": "3a0d142a-68f3-4dac-8c32-31513fca14d0",
    "name": "Napa Valley Brewing Co/ Calistoga Inn",
    "brewery_type": "brewpub",
    "address_1": "1250 Lincoln Ave",
    "address_2": null,
    "address_3": null,
    "city": "Calistoga",
    "state_province": "California",
    "postal_code": "94515-1741",
    "country": "United States",
    "longitude": -122.5796312,
    "latitude": 38.57693444,
    "phone": "7079424101",
    "website_url": "http://www.napabeer.com",
    "state": "California",
    "street": "1250 Lincoln Ave"
  },
  {
    "id": "f40926c8-e9e3-490b-9756-0972db299bcf",
    "name": "Naples Beach Brewery",
    "brewery_type": "micro",
    "address_1": "4110 Enterprise Ave Ste 217",
    "address_2": null,
    "address_3": null,
    "city": "Naples",
    "state_province": "Florida",
    "postal_code": "34104-7084",
    "country": "United States",
    "longitude": null,
    "latitude": null,
    "phone": "2393048795",
    "website_url": "http://www.naplesbeachbrewery.com",
    "state": "Florida",
    "street": "4110 Enterprise Ave Ste 217"
  },
  {
    "id": "f30c94db-0f97-492d-be18-e0e0d362e360",
    "name": "Narragansett Brewing Co - Pawtucket",
    "brewery_type": "regional",
    "address_1": "461 Main St",
    "address_2": null,
    "address_3": null,
    "city": "Pawtucket",
    "state_province": "Rhode Island",
    "postal_code": "02860-2913",
    "country": "United States",
    "longitude": -71.38847715,
    "latitude": 41.87668875,
    "phone": "4014378970",
    "website_url": "http://www.narragansettbeer.com",
    "state": "Rhode Island",
    "street": "461 Main St"
  },
  {
    "id": "29d69ef0-65de-402a-a98f-7c6db6ae5271",
    "name": "Narragansett Brewing Co - Providence",
    "brewery_type": "brewpub",
    "address_1": "271 Tockwotton St",
    "address_2": null,
    "address_3": null,
    "city": "Providence",
    "state_province": "Rhode Island",
    "postal_code": "02903-4356",
    "country": "United States",
    "longitude": -71.3904225,
    "latitude": 41.8185153,
    "phone": "4014378970",
    "website_url": "http://www.narragansettbeer.com",
    "state": "Rhode Island",
    "street": "271 Tockwotton St"
  },
  {
    "id": "02e33b6d-ac7d-44ad-8b38-cb1c8ebea1e7",
    "name": "Narrow Gauge Brewing Company",
    "brewery_type": "brewpub",
    "address_1": "1595 N Highway 67 St",
    "address_2": null,
    "address_3": null,
    "city": "Florissant",
    "state_province": "Missouri",
    "postal_code": "63031-4606",
    "country": "United States",
    "longitude": -90.319028,
    "latitude": 38.799,
    "phone": "3148313222",
    "website_url": "http://www.narrowgaugestl.com",
    "state": "Missouri",
    "street": "1595 N Highway 67 St"
  },
  {
    "id": "659f6d61-f3e0-431f-9da0-9234fe22b6b3",
    "name": "Narrow Path Brewing Company",
    "brewery_type": "micro",
    "address_1": "106 Karl Brown Way",
    "address_2": null,
    "address_3": null,
    "city": "Loveland",
    "state_province": "Ohio",
    "postal_code": "45140-2902",
    "country": "United States",
    "longitude": null,
    "latitude": null,
    "phone": "5133123414",
    "website_url": "http://www.narrowpathbrewing.com",
    "state": "Ohio",
    "street": "106 Karl Brown Way"
  },
  {
    "id": "c1b991c2-5780-4e19-b925-c9c1adb89df9",
    "name": "Narrows Brewing Company",
    "brewery_type": "micro",
    "address_1": "9007 S 19th St",
    "address_2": null,
    "address_3": null,
    "city": "Tacoma",
    "state_province": "Washington",
    "postal_code": "98466-1819",
    "country": "United States",
    "longitude": -122.5022378,
    "latitude": 47.2428871,
    "phone": "2533271400",
    "website_url": "http://www.narrowsbrewing.com",
    "state": "Washington",
    "street": "9007 S 19th St"
  },
  {
    "id": "c2d17a53-99d9-4d1e-a0cd-8314ddc93b5c",
    "name": "Natchez Brewing Co",
    "brewery_type": "micro",
    "address_1": "207 High St",
    "address_2": null,
    "address_3": null,
    "city": "Natchez",
    "state_province": "Mississippi",
    "postal_code": "39120-3222",
    "country": "United States",
    "longitude": -91.4021969,
    "latitude": 31.56348326,
    "phone": "8287135311",
    "website_url": "http://www.natchezbrew.com",
    "state": "Mississippi",
    "street": "207 High St"
  },
  {
    "id": "8b10db58-b7e8-473e-9cdd-001212299a6d",
    "name": "Natian Brewery",
    "brewery_type": "micro",
    "address_1": "1321 NE Couch St",
    "address_2": null,
    "address_3": null,
    "city": "Portland",
    "state_province": "Oregon",
    "postal_code": "97232-3007",
    "country": "United States",
    "longitude": -122.6529733,
    "latitude": 45.5249032,
    "phone": "9716787116",
    "website_url": "http://www.natianbrewery.com",
    "state": "Oregon",
    "street": "1321 NE Couch St"
  },
  {
    "id": "ccdbc69e-ab8d-4133-9897-7728cb066c4b",
    "name": "National Beer Museum Development Group",
    "brewery_type": "planning",
    "address_1": null,
    "address_2": null,
    "address_3": null,
    "city": "Pittsburgh",
    "state_province": "Pennsylvania",
    "postal_code": "15212",
    "country": "United States",
    "longitude": null,
    "latitude": null,
    "phone": "4123983236",
    "website_url": "http://www.BrewMuseum.com",
    "state": "Pennsylvania",
    "street": null
  },
  {
    "id": "c53ae7dd-b837-47ed-899f-1179608c7434",
    "name": "National Brewing Company",
    "brewery_type": "contract",
    "address_1": "28102 Baileys Neck Rd",
    "address_2": null,
    "address_3": null,
    "city": "Easton",
    "state_province": "Maryland",
    "postal_code": "21601-8520",
    "country": "United States",
    "longitude": null,
    "latitude": null,
    "phone": "4103103553",
    "website_url": "http://www.nationalpremiumbeer.com",
    "state": "Maryland",
    "street": "28102 Baileys Neck Rd"
  },
  {
    "id": "b6244f79-714c-43b6-bcd1-58cee49a6939",
    "name": "N\u00e4ttraby Kvartersbryggeri",
    "brewery_type": "micro",
    "address_1": "\u00c5v\u00e4gen 9",
    "address_2": null,
    "address_3": null,
    "city": "N\u00e4ttraby",
    "state_province": "Blekinge",
    "postal_code": "373 30",
    "country": "Sweden",
    "longitude": 15.63878,
    "latitude": 56.20148,
    "phone": null,
    "website_url": "https://kvartersbryggeri.se/",
    "state": "Blekinge",
    "street": "\u00c5v\u00e4gen 9"
  },
  {
    "id": "68fc2bdf-4401-4dc0-a3c0-2a8a29189e6e",
    "name": "Natty Greene's Brewing Co",
    "brewery_type": "regional",
    "address_1": "1918 W Gate City Blvd",
    "address_2": null,
    "address_3": null,
    "city": "Greensboro",
    "state_province": "North Carolina",
    "postal_code": "27403-2615",
    "country": "United States",
    "longitude": -79.7923996,
    "latitude": 36.0646259,
    "phone": "3362741373",
    "website_url": "http://www.nattygreenes.com",
    "state": "North Carolina",
    "street": "1918 W Gate City Blvd"
  },
  {
    "id": "e4ada546-4330-42bd-9304-5fcbe922f4f5",
    "name": "Natty Greene's Pub & Brewing Co",
    "brewery_type": "brewpub",
    "address_1": "345 S Elm St",
    "address_2": null,
    "address_3": null,
    "city": "Greensboro",
    "state_province": "North Carolina",
    "postal_code": "27401-2603",
    "country": "United States",
    "longitude": -79.7903852,
    "latitude": 36.0686458,
    "phone": "3368566111",
    "website_url": "http://www.nattygreenes.com",
    "state": "North Carolina",
    "street": "345 S Elm St"
  },
  {
    "id": "ef38df48-391f-4f62-81a0-5263d7ab21fb",
    "name": "Nature Coast Brewing Company",
    "brewery_type": "micro",
    "address_1": "564 N Citrus Ave",
    "address_2": null,
    "address_3": null,
    "city": "Crystal River",
    "state_province": "Florida",
    "postal_code": "34428-4017",
    "country": "United States",
    "longitude": -82.5931784,
    "latitude": 28.89917957,
    "phone": "3527950956",
    "website_url": "http://www.naturecoastbrewingco.com",
    "state": "Florida",
    "street": "564 N Citrus Ave"
  },
  {
    "id": "d7b5805d-0762-4f33-b677-8269d16c6a61",
    "name": "Naughty Monk Brewery L.L.C.",
    "brewery_type": "micro",
    "address_1": "2507 Lakewood Ranch Blvd",
    "address_2": null,
    "address_3": null,
    "city": "Bradenton",
    "state_province": "Florida",
    "postal_code": "34211-4949",
    "country": "United States",
    "longitude": -82.4324118,
    "latitude": 27.4519957,
    "phone": "9417082966",
    "website_url": "http://www.naughtymonkbrewery.com",
    "state": "Florida",
    "street": "2507 Lakewood Ranch Blvd"
  },
  {
    "id": "d523e3ba-ac09-4d9d-be40-c42d5888cf23",
    "name": "Naughty Oak Brewing Company",
    "brewery_type": "micro",
    "address_1": "165 S Broadway St Ste 102",
    "address_2": null,
    "address_3": null,
    "city": "Orcutt",
    "state_province": "California",
    "postal_code": "93455-4627",
    "country": "United States",
    "longitude": -120.4482865,
    "latitude": 34.86506483,
    "phone": "8052879663",
    "website_url": "http://www.naughtyoak.com",
    "state": "California",
    "street": "165 S Broadway St Ste 102"
  },
  {
    "id": "4aac21f5-3cd7-450e-9245-fa07d1c444f7",
    "name": "Naukabout Brewery",
    "brewery_type": "micro",
    "address_1": "13 Lake Ave",
    "address_2": null,
    "address_3": null,
    "city": "Mashpee",
    "state_province": "Massachusetts",
    "postal_code": "02649-2075",
    "country": "United States",
    "longitude": -70.48425901,
    "latitude": 41.64936239,
    "phone": "7743130200",
    "website_url": "http://www.naukabout.com",
    "state": "Massachusetts",
    "street": "13 Lake Ave"
  },
  {
    "id": "facec4b8-02cb-4257-b12f-6188679557d8",
    "name": "Navigation Brewing Co",
    "brewery_type": "micro",
    "address_1": "122 Western Ave",
    "address_2": null,
    "address_3": null,
    "city": "Lowell",
    "state_province": "Massachusetts",
    "postal_code": "01851-1433",
    "country": "United States",
    "longitude": -71.32464812,
    "latitude": 42.64034997,
    "phone": null,
    "website_url": "http://www.navigationbrewing.com",
    "state": "Massachusetts",
    "street": "122 Western Ave"
  },
  {
    "id": "6c4dc675-17ad-4f13-afd5-d69438a709d8",
    "name": "NAZZ'D Brew Works and Pub",
    "brewery_type": "planning",
    "address_1": null,
    "address_2": null,
    "address_3": null,
    "city": "Pittsboro",
    "state_province": "North Carolina",
    "postal_code": "27312",
    "country": "United States",
    "longitude": null,
    "latitude": null,
    "phone": "9196042081",
    "website_url": "http://www.nazzdbrew.com",
    "state": "North Carolina",
    "street": null
  },
  {
    "id": "e21cd242-f85b-4dd1-9328-e9ca1237624a",
    "name": "NC State Brewery",
    "brewery_type": "micro",
    "address_1": "400 Dan Allen Drive Campus Box 7624",
    "address_2": null,
    "address_3": null,
    "city": "Raleigh",
    "state_province": "North Carolina",
    "postal_code": "27695-0001",
    "country": "United States",
    "longitude": null,
    "latitude": null,
    "phone": "9195130802",
    "website_url": "http://www.fbns.ncsu.edu/Sheppard/",
    "state": "North Carolina",
    "street": "400 Dan Allen Drive Campus Box 7624"
  },
  {
    "id": "32643a19-4321-44dc-b351-792d878226da",
    "name": "Nebraska Brewing Co - La Vista",
    "brewery_type": "micro",
    "address_1": "6950 S 108th St",
    "address_2": null,
    "address_3": null,
    "city": "La Vista",
    "state_province": "Nebraska",
    "postal_code": "68128-5701",
    "country": "United States",
    "longitude": -96.0813295,
    "latitude": 41.1772046,
    "phone": "4029340950",
    "website_url": "https://nebraskabrewingco.com",
    "state": "Nebraska",
    "street": "6950 S 108th St"
  },
  {
    "id": "4d7b67c5-34a4-4586-8f19-e3c8447cd601",
    "name": "Nebraska Brewing Co - Papillion",
    "brewery_type": "closed",
    "address_1": "7474 Towne Center Pkwy Ste 101 Shadow Lake Towne Center",
    "address_2": null,
    "address_3": null,
    "city": "Papillion",
    "state_province": "Nebraska",
    "postal_code": "68046-4805",
    "country": "United States",
    "longitude": null,
    "latitude": null,
    "phone": "4029347100",
    "website_url": "http://www.nebraskabrewingco.com",
    "state": "Nebraska",
    "street": "7474 Towne Center Pkwy Ste 101 Shadow Lake Towne Center"
  },
  {
    "id": "43b8ace8-09d2-4c96-9b4f-357b6a0467ab",
    "name": "Neches Brewing Company",
    "brewery_type": "brewpub",
    "address_1": "1108 Port Neches Ave",
    "address_2": null,
    "address_3": null,
    "city": "Port Neches",
    "state_province": "Texas",
    "postal_code": "77651-2804",
    "country": "United States",
    "longitude": -93.958435,
    "latitude": 29.991653,
    "phone": "4092375700",
    "website_url": null,
    "state": "Texas",
    "street": "1108 Port Neches Ave"
  },
  {
    "id": "7ceebde8-ab10-4657-9c3e-8f725b8cc388",
    "name": "Neon Groundhog Brewery - Majestic Oak Winery",
    "brewery_type": "micro",
    "address_1": "13554 Mohler Rd",
    "address_2": null,
    "address_3": null,
    "city": "Grand Rapids",
    "state_province": "Ohio",
    "postal_code": "43522-9648",
    "country": "United States",
    "longitude": null,
    "latitude": null,
    "phone": "4198756474",
    "website_url": "http://www.majesticoakwinery.com",
    "state": "Ohio",
    "street": "13554 Mohler Rd"
  },
  {
    "id": "0a9f352e-21f4-4eb6-a11e-2c4aa3732307",
    "name": "Nepenthe Homebrew & Brewery",
    "brewery_type": "planning",
    "address_1": null,
    "address_2": null,
    "address_3": null,
    "city": "Baltimore",
    "state_province": "Maryland",
    "postal_code": "21211-1900",
    "country": "United States",
    "longitude": null,
    "latitude": null,
    "phone": "4434384846",
    "website_url": "http://www.nepenthehomebrew.com",
    "state": "Maryland",
    "street": null
  },
  {
    "id": "e2b88f90-f367-4c3d-8b0f-69dc62e47f4c",
    "name": "Neptunes Brewery, LLC",
    "brewery_type": "micro",
    "address_1": "119 N L St",
    "address_2": null,
    "address_3": null,
    "city": "Livingston",
    "state_province": "Montana",
    "postal_code": "59047-2819",
    "country": "United States",
    "longitude": null,
    "latitude": null,
    "phone": "4062227837",
    "website_url": "http://www.neptunesbrewery.com",
    "state": "Montana",
    "street": "119 N L St"
  },
  {
    "id": "bbf8905d-9def-4a8f-b24b-91d3e6cdccd9",
    "name": "Neshaminy Creek Brewing Co",
    "brewery_type": "regional",
    "address_1": "909 Ray Ave",
    "address_2": null,
    "address_3": null,
    "city": "Croydon",
    "state_province": "Pennsylvania",
    "postal_code": "19021-7510",
    "country": "United States",
    "longitude": -74.90222455,
    "latitude": 40.08537673,
    "phone": "2154587081",
    "website_url": "http://www.neshaminycreekbrewing.com",
    "state": "Pennsylvania",
    "street": "909 Ray Ave"
  },
  {
    "id": "4dd39fbc-c476-4816-bc7c-6eab5d962db7",
    "name": "Network Brewery",
    "brewery_type": "micro",
    "address_1": "1824 Carnegie Ave",
    "address_2": null,
    "address_3": null,
    "city": "Santa Ana",
    "state_province": "California",
    "postal_code": "92705-5503",
    "country": "United States",
    "longitude": -117.845559,
    "latitude": 33.7119033,
    "phone": "6578598004",
    "website_url": "http://www.networkbrewery.com",
    "state": "California",
    "street": "1824 Carnegie Ave"
  },
  {
    "id": "061fcb41-7dd1-4db4-8963-733096eea370",
    "name": "Neuse River Brewing Company",
    "brewery_type": "micro",
    "address_1": "518 Pershing Rd",
    "address_2": null,
    "address_3": null,
    "city": "Raleigh",
    "state_province": "North Carolina",
    "postal_code": "27608-2624",
    "country": "United States",
    "longitude": -78.63345205,
    "latitude": 35.8045083,
    "phone": "9842328479",
    "website_url": "http://www.neuseriverbrewing.com",
    "state": "North Carolina",
    "street": "518 Pershing Rd"
  },
  {
    "id": "05ce38c8-0c0b-4c51-93dc-ae5f5e98a625",
    "name": "Nevadan Brewing Company",
    "brewery_type": "planning",
    "address_1": null,
    "address_2": null,
    "address_3": null,
    "city": "Las Vegas",
    "state_province": "Nevada",
    "postal_code": "89139-5939",
    "country": "United States",
    "longitude": null,
    "latitude": null,
    "phone": "7028455768",
    "website_url": "http://nevadanbrewing.com",
    "state": "Nevada",
    "street": null
  },
  {
    "id": "7ad422f8-cd8a-4706-9583-8d20c5242f24",
    "name": "Never Summer Brewing Co",
    "brewery_type": "micro",
    "address_1": "62 E Agate Ave",
    "address_2": null,
    "address_3": null,
    "city": "Granby",
    "state_province": "Colorado",
    "postal_code": "80446",
    "country": "United States",
    "longitude": -105.9415686,
    "latitude": 40.0855713,
    "phone": "9708870333",
    "website_url": null,
    "state": "Colorado",
    "street": "62 E Agate Ave"
  },
  {
    "id": "28f5a67c-49b0-4197-b7a7-5882a491d63d",
    "name": "New Albanian Bank Street Brewhouse",
    "brewery_type": "brewpub",
    "address_1": "415 Bank St",
    "address_2": null,
    "address_3": null,
    "city": "New Albany",
    "state_province": "Indiana",
    "postal_code": "47150-3407",
    "country": "United States",
    "longitude": -85.82220842,
    "latitude": 38.28656732,
    "phone": "8127259585",
    "website_url": "http://www.newalbanian.com",
    "state": "Indiana",
    "street": "415 Bank St"
  },
  {
    "id": "bb34f1bf-8108-4dba-8b6a-18553ce95809",
    "name": "New Albanian Brewing Co",
    "brewery_type": "brewpub",
    "address_1": "3312 Plaza Dr",
    "address_2": null,
    "address_3": null,
    "city": "New Albany",
    "state_province": "Indiana",
    "postal_code": "47150-2478",
    "country": "United States",
    "longitude": null,
    "latitude": null,
    "phone": "8129442577",
    "website_url": "http://www.newalbanian.com",
    "state": "Indiana",
    "street": "3312 Plaza Dr"
  },
  {
    "id": "e1cf02fc-0380-4c80-89e4-0e52946d9338",
    "name": "New American Brewing Company",
    "brewery_type": "closed",
    "address_1": "1631 SW Main St Ste 105",
    "address_2": null,
    "address_3": null,
    "city": "Ankeny",
    "state_province": "Iowa",
    "postal_code": "50023-7254",
    "country": "United States",
    "longitude": -93.618309,
    "latitude": 41.712502,
    "phone": "5152505648",
    "website_url": "http://www.newamericanbeer.com",
    "state": "Iowa",
    "street": "1631 SW Main St Ste 105"
  },
  {
    "id": "d76c7a31-bcf2-42b5-842c-abb9b40d8cb1",
    "name": "New Anthem Beer Project",
    "brewery_type": "micro",
    "address_1": "116 Dock St",
    "address_2": null,
    "address_3": null,
    "city": "Wilmington",
    "state_province": "North Carolina",
    "postal_code": "28401-4433",
    "country": "United States",
    "longitude": -77.94826959,
    "latitude": 34.23413971,
    "phone": "9103994683",
    "website_url": "http://www.newanthembeer.com",
    "state": "North Carolina",
    "street": "116 Dock St"
  },
  {
    "id": "40c11daf-e510-45be-bf1f-6b8f0b77ebed",
    "name": "New Axiom Brewing Company",
    "brewery_type": "micro",
    "address_1": "949 NE Columbus ",
    "address_2": null,
    "address_3": null,
    "city": "Lees Summit",
    "state_province": "Missouri",
    "postal_code": "64086",
    "country": "United States",
    "longitude": -94.351812,
    "latitude": 38.947403,
    "phone": null,
    "website_url": "http://www.newaxiombrewco.com",
    "state": "Missouri",
    "street": "949 NE Columbus "
  },
  {
    "id": "e316621b-7562-49c0-9f76-37a3af389eb8",
    "name": "New Barons Brewing Cooperative",
    "brewery_type": "planning",
    "address_1": null,
    "address_2": null,
    "address_3": null,
    "city": "Milwaukee",
    "state_province": "Wisconsin",
    "postal_code": "53202-2821",
    "country": "United States",
    "longitude": null,
    "latitude": null,
    "phone": "3147050016",
    "website_url": "http://www.newbaronsbrewing.com",
    "state": "Wisconsin",
    "street": null
  },
  {
    "id": "93a19d3e-c4cf-480d-83da-74c6e41d07c7",
    "name": "New Belgium - The Woods At The Source",
    "brewery_type": "planning",
    "address_1": null,
    "address_2": null,
    "address_3": null,
    "city": "Denver",
    "state_province": "Colorado",
    "postal_code": "80216-5021",
    "country": "United States",
    "longitude": null,
    "latitude": null,
    "phone": null,
    "website_url": "http://www.newbelgium.com/Brewery/TheWoods",
    "state": "Colorado",
    "street": null
  },
  {
    "id": "de5ee7c1-54e0-4d20-960a-b825a76ddc9e",
    "name": "New Belgium Brewing Co",
    "brewery_type": "regional",
    "address_1": "21 Craven St",
    "address_2": null,
    "address_3": null,
    "city": "Asheville",
    "state_province": "North Carolina",
    "postal_code": "28806-",
    "country": "United States",
    "longitude": -82.57194293,
    "latitude": 35.5879302,
    "phone": "8885989552",
    "website_url": "http://www.newbelgium.com",
    "state": "North Carolina",
    "street": "21 Craven St"
  },
  {
    "id": "1b0bf444-c830-4958-922c-5c1b46fe37f5",
    "name": "New Belgium Brewing Co",
    "brewery_type": "regional",
    "address_1": "500 Linden St",
    "address_2": null,
    "address_3": null,
    "city": "Fort Collins",
    "state_province": "Colorado",
    "postal_code": "80524-2457",
    "country": "United States",
    "longitude": -105.0678422,
    "latitude": 40.59335825,
    "phone": "9702210524",
    "website_url": "http://www.newbelgium.com",
    "state": "Colorado",
    "street": "500 Linden St"
  },
  {
    "id": "cc6f97c5-b82b-4c18-be62-896e2ac2cad0",
    "name": "New Bohemia Brewing Co",
    "brewery_type": "brewpub",
    "address_1": "1030 41st Ave",
    "address_2": null,
    "address_3": null,
    "city": "Santa Cruz",
    "state_province": "California",
    "postal_code": "95062-4447",
    "country": "United States",
    "longitude": -121.9647935,
    "latitude": 36.96661524,
    "phone": "8313500253",
    "website_url": "http://www.nubobrew.com",
    "state": "California",
    "street": "1030 41st Ave"
  },
  {
    "id": "806f78ce-18d8-4a28-a871-403807795cbe",
    "name": "New Boswell Brewing Co",
    "brewery_type": "micro",
    "address_1": "410 N 10th St",
    "address_2": null,
    "address_3": null,
    "city": "Richmond",
    "state_province": "Indiana",
    "postal_code": "47374",
    "country": "United States",
    "longitude": -84.88916811,
    "latitude": 39.83306544,
    "phone": "7655467856",
    "website_url": "http://www.newboswell.com",
    "state": "Indiana",
    "street": "410 N 10th St"
  },
  {
    "id": "7564bb65-8745-4c77-ba1b-2b264a694c2b",
    "name": "New Braunfels Brewing",
    "brewery_type": "micro",
    "address_1": "180 W Mill St Ste 100",
    "address_2": null,
    "address_3": null,
    "city": "New Braunfels",
    "state_province": "Texas",
    "postal_code": "78130-5058",
    "country": "United States",
    "longitude": null,
    "latitude": null,
    "phone": "8306262739",
    "website_url": "http://www.nbbrewing.com",
    "state": "Texas",
    "street": "180 W Mill St Ste 100"
  },
  {
    "id": "d550e8d8-a356-4188-bf71-8febfcb326f9",
    "name": "New Bremen Brewing Company",
    "brewery_type": "planning",
    "address_1": null,
    "address_2": null,
    "address_3": null,
    "city": "New Bremen",
    "state_province": "Ohio",
    "postal_code": "45869-1328",
    "country": "United States",
    "longitude": null,
    "latitude": null,
    "phone": null,
    "website_url": "http://www.gongoozlersbeer.com",
    "state": "Ohio",
    "street": null
  },
  {
    "id": "a0ee9d3c-4672-45c4-9d1c-372ce110fd01",
    "name": "New City Brewery",
    "brewery_type": "micro",
    "address_1": "180 Pleasant St Ste 2",
    "address_2": null,
    "address_3": null,
    "city": "Easthampton",
    "state_province": "Massachusetts",
    "postal_code": "01027-1297",
    "country": "United States",
    "longitude": null,
    "latitude": null,
    "phone": "4135292000",
    "website_url": null,
    "state": "Massachusetts",
    "street": "180 Pleasant St Ste 2"
  },
  {
    "id": "652351af-c051-4151-8d02-fb562513ec35",
    "name": "New Corner Brewing Company",
    "brewery_type": "micro",
    "address_1": "1900 W Mt Pleasant Blvd Ste G",
    "address_2": null,
    "address_3": null,
    "city": "Muncie",
    "state_province": "Indiana",
    "postal_code": "47302-9566",
    "country": "United States",
    "longitude": null,
    "latitude": null,
    "phone": "7657304376",
    "website_url": "http://www.newcornerbrewing.com",
    "state": "Indiana",
    "street": "1900 W Mt Pleasant Blvd Ste G"
  },
  {
    "id": "ba128e4b-4941-45cd-96b0-d500a5c02758",
    "name": "New District Brewing Company",
    "brewery_type": "micro",
    "address_1": "2709 S Oakland St",
    "address_2": null,
    "address_3": null,
    "city": "Arlington",
    "state_province": "Virginia",
    "postal_code": "22206-2309",
    "country": "United States",
    "longitude": -77.08966299,
    "latitude": 38.84421984,
    "phone": "7038885820",
    "website_url": "http://www.newdistrictbrewing.com",
    "state": "Virginia",
    "street": "2709 S Oakland St"
  },
  {
    "id": "9c2e0292-e7aa-4f8f-babd-38ec3fd466a0",
    "name": "New England Brewing Co",
    "brewery_type": "micro",
    "address_1": "175 Amity Rd",
    "address_2": null,
    "address_3": null,
    "city": "Woodbridge",
    "state_province": "Connecticut",
    "postal_code": "06525-2201",
    "country": "United States",
    "longitude": -72.98046406,
    "latitude": 41.33858942,
    "phone": "2033872222",
    "website_url": "http://www.newenglandbrewing.com",
    "state": "Connecticut",
    "street": "175 Amity Rd"
  },
  {
    "id": "31b2f8e2-17c1-4344-aeb1-93575d3d5f79",
    "name": "New English Brewing Co Inc",
    "brewery_type": "micro",
    "address_1": "11545 Sorrento Valley Rd Ste 305",
    "address_2": null,
    "address_3": null,
    "city": "San Diego",
    "state_province": "California",
    "postal_code": "92121-1322",
    "country": "United States",
    "longitude": -117.230519,
    "latitude": 32.912641,
    "phone": "6198578023",
    "website_url": "http://www.newenglishbrewing.com",
    "state": "California",
    "street": "11545 Sorrento Valley Rd Ste 305"
  }
]