[
  {
    "id": "d790ba65-3bbe-453f-adaf-f5e2e2e21cc6",
    "name": "Little Vixen Brewing",
    "brewery_type": "planning",
    "address_1": null,
    "address_2": null,
    "address_3": null,
    "city": "Las Vegas",
    "state_province": "Nevada",
    "postal_code": "89138-6120",
    "country": "United States",
    "longitude": null,
    "latitude": null,
    "phone": "7759975936",
    "website_url": null,
    "state": "Nevada",
    "street": null
  },
  {
    "id": "88c88a7e-8760-4d5f-9884-778aeba32e76",
    "name": "Littleton Brewing Company",
    "brewery_type": "planning",
    "address_1": "1201 W Littleton Blvd",
    "address_2": null,
    "address_3": null,
    "city": "Littleton",
    "state_province": "Colorado",
    "postal_code": "80120",
    "country": "United States",
    "longitude": -105.0021299,
    "latitude": 39.6135479,
    "phone": null,
    "website_url": "https://www.littletonbrewco.com/",
    "state": "Colorado",
    "street": "1201 W Littleton Blvd"
  },
  {
    "id": "de0ba3c4-611e-49b4-b136-a6c074b36c4c",
    "name": "Live Oak Brewing Co",
    "brewery_type": "regional",
    "address_1": "1615 Crozier Ln",
    "address_2": null,
    "address_3": null,
    "city": "del Valle",
    "state_province": "Texas",
    "postal_code": "78617-2129",
    "country": "United States",
    "longitude": null,
    "latitude": null,
    "phone": "5123852299",
    "website_url": "http://www.liveoakbrewing.com",
    "state": "Texas",
    "street": "1615 Crozier Ln"
  },
  {
    "id": "686d530a-0bbf-4f7a-aa57-ab41feb8520c",
    "name": "Living the Dream Brewing Co.",
    "brewery_type": "micro",
    "address_1": "9150 Commerce Center Cir Ste 300",
    "address_2": null,
    "address_3": null,
    "city": "Highlands Ranch",
    "state_province": "Colorado",
    "postal_code": "80129-1563",
    "country": "United States",
    "longitude": null,
    "latitude": null,
    "phone": "3032849585",
    "website_url": "http://www.livingthedreambrewing.com",
    "state": "Colorado",
    "street": "9150 Commerce Center Cir Ste 300"
  },
  {
    "id": "92cb06ac-91b1-4376-8e24-5ba606c08af3",
    "name": "Living the Dream Sterling Taproom",
    "brewery_type": "micro",
    "address_1": "8155 Piney River Ave",
    "address_2": null,
    "address_3": null,
    "city": "Littleton",
    "state_province": "Colorado",
    "postal_code": "80125",
    "country": "United States",
    "longitude": -105.037188,
    "latitude": 39.5067366,
    "phone": "3032849585",
    "website_url": "http://www.livingthedreambrewing.com",
    "state": "Colorado",
    "street": "8155 Piney River Ave"
  },
  {
    "id": "b8aa5099-ab15-4299-b15d-0397e8147164",
    "name": "Livingood's Restaurant & Brewery",
    "brewery_type": "brewpub",
    "address_1": "697 Bear Swamp Rd",
    "address_2": null,
    "address_3": null,
    "city": "Peru",
    "state_province": "New York",
    "postal_code": "12972-",
    "country": "United States",
    "longitude": -73.518542,
    "latitude": 44.576563,
    "phone": "5184206331",
    "website_url": "http://www.livingoodsresturant.com",
    "state": "New York",
    "street": "697 Bear Swamp Rd"
  },
  {
    "id": "4d8d14f0-e079-44a2-b571-86d129ead825",
    "name": "Lizard Tail Brewing",
    "brewery_type": "brewpub",
    "address_1": "9800 Montgomery Blvd NE Ste 7",
    "address_2": null,
    "address_3": null,
    "city": "Albuquerque",
    "state_province": "New Mexico",
    "postal_code": "87111-3560",
    "country": "United States",
    "longitude": null,
    "latitude": null,
    "phone": "5057171301",
    "website_url": "http://www.lizardtailbrewing.com",
    "state": "New Mexico",
    "street": "9800 Montgomery Blvd NE Ste 7"
  },
  {
    "id": "9af7465c-dcff-4144-a1fe-205ab8da7772",
    "name": "Lo Rez Brewing",
    "brewery_type": "micro",
    "address_1": "2101 S Carpenter St",
    "address_2": null,
    "address_3": null,
    "city": "Chicago",
    "state_province": "Illinois",
    "postal_code": "60608-4529",
    "country": "United States",
    "longitude": -87.6524429,
    "latitude": 41.8533096,
    "phone": "3128043283",
    "website_url": "http://lorezbrewing.com",
    "state": "Illinois",
    "street": "2101 S Carpenter St"
  },
  {
    "id": "fa774256-4e34-471c-adab-29336df80a68",
    "name": "Lo-Fi Brewing",
    "brewery_type": "micro",
    "address_1": "2038 Meeting St Rd",
    "address_2": null,
    "address_3": null,
    "city": "North Charleston",
    "state_province": "South Carolina",
    "postal_code": "29405-9357",
    "country": "United States",
    "longitude": -79.9540931,
    "latitude": 32.8336083,
    "phone": "8285822175",
    "website_url": "http://www.lofibrewing.com",
    "state": "South Carolina",
    "street": "2038 Meeting St Rd"
  },
  {
    "id": "8c47911e-39d3-45ec-bc56-70ad9ca6197f",
    "name": "Loaded Question Brewing Co",
    "brewery_type": "micro",
    "address_1": "909 Islington St Ste 12",
    "address_2": null,
    "address_3": null,
    "city": "Portsmouth",
    "state_province": "New Hampshire",
    "postal_code": "03801",
    "country": "United States",
    "longitude": null,
    "latitude": null,
    "phone": null,
    "website_url": "http://www.loadedquestionbrewing.com",
    "state": "New Hampshire",
    "street": "909 Islington St Ste 12"
  },
  {
    "id": "ab279a70-7f69-45aa-8b0f-859eba8d16f3",
    "name": "Local 315 Brewing Company",
    "brewery_type": "micro",
    "address_1": "3160 Warners Rd",
    "address_2": null,
    "address_3": null,
    "city": "Warners",
    "state_province": "New York",
    "postal_code": "13164-",
    "country": "United States",
    "longitude": -76.329676,
    "latitude": 43.085441,
    "phone": "315468",
    "website_url": "http://www.local315brewing.com",
    "state": "New York",
    "street": "3160 Warners Rd"
  },
  {
    "id": "646b77a4-f86e-4aa0-a2ef-be3b151808f1",
    "name": "Local Brewing Co",
    "brewery_type": "micro",
    "address_1": "69 Bluxome St",
    "address_2": null,
    "address_3": null,
    "city": "San Francisco",
    "state_province": "California",
    "postal_code": "94107-1605",
    "country": "United States",
    "longitude": -122.3973825,
    "latitude": 37.776173,
    "phone": null,
    "website_url": "http://www.localbrewingco.com",
    "state": "California",
    "street": "69 Bluxome St"
  },
  {
    "id": "93db856b-5d88-4262-ae41-5d4c4b9fc799",
    "name": "Local Craft Beer, Tehachapi",
    "brewery_type": "micro",
    "address_1": "365 Enterprise Way Ste G",
    "address_2": null,
    "address_3": null,
    "city": "Tehachapi",
    "state_province": "California",
    "postal_code": "93561-1369",
    "country": "United States",
    "longitude": -118.4549723,
    "latitude": 35.13678901,
    "phone": "6618222337",
    "website_url": "http://www.honeywagonbrewing.com",
    "state": "California",
    "street": "365 Enterprise Way Ste G"
  },
  {
    "id": "e5a8a40f-7285-4ab4-83d5-d0e4ceb39b3f",
    "name": "Local Group Brewing Company, LLC.",
    "brewery_type": "planning",
    "address_1": null,
    "address_2": null,
    "address_3": null,
    "city": "Houston",
    "state_province": "Texas",
    "postal_code": "77008-6844",
    "country": "United States",
    "longitude": null,
    "latitude": null,
    "phone": null,
    "website_url": null,
    "state": "Texas",
    "street": null
  },
  {
    "id": "451c482b-18e0-4dd2-bfbc-8b94d25902aa",
    "name": "Local Option",
    "brewery_type": "contract",
    "address_1": "1102 W Webster Ave Ste 1",
    "address_2": null,
    "address_3": null,
    "city": "Chicago",
    "state_province": "Illinois",
    "postal_code": "60614-7089",
    "country": "United States",
    "longitude": null,
    "latitude": null,
    "phone": "7733482008",
    "website_url": "http://www.localoptionbier.com",
    "state": "Illinois",
    "street": "1102 W Webster Ave Ste 1"
  },
  {
    "id": "cab5fb39-d342-46c6-a2c5-961381be305e",
    "name": "Local Relic",
    "brewery_type": "brewpub",
    "address_1": "320 S Weber St",
    "address_2": null,
    "address_3": null,
    "city": "Colorado Springs",
    "state_province": "Colorado",
    "postal_code": "80903-2125",
    "country": "United States",
    "longitude": -104.8203866,
    "latitude": 38.82871975,
    "phone": "7192700077",
    "website_url": "http://www.localrelic.com",
    "state": "Colorado",
    "street": "320 S Weber St"
  },
  {
    "id": "b9f745cb-a332-4e64-ad81-a678c2548042",
    "name": "Locavore Beer Works",
    "brewery_type": "micro",
    "address_1": "5950 S Platte Canyon Rd Ste D13",
    "address_2": null,
    "address_3": null,
    "city": "Littleton",
    "state_province": "Colorado",
    "postal_code": "80123-7539",
    "country": "United States",
    "longitude": null,
    "latitude": null,
    "phone": "7204764419",
    "website_url": "http://www.locavorebeerworks.com",
    "state": "Colorado",
    "street": "5950 S Platte Canyon Rd Ste D13"
  },
  {
    "id": "04e9e7ce-5f20-4861-acbe-ac4be5628b49",
    "name": "Loch Lomond Brewery",
    "brewery_type": "micro",
    "address_1": "Block 2 Unit 11",
    "address_2": "Vale of Leven Industrial Estate",
    "address_3": null,
    "city": "Dumbarton",
    "state_province": "West Dunbartonshire",
    "postal_code": "G82 3PD",
    "country": "Scotland",
    "longitude": -4.576255,
    "latitude": 55.969774,
    "phone": "1389755698",
    "website_url": "https://www.lochlomondbrewery.com/",
    "state": "West Dunbartonshire",
    "street": "Block 2 Unit 11"
  },
  {
    "id": "80c95ce3-5826-4673-b5b0-2d6a9b87aeb6",
    "name": "Lochiel Brewing",
    "brewery_type": "micro",
    "address_1": "7143 E Southern Ave Ste 131",
    "address_2": null,
    "address_3": null,
    "city": "Mesa",
    "state_province": "Arizona",
    "postal_code": "85209-2657",
    "country": "United States",
    "longitude": null,
    "latitude": null,
    "phone": "4806660915",
    "website_url": "http://lochielbrewing.com",
    "state": "Arizona",
    "street": "7143 E Southern Ave Ste 131"
  },
  {
    "id": "b744848c-8e41-40f1-9ecb-e46ff290466c",
    "name": "Lock 15 Brewing Co",
    "brewery_type": "planning",
    "address_1": null,
    "address_2": null,
    "address_3": null,
    "city": "Akron",
    "state_province": "Ohio",
    "postal_code": "44304-1035",
    "country": "United States",
    "longitude": null,
    "latitude": null,
    "phone": null,
    "website_url": "http://www.lock15brewing.com",
    "state": "Ohio",
    "street": null
  },
  {
    "id": "fb6f6bff-1e40-42b5-9a86-0de2e080be56",
    "name": "Lock 27 Brewing",
    "brewery_type": "brewpub",
    "address_1": "1035 S Main St",
    "address_2": null,
    "address_3": null,
    "city": "Centerville",
    "state_province": "Ohio",
    "postal_code": "45458-3840",
    "country": "United States",
    "longitude": -84.1626371,
    "latitude": 39.6089321,
    "phone": "9374332739",
    "website_url": "http://www.lock27brewing.com",
    "state": "Ohio",
    "street": "1035 S Main St"
  },
  {
    "id": "575dd400-8f94-4441-a09c-dbde302d6cd7",
    "name": "Lock 27 Brewing",
    "brewery_type": "brewpub",
    "address_1": "329 E 1st St",
    "address_2": null,
    "address_3": null,
    "city": "Dayton",
    "state_province": "Ohio",
    "postal_code": "45402-1705",
    "country": "United States",
    "longitude": -84.18693529,
    "latitude": 39.76332003,
    "phone": "9374332739",
    "website_url": "http://www.lock27brewing.com",
    "state": "Ohio",
    "street": "329 E 1st St"
  },
  {
    "id": "cc9bbfcb-303c-4f67-872f-63838aea0754",
    "name": "Lock 32 Brewing Company",
    "brewery_type": "micro",
    "address_1": "10 Schoen Pl",
    "address_2": null,
    "address_3": null,
    "city": "Pittsford",
    "state_province": "New York",
    "postal_code": "14534-2026",
    "country": "United States",
    "longitude": -77.514256,
    "latitude": 43.09306,
    "phone": "5855067738",
    "website_url": "http://www.lock32brew.com",
    "state": "New York",
    "street": "10 Schoen Pl"
  },
  {
    "id": "21d30e6a-77bb-4d03-b13a-8a01323c2e26",
    "name": "Lock City Brewing",
    "brewery_type": "micro",
    "address_1": "54 Research Dr",
    "address_2": null,
    "address_3": null,
    "city": "Stamford",
    "state_province": "Connecticut",
    "postal_code": "06906-1428",
    "country": "United States",
    "longitude": -73.51955794,
    "latitude": 41.07705652,
    "phone": "2033136454",
    "website_url": "http://www.lockcitybrewing.com",
    "state": "Connecticut",
    "street": "54 Research Dr"
  },
  {
    "id": "02a141f3-ba6a-4ce4-95ce-0ca90daa2734",
    "name": "Lockport Brewery",
    "brewery_type": "brewpub",
    "address_1": "10891 OH-212",
    "address_2": null,
    "address_3": null,
    "city": "Bolivar",
    "state_province": "Ohio",
    "postal_code": "44612-8664",
    "country": "United States",
    "longitude": null,
    "latitude": null,
    "phone": "3308746037",
    "website_url": "http://www.lockportbeer.com",
    "state": "Ohio",
    "street": "10891 OH-212"
  },
  {
    "id": "36a3f792-14f7-427e-9668-ed2f05cfab99",
    "name": "Lockside Brewery / 1668 Winery",
    "brewery_type": "brewpub",
    "address_1": "100 W Portage Ave",
    "address_2": null,
    "address_3": null,
    "city": "Sault Sainte Marie",
    "state_province": "Michigan",
    "postal_code": "49783-1920",
    "country": "United States",
    "longitude": -84.34705,
    "latitude": 46.500695,
    "phone": "9062595035",
    "website_url": "http://1668winery.com/thebeers/",
    "state": "Michigan",
    "street": "100 W Portage Ave"
  },
  {
    "id": "6f65c0a8-ef15-4ad4-8498-ecd13f22fbe5",
    "name": "Loco Patron Mexican Brewery",
    "brewery_type": "brewpub",
    "address_1": "14950 N Northsight Blvd",
    "address_2": null,
    "address_3": null,
    "city": "Scottsdale",
    "state_province": "Arizona",
    "postal_code": "85260",
    "country": "United States",
    "longitude": -111.8977707,
    "latitude": 33.6216475,
    "phone": "4806997271",
    "website_url": "http://www.locopatron.com",
    "state": "Arizona",
    "street": "14950 N Northsight Blvd"
  },
  {
    "id": "192c156f-0dd5-4960-a962-47f2bdd051f9",
    "name": "Locust Cider & Brewing Co",
    "brewery_type": "micro",
    "address_1": "19151 144th Ave NE Unit B/C",
    "address_2": null,
    "address_3": null,
    "city": "Woodinville",
    "state_province": "Washington",
    "postal_code": "98072-4374",
    "country": "United States",
    "longitude": -122.1484843,
    "latitude": 47.7661918,
    "phone": "4258922075",
    "website_url": "https://www.locustcider.com",
    "state": "Washington",
    "street": "19151 144th Ave NE Unit B/C"
  },
  {
    "id": "dc51c4f8-e09f-42af-8f4a-a8b10d3d49fc",
    "name": "Locust Lane Craft Brewery",
    "brewery_type": "micro",
    "address_1": "50 Three Tun Rd Ste 4",
    "address_2": null,
    "address_3": null,
    "city": "Malvern",
    "state_province": "Pennsylvania",
    "postal_code": "19355-3988",
    "country": "United States",
    "longitude": null,
    "latitude": null,
    "phone": "4843244141",
    "website_url": "http://www.locustlanecraftbrewery.com",
    "state": "Pennsylvania",
    "street": "50 Three Tun Rd Ste 4"
  },
  {
    "id": "24cf41e1-f209-475e-bee2-08d99ed6174d",
    "name": "Lodi Beer Company",
    "brewery_type": "brewpub",
    "address_1": "105 S School St",
    "address_2": null,
    "address_3": null,
    "city": "Lodi",
    "state_province": "California",
    "postal_code": "95240-3509",
    "country": "United States",
    "longitude": -121.2738676,
    "latitude": 38.13282339,
    "phone": "2093682964",
    "website_url": "http://www.lodibeercompany.com",
    "state": "California",
    "street": "105 S School St"
  },
  {
    "id": "e1cb5bc9-1582-4718-bf98-4fa43b9de958",
    "name": "Loe's Brewing Company",
    "brewery_type": "brewpub",
    "address_1": "1048 Harper Ave NW",
    "address_2": null,
    "address_3": null,
    "city": "Lenoir",
    "state_province": "North Carolina",
    "postal_code": "28645-5085",
    "country": "United States",
    "longitude": -81.54235348,
    "latitude": 35.91276115,
    "phone": "8287543652",
    "website_url": "http://www.loesbrewing.com",
    "state": "North Carolina",
    "street": "1048 Harper Ave NW"
  },
  {
    "id": "96d6194f-8f23-4563-8b4f-90283fd97c7d",
    "name": "Logan Brewing Company",
    "brewery_type": "micro",
    "address_1": "510 SW 151st St",
    "address_2": null,
    "address_3": null,
    "city": "Burien",
    "state_province": "Washington",
    "postal_code": "98166",
    "country": "United States",
    "longitude": -122.3410603,
    "latitude": 47.46818562,
    "phone": "2064866569",
    "website_url": "https://www.logan.beer",
    "state": "Washington",
    "street": "510 SW 151st St"
  },
  {
    "id": "e69bc9bf-ee02-406b-9e70-bae68db2e914",
    "name": "Logboat Brewing Co",
    "brewery_type": "micro",
    "address_1": "504 Fay St",
    "address_2": null,
    "address_3": null,
    "city": "Columbia",
    "state_province": "Missouri",
    "postal_code": "65201-4782",
    "country": "United States",
    "longitude": -92.32265015,
    "latitude": 38.95708639,
    "phone": "5733976786",
    "website_url": "http://www.logboatbrewing.com",
    "state": "Missouri",
    "street": "504 Fay St"
  },
  {
    "id": "cbc134e4-e2c4-45cf-add4-89435412bce8",
    "name": "Loggers Brewing Company",
    "brewery_type": "micro",
    "address_1": "1215 S River Rd",
    "address_2": null,
    "address_3": null,
    "city": "Saginaw",
    "state_province": "Michigan",
    "postal_code": "48609-5208",
    "country": "United States",
    "longitude": -84.05193542,
    "latitude": 43.40518225,
    "phone": "9894013085",
    "website_url": "http://www.loggersbrewingcompany.com",
    "state": "Michigan",
    "street": "1215 S River Rd"
  },
  {
    "id": "6b9b74b4-828f-488b-b860-06aa988d03e7",
    "name": "LogOff Brewing LLC",
    "brewery_type": "planning",
    "address_1": null,
    "address_2": null,
    "address_3": null,
    "city": "Carmichael",
    "state_province": "California",
    "postal_code": "95608-5615",
    "country": "United States",
    "longitude": -121.3222422,
    "latitude": 38.62709845,
    "phone": "9165416677",
    "website_url": null,
    "state": "California",
    "street": null
  },
  {
    "id": "88a28bd3-c4c4-4372-abce-ff5f97bd3dff",
    "name": "Logsdon Farmhouse Ales",
    "brewery_type": "micro",
    "address_1": "4785 Booth Hill Rd",
    "address_2": null,
    "address_3": null,
    "city": "Hood River",
    "state_province": "Oregon",
    "postal_code": "97031-7411",
    "country": "United States",
    "longitude": -121.5375837,
    "latitude": 45.58763985,
    "phone": "5414909161",
    "website_url": "http://www.farmhousebeer.com",
    "state": "Oregon",
    "street": "4785 Booth Hill Rd"
  },
  {
    "id": "fa801e81-96ea-4e55-be40-4ca8844bb56c",
    "name": "Lolo Peak Brewing Company",
    "brewery_type": "micro",
    "address_1": "6201 Brewery Way",
    "address_2": null,
    "address_3": null,
    "city": "Lolo",
    "state_province": "Montana",
    "postal_code": "59847-9375",
    "country": "United States",
    "longitude": null,
    "latitude": null,
    "phone": "4064936231",
    "website_url": "http://www.lolopeakbrewery.com",
    "state": "Montana",
    "street": "6201 Brewery Way"
  },
  {
    "id": "9c60421f-0d9f-4d57-91b4-5f1cdd0e452e",
    "name": "Loma Brewing Co",
    "brewery_type": "brewpub",
    "address_1": "130 N Santa Cruz Ave Ste G",
    "address_2": null,
    "address_3": null,
    "city": "Los Gatos",
    "state_province": "California",
    "postal_code": "95030-5949",
    "country": "United States",
    "longitude": -121.9823167,
    "latitude": 37.22530385,
    "phone": "4085609626",
    "website_url": "http://www.lomabrew.com",
    "state": "California",
    "street": "130 N Santa Cruz Ave Ste G"
  },
  {
    "id": "74f90455-1067-4c5c-b216-1c69bafb21f9",
    "name": "Lompoc Brewing, LLC/ The 5th Quadrant",
    "brewery_type": "closed",
    "address_1": "3901 N Williams Ave Ste B",
    "address_2": null,
    "address_3": null,
    "city": "Portland",
    "state_province": "Oregon",
    "postal_code": "97227-1465",
    "country": "United States",
    "longitude": -122.6675027,
    "latitude": 45.55345273,
    "phone": "5032883996",
    "website_url": "http://www.newoldlompoc.com/5thquadranthome.html",
    "state": "Oregon",
    "street": "3901 N Williams Ave Ste B"
  },
  {
    "id": "32554b04-ef98-48cb-bb86-b28a5b23bc20",
    "name": "Lone Eagle Brewing",
    "brewery_type": "brewpub",
    "address_1": "44 Stangl Rd",
    "address_2": null,
    "address_3": null,
    "city": "Flemington",
    "state_province": "New Jersey",
    "postal_code": "08822-1581",
    "country": "United States",
    "longitude": -74.86266573,
    "latitude": 40.50537407,
    "phone": "9082372255",
    "website_url": "http://loneeaglebrewing.com",
    "state": "New Jersey",
    "street": "44 Stangl Rd"
  },
  {
    "id": "9bca1253-e17c-4567-b7c7-793a962733f6",
    "name": "Lone Peak Brewery",
    "brewery_type": "brewpub",
    "address_1": "48 Market Pl",
    "address_2": null,
    "address_3": null,
    "city": "Big Sky",
    "state_province": "Montana",
    "postal_code": "59716",
    "country": "United States",
    "longitude": -111.2912854,
    "latitude": 45.2671806,
    "phone": "4069953939",
    "website_url": "http://www.lonepeakbrewery.com",
    "state": "Montana",
    "street": "48 Market Pl"
  },
  {
    "id": "5aea39a2-d404-4548-81ab-c4d6645f6699",
    "name": "Lone Pine Brewing Company",
    "brewery_type": "micro",
    "address_1": "219 Anderson St #4",
    "address_2": null,
    "address_3": null,
    "city": "Portland",
    "state_province": "Maine",
    "postal_code": "04101-1400",
    "country": "United States",
    "longitude": -70.25577318,
    "latitude": 43.66965322,
    "phone": "2075364952",
    "website_url": "http://www.lonepinebrewery.com",
    "state": "Maine",
    "street": "219 Anderson St #4"
  },
  {
    "id": "298eeb62-0f2c-4315-8552-d95c451f1a6b",
    "name": "Lone Pint Brewery",
    "brewery_type": "micro",
    "address_1": "507 Commerce St",
    "address_2": null,
    "address_3": null,
    "city": "Magnolia",
    "state_province": "Texas",
    "postal_code": "77355-8520",
    "country": "United States",
    "longitude": -95.751352,
    "latitude": 30.2089852,
    "phone": "2817315466",
    "website_url": "http://www.lonepint.com",
    "state": "Texas",
    "street": "507 Commerce St"
  },
  {
    "id": "5ab63209-8eb6-40a2-a788-8d4fdfa3108f",
    "name": "Lone Tree Brewing Co",
    "brewery_type": "micro",
    "address_1": "8222 Park Meadows Dr",
    "address_2": null,
    "address_3": null,
    "city": "Lone Tree",
    "state_province": "Colorado",
    "postal_code": "80124-2746",
    "country": "United States",
    "longitude": -104.8942075,
    "latitude": 39.56298697,
    "phone": "3037925822",
    "website_url": "http://www.lonetreebrewingco.com",
    "state": "Colorado",
    "street": "8222 Park Meadows Dr"
  },
  {
    "id": "c3e38c9b-c564-42af-8cf7-181cd36b30de",
    "name": "Lone Tree Brewing Co - Parker",
    "brewery_type": "micro",
    "address_1": "18425 Pony Express Dr #125",
    "address_2": null,
    "address_3": null,
    "city": "Parker",
    "state_province": "Colorado",
    "postal_code": "80134",
    "country": "United States",
    "longitude": -104.7751138,
    "latitude": 39.5224181,
    "phone": "7204200462",
    "website_url": "http://www.lonetreebrewingco.com",
    "state": "Colorado",
    "street": "18425 Pony Express Dr #125"
  },
  {
    "id": "dfec0210-90f3-4ada-af1e-b4543f19423b",
    "name": "Lonerider Brewing Co",
    "brewery_type": "regional",
    "address_1": "8816 Gulf Ct Ste 100",
    "address_2": null,
    "address_3": null,
    "city": "Raleigh",
    "state_province": "North Carolina",
    "postal_code": "27617-4628",
    "country": "United States",
    "longitude": -78.76254395,
    "latitude": 35.90357415,
    "phone": "9194428004",
    "website_url": "http://www.loneriderbeer.com",
    "state": "North Carolina",
    "street": "8816 Gulf Ct Ste 100"
  },
  {
    "id": "ebcfd143-2150-4fa3-8b91-354be586e531",
    "name": "Lonesome Pine Brewing Co.",
    "brewery_type": "micro",
    "address_1": "12262 US Highway 19",
    "address_2": null,
    "address_3": null,
    "city": "Lebanon",
    "state_province": "Virginia",
    "postal_code": "24266",
    "country": "United States",
    "longitude": null,
    "latitude": null,
    "phone": "2762743697",
    "website_url": "http://www.lonesomepinebrewing.com",
    "state": "Virginia",
    "street": "12262 US Highway 19"
  },
  {
    "id": "01f78943-0aa0-4158-b1a4-52160c97a87f",
    "name": "Lonesome Valley Brewing",
    "brewery_type": "brewpub",
    "address_1": "3040 N Windsong Dr Ste 101",
    "address_2": null,
    "address_3": null,
    "city": "Prescott Valley",
    "state_province": "Arizona",
    "postal_code": "86314-2250",
    "country": "United States",
    "longitude": null,
    "latitude": null,
    "phone": "9285153541",
    "website_url": "http://www.lonesomevalleybrewing.com",
    "state": "Arizona",
    "street": "3040 N Windsong Dr Ste 101"
  },
  {
    "id": "53869ea0-bee5-4c51-b08c-1866b5cc99e0",
    "name": "Long Beach Beer Lab",
    "brewery_type": "micro",
    "address_1": "518 W Willow St",
    "address_2": null,
    "address_3": null,
    "city": "Long Beach",
    "state_province": "California",
    "postal_code": "90806-2831",
    "country": "United States",
    "longitude": -118.2156232,
    "latitude": 33.8044209,
    "phone": "5623413659",
    "website_url": "http://www.lbbeer.com",
    "state": "California",
    "street": "518 W Willow St"
  },
  {
    "id": "83184b61-ebc9-46b8-903d-6516e9a63046",
    "name": "Long Branch Brewery",
    "brewery_type": "planning",
    "address_1": null,
    "address_2": null,
    "address_3": null,
    "city": "Long Branch",
    "state_province": "New Jersey",
    "postal_code": "07740",
    "country": "United States",
    "longitude": null,
    "latitude": null,
    "phone": "7325013025",
    "website_url": null,
    "state": "New Jersey",
    "street": null
  }
]