[
  {
    "id": "73078bb1-4735-45e5-b27c-3e8d87914de4",
    "name": "South Street Brewery",
    "brewery_type": "brewpub",
    "address_1": "106 W South St Ste 202",
    "address_2": null,
    "address_3": null,
    "city": "Charlottesville",
    "state_province": "Virginia",
    "postal_code": "22902-3600",
    "country": "United States",
    "longitude": null,
    "latitude": null,
    "phone": "4342936550",
    "website_url": "http://www.southstreetbrewery.com",
    "state": "Virginia",
    "street": "106 W South St Ste 202"
  },
  {
    "id": "86803100-fcae-4cda-9e75-060c2de677f3",
    "name": "Southampton Publick House",
    "brewery_type": "brewpub",
    "address_1": "62 Jobs Ln",
    "address_2": null,
    "address_3": null,
    "city": "Southampton",
    "state_province": "New York",
    "postal_code": "11968-4807",
    "country": "United States",
    "longitude": null,
    "latitude": null,
    "phone": "6312832800",
    "website_url": "http://www.publick.com",
    "state": "New York",
    "street": "62 Jobs Ln"
  },
  {
    "id": "91ce7a11-6109-4dcc-98a3-196c939e96cb",
    "name": "Southbound Brewing Co",
    "brewery_type": "micro",
    "address_1": "107 E Lathrop Ave",
    "address_2": null,
    "address_3": null,
    "city": "Savannah",
    "state_province": "Georgia",
    "postal_code": "31415-2182",
    "country": "United States",
    "longitude": -81.111372,
    "latitude": 32.087032,
    "phone": null,
    "website_url": "http://www.southboundbrewingco.com",
    "state": "Georgia",
    "street": "107 E Lathrop Ave"
  },
  {
    "id": "ef1e0503-a145-451d-9e68-13ebc69b3b1a",
    "name": "Southerleigh Brewing",
    "brewery_type": "brewpub",
    "address_1": "136 E Grayson St., Ste 120",
    "address_2": null,
    "address_3": null,
    "city": "San Antonio",
    "state_province": "Texas",
    "postal_code": "78212-4114",
    "country": "United States",
    "longitude": null,
    "latitude": null,
    "phone": "2103137627",
    "website_url": "http://www.southerleigh.com",
    "state": "Texas",
    "street": "136 E Grayson St., Ste 120"
  },
  {
    "id": "3e1ffead-2087-4bf9-8d03-621591c0ee27",
    "name": "Southern Appalachian Brewery",
    "brewery_type": "micro",
    "address_1": "822 Locust St Ste 100",
    "address_2": null,
    "address_3": null,
    "city": "Hendersonville",
    "state_province": "North Carolina",
    "postal_code": "28792-3758",
    "country": "United States",
    "longitude": null,
    "latitude": null,
    "phone": "8286841235",
    "website_url": null,
    "state": "North Carolina",
    "street": "822 Locust St Ste 100"
  },
  {
    "id": "412573c0-b440-4110-bc4f-06f0177c8f36",
    "name": "Southern Barrel Brewing Company",
    "brewery_type": "micro",
    "address_1": "375 Buckwalter Place Blvd",
    "address_2": null,
    "address_3": null,
    "city": "Bluffton",
    "state_province": "South Carolina",
    "postal_code": "29910",
    "country": "United States",
    "longitude": -80.9199124,
    "latitude": 32.2715377,
    "phone": "8438372337",
    "website_url": "http://www.southernbarrelbrewingco.com",
    "state": "South Carolina",
    "street": "375 Buckwalter Place Blvd"
  },
  {
    "id": "66db9365-5062-4f15-b25f-c40c894c9ec3",
    "name": "Southern Brewing & Winemaking Brewery",
    "brewery_type": "brewpub",
    "address_1": "4500 N Nebraska Ave",
    "address_2": null,
    "address_3": null,
    "city": "Tampa",
    "state_province": "Florida",
    "postal_code": "33603-4149",
    "country": "United States",
    "longitude": -82.4500207,
    "latitude": 27.9495902,
    "phone": "8132387800",
    "website_url": "http://www.southernbrewingwinemaking.com",
    "state": "Florida",
    "street": "4500 N Nebraska Ave"
  },
  {
    "id": "51618504-46a9-4a44-9d67-80ce0873d1c2",
    "name": "Southern Brewing Company",
    "brewery_type": "micro",
    "address_1": "231 Collins Industrial Blvd",
    "address_2": null,
    "address_3": null,
    "city": "Athens",
    "state_province": "Georgia",
    "postal_code": "30601-1517",
    "country": "United States",
    "longitude": -83.35002287,
    "latitude": 33.98114012,
    "phone": "7065487183",
    "website_url": "http://www.sobrewco.com",
    "state": "Georgia",
    "street": "231 Collins Industrial Blvd"
  },
  {
    "id": "4ef9f5b8-3d53-4339-84e6-76f0ba810e27",
    "name": "Southern Craft Brewing Company",
    "brewery_type": "closed",
    "address_1": "14141 Airline Hwy Ste 4J",
    "address_2": null,
    "address_3": null,
    "city": "Baton Rouge",
    "state_province": "Louisiana",
    "postal_code": "70817-6259",
    "country": "United States",
    "longitude": null,
    "latitude": null,
    "phone": "2256638119",
    "website_url": "http://www.socraftbeer.com",
    "state": "Louisiana",
    "street": "14141 Airline Hwy Ste 4J"
  },
  {
    "id": "2c990dc6-64f9-466a-85f0-2aeb9794916d",
    "name": "Southern Grist Brewing Company",
    "brewery_type": "micro",
    "address_1": "1201 Porter Rd",
    "address_2": null,
    "address_3": null,
    "city": "Nashville",
    "state_province": "Tennessee",
    "postal_code": "37206-1733",
    "country": "United States",
    "longitude": -86.729011,
    "latitude": 36.188838,
    "phone": "6157271201",
    "website_url": "http://www.southerngristbrewing.com",
    "state": "Tennessee",
    "street": "1201 Porter Rd"
  },
  {
    "id": "6c544f75-7fa2-4229-9a63-765c5e756af4",
    "name": "Southern Heights Brewing Co LLC",
    "brewery_type": "micro",
    "address_1": "6014 Techni Center Dr Ste 2-101",
    "address_2": null,
    "address_3": null,
    "city": "Austin",
    "state_province": "Texas",
    "postal_code": "78721-2349",
    "country": "United States",
    "longitude": null,
    "latitude": null,
    "phone": "5126506901",
    "website_url": "http://www.southernheightsbrewing.com",
    "state": "Texas",
    "street": "6014 Techni Center Dr Ste 2-101"
  },
  {
    "id": "27361067-b6df-4298-8d41-39e933312469",
    "name": "Southern Hops Brewing Co.",
    "brewery_type": "brewpub",
    "address_1": "911 Sunset Acres Ln",
    "address_2": null,
    "address_3": null,
    "city": "Florence",
    "state_province": "South Carolina",
    "postal_code": "29501-6073",
    "country": "United States",
    "longitude": null,
    "latitude": null,
    "phone": "8436671900",
    "website_url": "http://www.southernhops.com",
    "state": "South Carolina",
    "street": "911 Sunset Acres Ln"
  },
  {
    "id": "c92aeb72-e934-460d-aa03-86da72b6d0c4",
    "name": "Southern Lights Brewing",
    "brewery_type": "micro",
    "address_1": "2045 Gulf To Bay Blvd Ste D",
    "address_2": null,
    "address_3": null,
    "city": "Clearwater",
    "state_province": "Florida",
    "postal_code": "33765-3752",
    "country": "United States",
    "longitude": null,
    "latitude": null,
    "phone": "7276149919",
    "website_url": "http://www.southernlightsbrewing.com",
    "state": "Florida",
    "street": "2045 Gulf To Bay Blvd Ste D"
  },
  {
    "id": "322e1333-9ac0-49f8-9313-39b117f0f647",
    "name": "Southern Pacific Brewing",
    "brewery_type": "brewpub",
    "address_1": "620 Treat Ave",
    "address_2": null,
    "address_3": null,
    "city": "San Francisco",
    "state_province": "California",
    "postal_code": "94110-2016",
    "country": "United States",
    "longitude": -122.4139896,
    "latitude": 37.7601311,
    "phone": "4153410152",
    "website_url": "http://www.southernpacificbrewing.com",
    "state": "California",
    "street": "620 Treat Ave"
  },
  {
    "id": "3ae0a49a-4062-4373-a647-98d246ce43d2",
    "name": "Southern Peak Brewery",
    "brewery_type": "micro",
    "address_1": "950 Windy Rd Ste 100",
    "address_2": null,
    "address_3": null,
    "city": "Apex",
    "state_province": "North Carolina",
    "postal_code": "27502-2410",
    "country": "United States",
    "longitude": -78.8439995,
    "latitude": 35.7461806,
    "phone": "9192084515",
    "website_url": "http://www.southernpeakbrewery.com",
    "state": "North Carolina",
    "street": "950 Windy Rd Ste 100"
  },
  {
    "id": "2be3a6fa-c941-4347-ac5e-52aef8acabd4",
    "name": "Southern Pines Brewing Company",
    "brewery_type": "micro",
    "address_1": "565 Air Tool Dr Ste E",
    "address_2": null,
    "address_3": null,
    "city": "Southern Pines",
    "state_province": "North Carolina",
    "postal_code": "28387-3469",
    "country": "United States",
    "longitude": null,
    "latitude": null,
    "phone": "9103659925",
    "website_url": "http://www.southernpinesbrewing.com",
    "state": "North Carolina",
    "street": "565 Air Tool Dr Ste E"
  },
  {
    "id": "53129047-f8f0-44a6-a064-7c4f44b90a4a",
    "name": "Southern Prohibition Brewing",
    "brewery_type": "micro",
    "address_1": "301 Mobile St",
    "address_2": null,
    "address_3": null,
    "city": "Hattiesburg",
    "state_province": "Mississippi",
    "postal_code": "39401-3406",
    "country": "United States",
    "longitude": -89.28992011,
    "latitude": 31.33123464,
    "phone": "6014671057",
    "website_url": "http://www.soprobrewing.com",
    "state": "Mississippi",
    "street": "301 Mobile St"
  },
  {
    "id": "87decbbd-efa4-4914-a50b-0622169f7dfd",
    "name": "Southern Range Brewing",
    "brewery_type": "brewpub",
    "address_1": "151 S Stewart St",
    "address_2": null,
    "address_3": null,
    "city": "Monroe",
    "state_province": "North Carolina",
    "postal_code": "28112",
    "country": "United States",
    "longitude": -80.55091346,
    "latitude": 34.98073637,
    "phone": "7042894049",
    "website_url": "http://www.southernrangebrewing.com",
    "state": "North Carolina",
    "street": "151 S Stewart St"
  },
  {
    "id": "3d22a2ae-d718-4714-9eaf-7afa0480f9c9",
    "name": "Southern Sky Brewing Co",
    "brewery_type": "micro",
    "address_1": "1590 N Roberts Rd NW Ste 208",
    "address_2": null,
    "address_3": null,
    "city": "Kennesaw",
    "state_province": "Georgia",
    "postal_code": "30144-3636",
    "country": "United States",
    "longitude": null,
    "latitude": null,
    "phone": "7707028318",
    "website_url": "http://www.southernskybrewing.com",
    "state": "Georgia",
    "street": "1590 N Roberts Rd NW Ste 208"
  },
  {
    "id": "c914b941-351f-4f4a-8256-8791d9a6562e",
    "name": "Southern Star Brewing",
    "brewery_type": "micro",
    "address_1": "3525 N Frazier St",
    "address_2": null,
    "address_3": null,
    "city": "Conroe",
    "state_province": "Texas",
    "postal_code": "77303-1430",
    "country": "United States",
    "longitude": -95.4776897,
    "latitude": 30.3587546,
    "phone": "9364412739",
    "website_url": "http://www.southernstarbrewing.com",
    "state": "Texas",
    "street": "3525 N Frazier St"
  },
  {
    "id": "7b6e3cce-d456-4ae4-9e09-8debafb72d3a",
    "name": "Southern Sun Pub and Brewery",
    "brewery_type": "brewpub",
    "address_1": "627 S Broadway St",
    "address_2": null,
    "address_3": null,
    "city": "Boulder",
    "state_province": "Colorado",
    "postal_code": "80305-5944",
    "country": "United States",
    "longitude": null,
    "latitude": null,
    "phone": "3035430886",
    "website_url": "http://www.mountainsunpub.com",
    "state": "Colorado",
    "street": "627 S Broadway St"
  },
  {
    "id": "1feb9508-e9e7-476b-bf27-54e7beb0dc46",
    "name": "Southern Swells Brewing Company",
    "brewery_type": "micro",
    "address_1": "1312 Beach Blvd",
    "address_2": null,
    "address_3": null,
    "city": "Jacksonville Beach",
    "state_province": "Florida",
    "postal_code": "32250-3408",
    "country": "United States",
    "longitude": -81.3923194,
    "latitude": 30.2882669,
    "phone": "9046546425",
    "website_url": "http://www.southernswells.com",
    "state": "Florida",
    "street": "1312 Beach Blvd"
  },
  {
    "id": "30e025c7-8629-484a-9508-d848208212a6",
    "name": "Southern Tier Brewing Co",
    "brewery_type": "brewpub",
    "address_1": "316 N Shore Dr",
    "address_2": null,
    "address_3": null,
    "city": "Pittsburgh",
    "state_province": "Pennsylvania",
    "postal_code": "15212-5870",
    "country": "United States",
    "longitude": -80.008595,
    "latitude": 40.4464115,
    "phone": "4123012337",
    "website_url": "http://www.stbcbeer.com",
    "state": "Pennsylvania",
    "street": "316 N Shore Dr"
  },
  {
    "id": "33b5dae7-7850-4d45-a7a5-8716f7bcb6c6",
    "name": "Southern Tier Brewing Co",
    "brewery_type": "planning",
    "address_1": null,
    "address_2": null,
    "address_3": null,
    "city": "Cleveland",
    "state_province": "Ohio",
    "postal_code": "44115-1111",
    "country": "United States",
    "longitude": null,
    "latitude": null,
    "phone": null,
    "website_url": null,
    "state": "Ohio",
    "street": null
  },
  {
    "id": "d60a6feb-13cc-4b3f-b501-a784512982ec",
    "name": "Southern Tier Brewing Co",
    "brewery_type": "regional",
    "address_1": "2072 Stoneman Cir",
    "address_2": null,
    "address_3": null,
    "city": "Lakewood",
    "state_province": "New York",
    "postal_code": "14750-9779",
    "country": "United States",
    "longitude": null,
    "latitude": null,
    "phone": "7167635479",
    "website_url": "http://www.southerntierbrewing.com",
    "state": "New York",
    "street": "2072 Stoneman Cir"
  },
  {
    "id": "c870f079-c22b-477a-9d05-40f2e40e56a7",
    "name": "Southern Yankee Beer Company",
    "brewery_type": "planning",
    "address_1": null,
    "address_2": null,
    "address_3": null,
    "city": "Houston",
    "state_province": "Texas",
    "postal_code": "77073",
    "country": "United States",
    "longitude": null,
    "latitude": null,
    "phone": null,
    "website_url": "http://southernyankeebeer.com",
    "state": "Texas",
    "street": null
  },
  {
    "id": "c5cbdec7-f48c-4e94-a1b5-b2dca664e66e",
    "name": "Southpaw BBQ & Southern Cooking",
    "brewery_type": "brewpub",
    "address_1": "2170 Mission St",
    "address_2": null,
    "address_3": null,
    "city": "San Francisco",
    "state_province": "California",
    "postal_code": "94110-1247",
    "country": "United States",
    "longitude": -122.4195306,
    "latitude": 37.7634391,
    "phone": "4159349300",
    "website_url": "http://www.southpawbbqsf.com",
    "state": "California",
    "street": "2170 Mission St"
  },
  {
    "id": "2e5cf2f4-d238-4eba-95f1-1d736e7cfa2e",
    "name": "Southside Brewing Co",
    "brewery_type": "brewpub",
    "address_1": "62920 Georgetown Rd",
    "address_2": null,
    "address_3": null,
    "city": "Cambridge",
    "state_province": "Ohio",
    "postal_code": "43725-9749",
    "country": "United States",
    "longitude": null,
    "latitude": null,
    "phone": "7404353222",
    "website_url": "http://www.southsidebrewing.net",
    "state": "Ohio",
    "street": "62920 Georgetown Rd"
  },
  {
    "id": "3cec9f9a-adef-4536-9107-fb1f8324a088",
    "name": "Sovina, Lda.",
    "brewery_type": "micro",
    "address_1": "Rua Manuel Pinto de Azevedo, 65",
    "address_2": "Armaz\u00e9m 4 e 5",
    "address_3": null,
    "city": "Porto",
    "state_province": "Porto",
    "postal_code": "4100-321 ",
    "country": "Portugal",
    "longitude": -8.6452229596654,
    "latitude": 41.170757821527,
    "phone": "+351 22 600 69 36",
    "website_url": "https://sovina.pt/",
    "state": "Porto",
    "street": "Rua Manuel Pinto de Azevedo, 65"
  },
  {
    "id": "be72c629-781c-4103-a6bb-afce18774c4e",
    "name": "Spada Farmhouse Brewery",
    "brewery_type": "micro",
    "address_1": "709 1st St",
    "address_2": null,
    "address_3": null,
    "city": "Snohomish",
    "state_province": "Washington",
    "postal_code": "98290-6125",
    "country": "United States",
    "longitude": -122.09223692891,
    "latitude": 47.910879530283,
    "phone": "4253306938",
    "website_url": "http://www.spadafarmhousebrewery.com",
    "state": "Washington",
    "street": "709 1st St"
  },
  {
    "id": "74960c65-dabf-4e8e-a2e8-8ee5d304aec0",
    "name": "Spahr Brewing Company",
    "brewery_type": "micro",
    "address_1": "3541 W Fairfield Dr",
    "address_2": null,
    "address_3": null,
    "city": "Pensacola",
    "state_province": "Florida",
    "postal_code": "32505-4862",
    "country": "United States",
    "longitude": -87.25663063,
    "latitude": 30.44184376,
    "phone": "8504395362",
    "website_url": "http://www.spahrbrewingcompany.com",
    "state": "Florida",
    "street": "3541 W Fairfield Dr"
  },
  {
    "id": "2334bc0b-57f3-49a0-9b7a-7d8f1d5f5edd",
    "name": "Spangalang Brewery",
    "brewery_type": "micro",
    "address_1": "2736 Welton St Ste 102",
    "address_2": null,
    "address_3": null,
    "city": "Denver",
    "state_province": "Colorado",
    "postal_code": "80205-2900",
    "country": "United States",
    "longitude": -104.9770361,
    "latitude": 39.7552227,
    "phone": "3032971276",
    "website_url": "http://www.spangalangbrewery.com",
    "state": "Colorado",
    "street": "2736 Welton St Ste 102"
  },
  {
    "id": "61181a27-5fe3-4f0b-843a-62cbe818139f",
    "name": "Spartan Brewpub",
    "brewery_type": "brewpub",
    "address_1": "3056 Okemos Rd",
    "address_2": null,
    "address_3": null,
    "city": "Mason",
    "state_province": "Michigan",
    "postal_code": "48854-9300",
    "country": "United States",
    "longitude": -84.43276467,
    "latitude": 42.67095756,
    "phone": "5175075098",
    "website_url": "http://spartanbrewpub.com/",
    "state": "Michigan",
    "street": "3056 Okemos Rd"
  },
  {
    "id": "0c378519-6171-4f1a-9535-345a0e99af03",
    "name": "Speakeasy Ales and Lagers",
    "brewery_type": "micro",
    "address_1": "1195 Evans Ave",
    "address_2": null,
    "address_3": null,
    "city": "San Francisco",
    "state_province": "California",
    "postal_code": "94124-1704",
    "country": "United States",
    "longitude": -122.3808557,
    "latitude": 37.73854531,
    "phone": "4156423371",
    "website_url": "http://www.goodbeer.com",
    "state": "California",
    "street": "1195 Evans Ave"
  },
  {
    "id": "ef0527d9-0605-4d3a-adce-9e59dd492e66",
    "name": "Spearfish Brewing Company",
    "brewery_type": "micro",
    "address_1": "741 N Main St Ste 130",
    "address_2": null,
    "address_3": null,
    "city": "Spearfish",
    "state_province": "South Dakota",
    "postal_code": "57783-4147",
    "country": "United States",
    "longitude": -103.8597028,
    "latitude": 44.4910696,
    "phone": "6057176999",
    "website_url": "http://spearfishbrewing.com",
    "state": "South Dakota",
    "street": "741 N Main St Ste 130"
  },
  {
    "id": "4678264d-4bc5-4649-8628-1759040efa82",
    "name": "Speciation Artisan Ales",
    "brewery_type": "micro",
    "address_1": "3720 West River Dr NE Ste 201",
    "address_2": null,
    "address_3": null,
    "city": "Comstock Park",
    "state_province": "Michigan",
    "postal_code": "49321-8980",
    "country": "United States",
    "longitude": null,
    "latitude": null,
    "phone": "6166666783",
    "website_url": "http://speciationartisanales.com",
    "state": "Michigan",
    "street": "3720 West River Dr NE Ste 201"
  },
  {
    "id": "ade45bb3-7a21-4ebb-ade0-a792c648813d",
    "name": "Spellbound Brewing",
    "brewery_type": "micro",
    "address_1": "10 Lippincott Ln Unit 12",
    "address_2": null,
    "address_3": null,
    "city": "Mount Holly",
    "state_province": "New Jersey",
    "postal_code": "08060-1603",
    "country": "United States",
    "longitude": null,
    "latitude": null,
    "phone": "6098320077",
    "website_url": "http://www.spellboundbrewing.com",
    "state": "New Jersey",
    "street": "10 Lippincott Ln Unit 12"
  },
  {
    "id": "ebe3d590-e35e-49ba-9ce6-df24e50fe330",
    "name": "Spencer Brewery",
    "brewery_type": "micro",
    "address_1": "167 N Spencer Rd",
    "address_2": null,
    "address_3": null,
    "city": "Spencer",
    "state_province": "Massachusetts",
    "postal_code": "01562-1232",
    "country": "United States",
    "longitude": -72.0133159,
    "latitude": 42.2976331,
    "phone": "5088855756",
    "website_url": "http://www.spencerbrewery.com",
    "state": "Massachusetts",
    "street": "167 N Spencer Rd"
  },
  {
    "id": "da222760-6803-40e1-bc20-b7c10d590e67",
    "name": "Spencer Devon Brewing",
    "brewery_type": "brewpub",
    "address_1": "106 George St",
    "address_2": null,
    "address_3": null,
    "city": "Fredericksburg",
    "state_province": "Virginia",
    "postal_code": "22401-5863",
    "country": "United States",
    "longitude": -77.4587704,
    "latitude": 38.30272523,
    "phone": "5404798381",
    "website_url": "http://www.spencerdevonbrewing.com",
    "state": "Virginia",
    "street": "106 George St"
  },
  {
    "id": "95832751-54ac-44a4-adb6-054400c8e02a",
    "name": "Spice Trade Brewing",
    "brewery_type": "brewpub",
    "address_1": "7803 Ralston Rd",
    "address_2": null,
    "address_3": null,
    "city": "Arvada",
    "state_province": "Colorado",
    "postal_code": "80002-2433",
    "country": "United States",
    "longitude": -105.0841731,
    "latitude": 39.802334,
    "phone": "3034319000",
    "website_url": "http://www.spicetradebrewing.com",
    "state": "Colorado",
    "street": "7803 Ralston Rd"
  },
  {
    "id": "8071c162-cfc3-4053-b12b-eca3bb37f2b4",
    "name": "Spider Bite Brewing Co",
    "brewery_type": "micro",
    "address_1": "920 Lincoln Ave Unit 5",
    "address_2": null,
    "address_3": null,
    "city": "Holbrook",
    "state_province": "New York",
    "postal_code": "11741-2257",
    "country": "United States",
    "longitude": null,
    "latitude": null,
    "phone": "6319423255",
    "website_url": "http://www.spiderbitebeer.com",
    "state": "New York",
    "street": "920 Lincoln Ave Unit 5"
  },
  {
    "id": "d607f1e5-cce4-4fe4-a6bf-6ad2b0bfa19d",
    "name": "Spigots Brew Pub",
    "brewery_type": "brewpub",
    "address_1": "622 Barrow St",
    "address_2": null,
    "address_3": null,
    "city": "Houma",
    "state_province": "Louisiana",
    "postal_code": "70360-4608",
    "country": "United States",
    "longitude": -90.71974565,
    "latitude": 29.59396551,
    "phone": "9853333103",
    "website_url": "http://www.spigotsbrewpub.com",
    "state": "Louisiana",
    "street": "622 Barrow St"
  },
  {
    "id": "7fdb8e35-58e6-40f2-955d-b57fff14eddb",
    "name": "Spilled Grain Brewhouse",
    "brewery_type": "micro",
    "address_1": "300 Elm St E",
    "address_2": null,
    "address_3": null,
    "city": "Annandale",
    "state_province": "Minnesota",
    "postal_code": "55302-9406",
    "country": "United States",
    "longitude": -94.11946132,
    "latitude": 45.25958238,
    "phone": "3202741129",
    "website_url": "http://www.spilledgrainbrewhouse.com",
    "state": "Minnesota",
    "street": "300 Elm St E"
  },
  {
    "id": "57da9428-05ab-44e9-8f30-253292f1b1ea",
    "name": "Spindletap Brewery",
    "brewery_type": "micro",
    "address_1": "10622 Hirsch Rd",
    "address_2": null,
    "address_3": null,
    "city": "Houston",
    "state_province": "Texas",
    "postal_code": "77016-2622",
    "country": "United States",
    "longitude": -95.3149254,
    "latitude": 29.8677396,
    "phone": "7133251477",
    "website_url": "http://www.spindletap.com",
    "state": "Texas",
    "street": "10622 Hirsch Rd"
  },
  {
    "id": "3e5a42f9-3f8d-4156-b732-00e4a3f734ce",
    "name": "Spiral Brewery",
    "brewery_type": "micro",
    "address_1": "111 2nd St E",
    "address_2": null,
    "address_3": null,
    "city": "Hastings",
    "state_province": "Minnesota",
    "postal_code": "55033-1265",
    "country": "United States",
    "longitude": -92.8524399,
    "latitude": 44.7443609,
    "phone": "6517264832",
    "website_url": "http://Spiralbrewery.com",
    "state": "Minnesota",
    "street": "111 2nd St E"
  },
  {
    "id": "0dfcc382-8b95-4506-a24d-6d5466af82d8",
    "name": "Spires Social Brewing Co.",
    "brewery_type": "micro",
    "address_1": "8757 Sancus Blvd",
    "address_2": null,
    "address_3": null,
    "city": "Columbus",
    "state_province": "Ohio",
    "postal_code": "43240",
    "country": "United States",
    "longitude": -83.004836,
    "latitude": 40.1473396,
    "phone": "6144268057",
    "website_url": "http://www.spiressocial.com",
    "state": "Ohio",
    "street": "8757 Sancus Blvd"
  },
  {
    "id": "004fd048-ed5e-44b6-a116-5d0f5204db06",
    "name": "Spiteful Brewing",
    "brewery_type": "micro",
    "address_1": "2024 W Balmoral Ave",
    "address_2": null,
    "address_3": null,
    "city": "Chicago",
    "state_province": "Illinois",
    "postal_code": "60625-1002",
    "country": "United States",
    "longitude": -87.6806429,
    "latitude": 41.979914,
    "phone": "7732936600",
    "website_url": "http://www.spitefulbrewing.com",
    "state": "Illinois",
    "street": "2024 W Balmoral Ave"
  },
  {
    "id": "08f12f3f-b6fa-45a3-ba43-782f34fd1de8",
    "name": "Splintercat Brewing",
    "brewery_type": "planning",
    "address_1": null,
    "address_2": null,
    "address_3": null,
    "city": "Corvallis",
    "state_province": "Oregon",
    "postal_code": "97330-1348",
    "country": "United States",
    "longitude": null,
    "latitude": null,
    "phone": null,
    "website_url": null,
    "state": "Oregon",
    "street": null
  },
  {
    "id": "23df1166-5226-4808-ab4c-6ebf216ccc4c",
    "name": "Spoetzl Brewery",
    "brewery_type": "regional",
    "address_1": "603 E Brewery St",
    "address_2": null,
    "address_3": null,
    "city": "Shiner",
    "state_province": "Texas",
    "postal_code": "77984-0368",
    "country": "United States",
    "longitude": null,
    "latitude": null,
    "phone": "3615943383",
    "website_url": "http://www.shiner.com",
    "state": "Texas",
    "street": "603 E Brewery St"
  },
  {
    "id": "c45da661-0533-4277-8a7b-a8b8dcf669c0",
    "name": "Spoonwood Brewing Company",
    "brewery_type": "brewpub",
    "address_1": "5981 Baptist Rd",
    "address_2": null,
    "address_3": null,
    "city": "Pittsburgh",
    "state_province": "Pennsylvania",
    "postal_code": "15236-3303",
    "country": "United States",
    "longitude": null,
    "latitude": null,
    "phone": "4128330333",
    "website_url": "http://www.spoonwoodbrewing.com",
    "state": "Pennsylvania",
    "street": "5981 Baptist Rd"
  }
]