[
  {
    "id": "e2cbce93-bcc6-4508-85fd-071101a6942d",
    "name": "Joseph Wolf Brewing Company",
    "brewery_type": "contract",
    "address_1": "85 7th Pl E Ste 200",
    "address_2": null,
    "address_3": null,
    "city": "Saint Paul",
    "state_province": "Minnesota",
    "postal_code": "55101-2143",
    "country": "United States",
    "longitude": null,
    "latitude": null,
    "phone": "6127519422",
    "website_url": "http://www.josephwolfbrewing.com",
    "state": "Minnesota",
    "street": "85 7th Pl E Ste 200"
  },
  {
    "id": "1b96abd4-d03f-4727-bc2b-686272e2b3ec",
    "name": "Jovial Foods, Inc.",
    "brewery_type": "planning",
    "address_1": null,
    "address_2": null,
    "address_3": null,
    "city": "North Stonington",
    "state_province": "Connecticut",
    "postal_code": "06359-1713",
    "country": "United States",
    "longitude": null,
    "latitude": null,
    "phone": "8605350494",
    "website_url": "http://www.jovialfoods.com",
    "state": "Connecticut",
    "street": null
  },
  {
    "id": "7fadcb6d-a145-4f04-8e86-afceff597e81",
    "name": "Joymongers Brewing Co.",
    "brewery_type": "micro",
    "address_1": "576 N Eugene St",
    "address_2": null,
    "address_3": null,
    "city": "Greensboro",
    "state_province": "North Carolina",
    "postal_code": "27401",
    "country": "United States",
    "longitude": -79.79380945,
    "latitude": 36.07871896,
    "phone": "3367635255",
    "website_url": "http://www.joymongers.com",
    "state": "North Carolina",
    "street": "576 N Eugene St"
  },
  {
    "id": "5c8f16b0-45fb-42ce-bb6b-ffcc4582eb42",
    "name": "Joyride Brewing Co",
    "brewery_type": "micro",
    "address_1": "2501 Sheridan Blvd",
    "address_2": null,
    "address_3": null,
    "city": "Edgewater",
    "state_province": "Colorado",
    "postal_code": "80214-1330",
    "country": "United States",
    "longitude": -105.053492,
    "latitude": 39.7531231,
    "phone": "7204327560",
    "website_url": "http://joyridebrewing.com",
    "state": "Colorado",
    "street": "2501 Sheridan Blvd"
  },
  {
    "id": "d47b743b-1208-4702-bbf8-60bcf9b78954",
    "name": "JP DasBrew",
    "brewery_type": "micro",
    "address_1": "44356 S Grimmer Blvd",
    "address_2": null,
    "address_3": null,
    "city": "Fremont",
    "state_province": "California",
    "postal_code": "94538-6385",
    "country": "United States",
    "longitude": -121.9577836,
    "latitude": 37.5043737,
    "phone": "5102705345",
    "website_url": "http://www.dasbrewinc.com",
    "state": "California",
    "street": "44356 S Grimmer Blvd"
  },
  {
    "id": "5602d851-d8a1-4004-9e8e-050b663b510a",
    "name": "JRH Brewing",
    "brewery_type": "micro",
    "address_1": "458 W Walnut St",
    "address_2": null,
    "address_3": null,
    "city": "Johnson City",
    "state_province": "Tennessee",
    "postal_code": "37604-6766",
    "country": "United States",
    "longitude": -82.35483648,
    "latitude": 36.31169595,
    "phone": "4237223410",
    "website_url": "http://www.jrhbrewing.com",
    "state": "Tennessee",
    "street": "458 W Walnut St"
  },
  {
    "id": "f642769d-19fa-46be-992f-f48471567b27",
    "name": "JT Schmids Restaurant & Brewery",
    "brewery_type": "brewpub",
    "address_1": "2610 E Katella Ave",
    "address_2": null,
    "address_3": null,
    "city": "Anaheim",
    "state_province": "California",
    "postal_code": "92806-5903",
    "country": "United States",
    "longitude": -117.8770639,
    "latitude": 33.8056683,
    "phone": "7146349200",
    "website_url": "http://www.jtschmids.com",
    "state": "California",
    "street": "2610 E Katella Ave"
  },
  {
    "id": "5f1b75ad-6420-420e-bbf1-451955fd1308",
    "name": "JT Walker's/Champaign County Brewing Co",
    "brewery_type": "brewpub",
    "address_1": "402 E Main St",
    "address_2": null,
    "address_3": null,
    "city": "Mahomet",
    "state_province": "Illinois",
    "postal_code": "61853-7444",
    "country": "United States",
    "longitude": -88.40289612,
    "latitude": 40.19498357,
    "phone": "2175861100",
    "website_url": "http://www.jtwalkers.com",
    "state": "Illinois",
    "street": "402 E Main St"
  },
  {
    "id": "43b62c73-4d76-433d-8c2b-bc19214eddb4",
    "name": "Jubeck New World Brewing",
    "brewery_type": "micro",
    "address_1": "115 W 11th St",
    "address_2": null,
    "address_3": null,
    "city": "Dubuque",
    "state_province": "Iowa",
    "postal_code": "52001-4802",
    "country": "United States",
    "longitude": -90.66770404,
    "latitude": 42.50362393,
    "phone": "7753755692",
    "website_url": "http://www.jubeckbrewing.com",
    "state": "Iowa",
    "street": "115 W 11th St"
  },
  {
    "id": "c184d97f-0fb1-49d4-89c7-753b7d54393c",
    "name": "Jubilee Craft Beer Co",
    "brewery_type": "contract",
    "address_1": "3430 Hampton Ave",
    "address_2": null,
    "address_3": null,
    "city": "Nashville",
    "state_province": "Tennessee",
    "postal_code": "37215-1408",
    "country": "United States",
    "longitude": -86.82509853,
    "latitude": 36.11746395,
    "phone": "6156869397",
    "website_url": "http://www.jubileebeer.com",
    "state": "Tennessee",
    "street": "3430 Hampton Ave"
  },
  {
    "id": "30844cba-d501-4996-b7f5-26a347a7d89f",
    "name": "Jughandle Brewing Co LLC",
    "brewery_type": "micro",
    "address_1": "4057 Asbury Ave Ste 6",
    "address_2": null,
    "address_3": null,
    "city": "Tinton Falls",
    "state_province": "New Jersey",
    "postal_code": "07753-7700",
    "country": "United States",
    "longitude": null,
    "latitude": null,
    "phone": "7328982220",
    "website_url": "http://www.jughandlebrewing.com",
    "state": "New Jersey",
    "street": "4057 Asbury Ave Ste 6"
  },
  {
    "id": "e431c0fc-caf0-49e6-bac5-5f96ec31cd05",
    "name": "Jukes Ale Works",
    "brewery_type": "brewpub",
    "address_1": "20560 Elkhorn Dr",
    "address_2": null,
    "address_3": null,
    "city": "Omaha",
    "state_province": "Nebraska",
    "postal_code": "68022-3533",
    "country": "United States",
    "longitude": -96.237282,
    "latitude": 41.283478,
    "phone": "4023054905",
    "website_url": "https://www.jukesaleworks.com",
    "state": "Nebraska",
    "street": "20560 Elkhorn Dr"
  },
  {
    "id": "e410f1e7-62c4-449f-81be-b16b606d71fd",
    "name": "Julian Brewing Co",
    "brewery_type": "micro",
    "address_1": "2315 Main St",
    "address_2": null,
    "address_3": null,
    "city": "Julian",
    "state_province": "California",
    "postal_code": "92065",
    "country": "United States",
    "longitude": -116.603975,
    "latitude": 33.079171,
    "phone": "7607653757",
    "website_url": "http://www.baileybbq.com",
    "state": "California",
    "street": "2315 Main St"
  },
  {
    "id": "d6d0150a-2474-4f3d-97e0-43be00aaae9d",
    "name": "Julius Lehrkind Brewing",
    "brewery_type": "micro",
    "address_1": "1717 N Rouse Ave",
    "address_2": null,
    "address_3": null,
    "city": "Bozeman",
    "state_province": "Montana",
    "postal_code": "59715-2426",
    "country": "United States",
    "longitude": -111.031558,
    "latitude": 45.69633335,
    "phone": "4065510199",
    "website_url": "http://www.juliusbrewing.com",
    "state": "Montana",
    "street": "1717 N Rouse Ave"
  },
  {
    "id": "834e1ed2-363a-49b0-bbcf-4e2941114d52",
    "name": "Junction Brewery & Grill",
    "brewery_type": "brewpub",
    "address_1": "110 W American Canyon Rd",
    "address_2": null,
    "address_3": null,
    "city": "American Canyon",
    "state_province": "California",
    "postal_code": "94503-4196",
    "country": "United States",
    "longitude": -122.261689,
    "latitude": 38.1658134,
    "phone": "7076492285",
    "website_url": "http://www.junctionbreweryandgrill.com",
    "state": "California",
    "street": "110 W American Canyon Rd"
  },
  {
    "id": "f26dabb7-ac86-468f-be39-968c1620c5ca",
    "name": "June Lake Brewing",
    "brewery_type": "micro",
    "address_1": "131 S Crawford Ave",
    "address_2": null,
    "address_3": null,
    "city": "June Lake",
    "state_province": "California",
    "postal_code": "93529",
    "country": "United States",
    "longitude": -119.0772032,
    "latitude": 37.77835282,
    "phone": null,
    "website_url": "http://www.junelakebrewing.com",
    "state": "California",
    "street": "131 S Crawford Ave"
  },
  {
    "id": "acf51425-904f-441a-b8a0-ea3d939a6f7d",
    "name": "Junk Ditch Brewing Company",
    "brewery_type": "micro",
    "address_1": "1825 W Main St",
    "address_2": null,
    "address_3": null,
    "city": "Fort Wayne",
    "state_province": "Indiana",
    "postal_code": "46808-3715",
    "country": "United States",
    "longitude": -85.1669014,
    "latitude": 41.0779727,
    "phone": "2604600460",
    "website_url": "http://junkditchbrewingco.com",
    "state": "Indiana",
    "street": "1825 W Main St"
  },
  {
    "id": "3399a400-b526-43d1-9900-1b0d04fdaa72",
    "name": "Junkyard Brewing Company",
    "brewery_type": "micro",
    "address_1": "1416 1st Ave N",
    "address_2": null,
    "address_3": null,
    "city": "Moorhead",
    "state_province": "Minnesota",
    "postal_code": "56560-2208",
    "country": "United States",
    "longitude": -96.75706974,
    "latitude": 46.87621357,
    "phone": "7012618403",
    "website_url": "http://www.junkyardbeer.com",
    "state": "Minnesota",
    "street": "1416 1st Ave N"
  },
  {
    "id": "0ead3779-9ebb-4fe8-9f4d-ed39ab888a79",
    "name": "Jupiter",
    "brewery_type": "brewpub",
    "address_1": "2181 Shattuck Ave",
    "address_2": null,
    "address_3": null,
    "city": "Berkeley",
    "state_province": "California",
    "postal_code": "94704-1308",
    "country": "United States",
    "longitude": -122.2676799,
    "latitude": 37.8697889,
    "phone": "5108438277",
    "website_url": "http://www.jupiterbeer.com",
    "state": "California",
    "street": "2181 Shattuck Ave"
  },
  {
    "id": "3c9cd3a2-f0b0-4a59-8a34-95f6c83fd1f1",
    "name": "Jurnee Brewing Company",
    "brewery_type": "planning",
    "address_1": null,
    "address_2": null,
    "address_3": null,
    "city": "Chantilly",
    "state_province": "Virginia",
    "postal_code": "20152-2075",
    "country": "United States",
    "longitude": null,
    "latitude": null,
    "phone": null,
    "website_url": "http://www.jurneebeers.com",
    "state": "Virginia",
    "street": null
  },
  {
    "id": "6b57c0d0-2f3f-46b0-9de6-5216d8f9bd21",
    "name": "K Point Brewing",
    "brewery_type": "brewpub",
    "address_1": "507 Main St",
    "address_2": null,
    "address_3": null,
    "city": "Eau Claire",
    "state_province": "Wisconsin",
    "postal_code": "54701-3736",
    "country": "United States",
    "longitude": -91.49634405,
    "latitude": 44.81114834,
    "phone": null,
    "website_url": "http://www.thecoffeegrounds.com/k-point-brewing/",
    "state": "Wisconsin",
    "street": "507 Main St"
  },
  {
    "id": "58ba7fb8-61a9-4a4f-b545-bee0987aa875",
    "name": "K-Oz Restaurant Brewery",
    "brewery_type": "brewpub",
    "address_1": "121 7th St",
    "address_2": null,
    "address_3": null,
    "city": "San Francisco",
    "state_province": "California",
    "postal_code": "94103-2835",
    "country": "United States",
    "longitude": -122.409904,
    "latitude": 37.7786408,
    "phone": "4158729431",
    "website_url": "http://www.kandoz.com",
    "state": "California",
    "street": "121 7th St"
  },
  {
    "id": "a1359798-d004-4afc-b32d-5c6f99d6f7a3",
    "name": "K2 Brothers Brewing",
    "brewery_type": "brewpub",
    "address_1": "1221 Empire Blvd",
    "address_2": null,
    "address_3": null,
    "city": "Rochester",
    "state_province": "New York",
    "postal_code": "14609-5946",
    "country": "United States",
    "longitude": -77.549992,
    "latitude": 43.17664,
    "phone": "5854131997",
    "website_url": "http://www.K2Brewing.com",
    "state": "New York",
    "street": "1221 Empire Blvd"
  },
  {
    "id": "f27cfcf7-e5ff-412e-9af2-e3d4cf3b9df1",
    "name": "K\u00c3\u00bcnstler Brewing",
    "brewery_type": "brewpub",
    "address_1": "302 E Lachapelle",
    "address_2": null,
    "address_3": null,
    "city": "San Antonio",
    "state_province": "Texas",
    "postal_code": "78204-1945",
    "country": "United States",
    "longitude": -98.5000988,
    "latitude": 29.40503026,
    "phone": "2106884519",
    "website_url": "http://www.kuenstlerbrewing.com",
    "state": "Texas",
    "street": "302 E Lachapelle"
  },
  {
    "id": "3d54e58d-ed32-4e17-a719-5ccff31e0dcc",
    "name": "Kaiser Brewing Company, LLC",
    "brewery_type": "micro",
    "address_1": "1607 Hawthorne St",
    "address_2": null,
    "address_3": null,
    "city": "Forest Grove",
    "state_province": "Oregon",
    "postal_code": "97116-2537",
    "country": "United States",
    "longitude": -123.0990254,
    "latitude": 45.51421585,
    "phone": "5034129628",
    "website_url": "http://www.kaiserbrewingco.com",
    "state": "Oregon",
    "street": "1607 Hawthorne St"
  },
  {
    "id": "e4f18c07-2a3d-4019-bae0-463e3591dbeb",
    "name": "Kaktus Brewing Co.",
    "brewery_type": "brewpub",
    "address_1": "471 South Hill Rd",
    "address_2": null,
    "address_3": null,
    "city": "Bernalillo",
    "state_province": "New Mexico",
    "postal_code": "87004-9199",
    "country": "United States",
    "longitude": -106.5387392,
    "latitude": 35.30844008,
    "phone": "5053795072",
    "website_url": "http://www.kaktusbrewery.com",
    "state": "New Mexico",
    "street": "471 South Hill Rd"
  },
  {
    "id": "a408aa61-48ff-477c-aefe-b38a0aea8dfe",
    "name": "Kalispell Brewing Co",
    "brewery_type": "micro",
    "address_1": "412 Main St",
    "address_2": null,
    "address_3": null,
    "city": "Kalispell",
    "state_province": "Montana",
    "postal_code": "59901-4849",
    "country": "United States",
    "longitude": null,
    "latitude": null,
    "phone": "4067562739",
    "website_url": "http://www.kalispellbrewing.com",
    "state": "Montana",
    "street": "412 Main St"
  },
  {
    "id": "715614d8-f8f2-4d32-a1c1-2d0c8ba8536c",
    "name": "Kalona Brewing Company",
    "brewery_type": "brewpub",
    "address_1": "405 B Ave",
    "address_2": null,
    "address_3": null,
    "city": "Kalona",
    "state_province": "Iowa",
    "postal_code": "52247",
    "country": "United States",
    "longitude": -91.7075553,
    "latitude": 41.4833131,
    "phone": "3196563335",
    "website_url": "http://www.kalonabrewing.com",
    "state": "Iowa",
    "street": "405 B Ave"
  },
  {
    "id": "836b7f89-ce50-485f-8eeb-119b949054b3",
    "name": "Kamigata Beer",
    "brewery_type": "micro",
    "address_1": "3-15-6 Nishiawaji",
    "address_2": null,
    "address_3": null,
    "city": "Osaka",
    "state_province": "Osaka",
    "postal_code": "533-0031",
    "country": "Japan",
    "longitude": 135.5098626,
    "latitude": 34.740096,
    "phone": "81668296550",
    "website_url": "https://kamigatabeer.co.jp/",
    "state": "Osaka",
    "street": "3-15-6 Nishiawaji"
  },
  {
    "id": "f25211f7-7f93-4d13-a170-d743cb1929c6",
    "name": "Kane Brewing",
    "brewery_type": "micro",
    "address_1": "1750 Bloomsbury Ave",
    "address_2": null,
    "address_3": null,
    "city": "Ocean",
    "state_province": "New Jersey",
    "postal_code": "07712-3941",
    "country": "United States",
    "longitude": -74.0448807,
    "latitude": 40.2365672,
    "phone": "7329228600",
    "website_url": "http://www.kanebrewing.com",
    "state": "New Jersey",
    "street": "1750 Bloomsbury Ave"
  },
  {
    "id": "63149b79-de6e-4b2f-aabd-82b851e5c546",
    "name": "Kannah Creek Brewing Co",
    "brewery_type": "brewpub",
    "address_1": "1960 N 12th St",
    "address_2": null,
    "address_3": null,
    "city": "Grand Junction",
    "state_province": "Colorado",
    "postal_code": "81501-2912",
    "country": "United States",
    "longitude": -108.5522615,
    "latitude": 39.08513947,
    "phone": "9702630111",
    "website_url": "http://www.kannahcreekbrewingco.com",
    "state": "Colorado",
    "street": "1960 N 12th St"
  },
  {
    "id": "6224f405-e903-4a89-96f7-c6d6e874eb56",
    "name": "Kanook Beer Company",
    "brewery_type": "planning",
    "address_1": null,
    "address_2": null,
    "address_3": null,
    "city": "Golden",
    "state_province": "Colorado",
    "postal_code": "80403-2674",
    "country": "United States",
    "longitude": null,
    "latitude": null,
    "phone": "3036188362",
    "website_url": "http://www.kanookbeer.com",
    "state": "Colorado",
    "street": null
  },
  {
    "id": "d2b60a75-2bed-4360-a4d7-ca0bb6004d0a",
    "name": "Kansas City Bier Company",
    "brewery_type": "micro",
    "address_1": "310 W 79th St",
    "address_2": null,
    "address_3": null,
    "city": "Kansas City",
    "state_province": "Missouri",
    "postal_code": "64114-1843",
    "country": "United States",
    "longitude": -94.59367119,
    "latitude": 38.98548485,
    "phone": "8162148691",
    "website_url": "http://www.kcbier.com",
    "state": "Missouri",
    "street": "310 W 79th St"
  },
  {
    "id": "817b2847-133e-4139-8a6e-97a07259ea82",
    "name": "Kansas City Breweries Company",
    "brewery_type": "proprietor",
    "address_1": "12650 S Pflumm Rd Ste 202",
    "address_2": null,
    "address_3": null,
    "city": "Olathe",
    "state_province": "Kansas",
    "postal_code": "66062-3895",
    "country": "United States",
    "longitude": null,
    "latitude": null,
    "phone": "8163016313",
    "website_url": "http://www.KCLite.com",
    "state": "Kansas",
    "street": "12650 S Pflumm Rd Ste 202"
  },
  {
    "id": "76e95144-1f59-427d-9db8-b0a87d5e7f08",
    "name": "Kansas Territory Brewing",
    "brewery_type": "micro",
    "address_1": "310 C St",
    "address_2": null,
    "address_3": null,
    "city": "Washington",
    "state_province": "Kansas",
    "postal_code": "66968-1909",
    "country": "United States",
    "longitude": -97.0511838,
    "latitude": 39.81655418,
    "phone": "7853253300",
    "website_url": null,
    "state": "Kansas",
    "street": "310 C St"
  },
  {
    "id": "4c8685f6-66d8-48c8-a80a-37edc0c7fa79",
    "name": "Karbach Brewing Co",
    "brewery_type": "large",
    "address_1": "2032 Karbach St",
    "address_2": null,
    "address_3": null,
    "city": "Houston",
    "state_province": "Texas",
    "postal_code": "77092-8406",
    "country": "United States",
    "longitude": -95.4605283,
    "latitude": 29.8063812,
    "phone": null,
    "website_url": "https://www.karbachbrewing.com/",
    "state": "Texas",
    "street": "2032 Karbach St"
  },
  {
    "id": "7ea8e10d-fca5-4705-a303-5a62b2ac60eb",
    "name": "Karben4 Brewing",
    "brewery_type": "micro",
    "address_1": "3698 Kinsman Blvd",
    "address_2": null,
    "address_3": null,
    "city": "Madison",
    "state_province": "Wisconsin",
    "postal_code": "53704-2509",
    "country": "United States",
    "longitude": -89.32573248,
    "latitude": 43.126221,
    "phone": "6082414811",
    "website_url": "http://www.karben4.com",
    "state": "Wisconsin",
    "street": "3698 Kinsman Blvd"
  },
  {
    "id": "85b50705-5285-477e-9858-1dd45a00b6f9",
    "name": "Karetas Brewing",
    "brewery_type": "contract",
    "address_1": "1480 Industrial Dr Ste C",
    "address_2": null,
    "address_3": null,
    "city": "Itasca",
    "state_province": "Illinois",
    "postal_code": "60143-1857",
    "country": "United States",
    "longitude": null,
    "latitude": null,
    "phone": "3128788720",
    "website_url": "http://www.karetasbeer.com",
    "state": "Illinois",
    "street": "1480 Industrial Dr Ste C"
  },
  {
    "id": "4e3b6909-1ec5-4ffe-b86a-d4ddaa7ef86f",
    "name": "Karl Strauss Brewing Co",
    "brewery_type": "regional",
    "address_1": "5985 Santa Fe St",
    "address_2": null,
    "address_3": null,
    "city": "San Diego",
    "state_province": "California",
    "postal_code": "92109-1623",
    "country": "United States",
    "longitude": -117.231429,
    "latitude": 32.832579,
    "phone": "8582732739",
    "website_url": "http://www.karlstrauss.com",
    "state": "California",
    "street": "5985 Santa Fe St"
  },
  {
    "id": "91d41bbf-1feb-429e-acf6-58a94353cf64",
    "name": "Karl Strauss Brewing Co",
    "brewery_type": "brewpub",
    "address_1": "40868 Winchester Rd",
    "address_2": null,
    "address_3": null,
    "city": "Temecula",
    "state_province": "California",
    "postal_code": "92591-5521",
    "country": "United States",
    "longitude": -117.1584479,
    "latitude": 33.52586892,
    "phone": "9512257963",
    "website_url": "http://www.karlstrauss.com",
    "state": "California",
    "street": "40868 Winchester Rd"
  },
  {
    "id": "44dfe5e3-7687-4e3e-a660-9daefbb60cea",
    "name": "Karl Strauss Brewing Co - 4S Ranch",
    "brewery_type": "brewpub",
    "address_1": "10448 Reserve Dr",
    "address_2": null,
    "address_3": null,
    "city": "San Diego",
    "state_province": "California",
    "postal_code": "92127-3510",
    "country": "United States",
    "longitude": -117.113249,
    "latitude": 33.021301,
    "phone": "8582732739",
    "website_url": "http://www.karlstrauss.com",
    "state": "California",
    "street": "10448 Reserve Dr"
  },
  {
    "id": "0ff9bd30-9fe3-4e27-af3d-e64ebafe8b45",
    "name": "Karl Strauss Brewing Co - Anaheim",
    "brewery_type": "brewpub",
    "address_1": "2390 E Orangewood Ave Ste 100",
    "address_2": null,
    "address_3": null,
    "city": "Anaheim",
    "state_province": "California",
    "postal_code": "92806-6141",
    "country": "United States",
    "longitude": -117.8823969,
    "latitude": 33.79591925,
    "phone": "7149401772",
    "website_url": null,
    "state": "California",
    "street": "2390 E Orangewood Ave Ste 100"
  },
  {
    "id": "0ad5f944-b41f-4270-9c09-a1ef48cde47c",
    "name": "Karl Strauss Brewing Co - Carlsbad",
    "brewery_type": "brewpub",
    "address_1": "5801 Armada Dr",
    "address_2": null,
    "address_3": null,
    "city": "Carlsbad",
    "state_province": "California",
    "postal_code": "92008-4609",
    "country": "United States",
    "longitude": -117.314236,
    "latitude": 33.124447,
    "phone": "7604312739",
    "website_url": "http://www.karlstrauss.com",
    "state": "California",
    "street": "5801 Armada Dr"
  },
  {
    "id": "e7260379-82c5-4054-97f2-19a4b8549ba6",
    "name": "Karl Strauss Brewing Co - Costa Mesa",
    "brewery_type": "brewpub",
    "address_1": "901 S Coast Dr Ste A",
    "address_2": null,
    "address_3": null,
    "city": "Costa Mesa",
    "state_province": "California",
    "postal_code": "92626-7790",
    "country": "United States",
    "longitude": -117.8958305,
    "latitude": 33.68983637,
    "phone": "7145462739",
    "website_url": "http://www.karlstrauss.com",
    "state": "California",
    "street": "901 S Coast Dr Ste A"
  },
  {
    "id": "e5ad3941-dc5d-4283-bb52-cea08d3da6c3",
    "name": "Karl Strauss Brewing Co - Downtown",
    "brewery_type": "brewpub",
    "address_1": "1157 Columbia St",
    "address_2": null,
    "address_3": null,
    "city": "San Diego",
    "state_province": "California",
    "postal_code": "92101-3511",
    "country": "United States",
    "longitude": -117.1672838,
    "latitude": 32.71730086,
    "phone": "6192342739",
    "website_url": "http://www.karlstrauss.com",
    "state": "California",
    "street": "1157 Columbia St"
  },
  {
    "id": "defbc961-6100-4d7c-a4c1-8c99fd794931",
    "name": "Karl Strauss Brewing Co - Downtown Los Angeles",
    "brewery_type": "brewpub",
    "address_1": "600 Wilshire Blvd Ste 100",
    "address_2": null,
    "address_3": null,
    "city": "Los Angeles",
    "state_province": "California",
    "postal_code": "90017-3212",
    "country": "United States",
    "longitude": -118.256154,
    "latitude": 34.047978,
    "phone": "2132282739",
    "website_url": null,
    "state": "California",
    "street": "600 Wilshire Blvd Ste 100"
  },
  {
    "id": "39d6b9f0-85b5-41ee-a429-68de5ddf9d1d",
    "name": "Karl Strauss Brewing Co - La Jolla",
    "brewery_type": "brewpub",
    "address_1": "1044 Wall St",
    "address_2": null,
    "address_3": null,
    "city": "La Jolla",
    "state_province": "California",
    "postal_code": "92037-4437",
    "country": "United States",
    "longitude": -117.2742141,
    "latitude": 32.84679009,
    "phone": "8585512739",
    "website_url": "http://www.karlstrauss.com",
    "state": "California",
    "street": "1044 Wall St"
  },
  {
    "id": "b779fc08-50bb-4a3f-8ac0-314c10c686b7",
    "name": "Karl Strauss Brewing Co - Sorrento Mesa",
    "brewery_type": "brewpub",
    "address_1": "9675 Scranton Rd",
    "address_2": null,
    "address_3": null,
    "city": "San Diego",
    "state_province": "California",
    "postal_code": "92121-1761",
    "country": "United States",
    "longitude": -117.2027066,
    "latitude": 32.89634566,
    "phone": "8585872739",
    "website_url": "http://www.karlstrauss.com",
    "state": "California",
    "street": "9675 Scranton Rd"
  },
  {
    "id": "7dce6b5c-feab-4ac4-8ce2-29a9fb62d83d",
    "name": "Karl Strauss Brewing Co - Universal CityWalk",
    "brewery_type": "brewpub",
    "address_1": "1000 Universal Studios Blvd",
    "address_2": null,
    "address_3": null,
    "city": "Universal City",
    "state_province": "California",
    "postal_code": "91608-1008",
    "country": "United States",
    "longitude": -118.3529336,
    "latitude": 34.1322144,
    "phone": "8187532739",
    "website_url": "http://www.karlstrauss.com",
    "state": "California",
    "street": "1000 Universal Studios Blvd"
  },
  {
    "id": "5873d756-fd71-4516-9e2d-e9a8c9eabc7d",
    "name": "Karlskrona Mikrobryggeri",
    "brewery_type": "micro",
    "address_1": "Alamedan 10",
    "address_2": null,
    "address_3": null,
    "city": "Karlskrona",
    "state_province": "Blekinge",
    "postal_code": "371 31",
    "country": "Sweden",
    "longitude": 15.5913556,
    "latitude": 56.1590806,
    "phone": "+46 455 300 250",
    "website_url": "https://www.karlskronamikrobryggeri.se/",
    "state": "Blekinge",
    "street": "Alamedan 10"
  }
]