[
  {
    "id": "215e7463-7bd6-446f-b20a-b7b9f55bbc09",
    "name": "Millersburg Brewing",
    "brewery_type": "brewpub",
    "address_1": "60 E Jackson St",
    "address_2": null,
    "address_3": null,
    "city": "Millersburg",
    "state_province": "Ohio",
    "postal_code": "44654-1257",
    "country": "United States",
    "longitude": -81.91677867,
    "latitude": 40.55424322,
    "phone": "3306744728",
    "website_url": "http://www.millersburgbrewing.com",
    "state": "Ohio",
    "street": "60 E Jackson St"
  },
  {
    "id": "93fc5696-a0b1-4e3c-b813-f8712792092e",
    "name": "Mills River Brewery",
    "brewery_type": "brewpub",
    "address_1": "330 Rockwood Rd Ste 103",
    "address_2": null,
    "address_3": null,
    "city": "Arden",
    "state_province": "North Carolina",
    "postal_code": "28704-8216",
    "country": "United States",
    "longitude": null,
    "latitude": null,
    "phone": "8285852396",
    "website_url": "http://www.millsriverbrewery.net",
    "state": "North Carolina",
    "street": "330 Rockwood Rd Ste 103"
  },
  {
    "id": "b34ab21b-7046-4944-9867-bfb8f2fa2d40",
    "name": "Millstone Pizza Company & Brewery - Cody",
    "brewery_type": "brewpub",
    "address_1": "1057 Sheridan Ave",
    "address_2": null,
    "address_3": null,
    "city": "Cody",
    "state_province": "Wyoming",
    "postal_code": "82414-3529",
    "country": "United States",
    "longitude": -109.04939104879,
    "latitude": 44.529863113172,
    "phone": "3075864131",
    "website_url": "https://www.millstonepizzacompany.com",
    "state": "Wyoming",
    "street": "1057 Sheridan Ave"
  },
  {
    "id": "bcf1034e-3ee7-4728-b8ea-082d07079881",
    "name": "Millstone Pizza Company & Brewery - Powell",
    "brewery_type": "brewpub",
    "address_1": "113 S Bent St",
    "address_2": null,
    "address_3": null,
    "city": "Powell",
    "state_province": "Wyoming",
    "postal_code": "82414-2713",
    "country": "United States",
    "longitude": -108.75705908665,
    "latitude": 44.752909496789,
    "phone": "3072717111",
    "website_url": "https://www.millstonepizzacompany.com",
    "state": "Wyoming",
    "street": "113 S Bent St"
  },
  {
    "id": "ba4811a2-f65a-4295-b420-e7750a42fc1f",
    "name": "Millstream Brewing Co",
    "brewery_type": "brewpub",
    "address_1": "835 48th Ave",
    "address_2": null,
    "address_3": null,
    "city": "Amana",
    "state_province": "Iowa",
    "postal_code": "52203-8122",
    "country": "United States",
    "longitude": -91.86527265,
    "latitude": 41.7949318,
    "phone": "3196223672",
    "website_url": "http://www.millstreambrewing.com",
    "state": "Iowa",
    "street": "835 48th Ave"
  },
  {
    "id": "76361282-e0b2-47bb-a34e-4141bfd84144",
    "name": "Millwood Brewing Company",
    "brewery_type": "micro",
    "address_1": "9013 E Frederick Ave",
    "address_2": null,
    "address_3": null,
    "city": "Spokane",
    "state_province": "Washington",
    "postal_code": "99212-2108",
    "country": "United States",
    "longitude": -117.283755,
    "latitude": 47.68541108,
    "phone": "5093689538",
    "website_url": "http://www.millwoodbrewery.com",
    "state": "Washington",
    "street": "9013 E Frederick Ave"
  },
  {
    "id": "aa3d493d-936c-4798-beb1-ea4491de99ac",
    "name": "Millyard Brewing",
    "brewery_type": "closed",
    "address_1": "25 E Otterson St",
    "address_2": null,
    "address_3": null,
    "city": "Nashua",
    "state_province": "New Hampshire",
    "postal_code": "03060-3941",
    "country": "United States",
    "longitude": -71.45988189,
    "latitude": 42.7544214,
    "phone": "6035055079",
    "website_url": "http://www.millyardbrewery.com",
    "state": "New Hampshire",
    "street": "25 E Otterson St"
  },
  {
    "id": "b9875d8a-6efc-49e5-ae7a-87146be3d872",
    "name": "Milton's Brewing",
    "brewery_type": "micro",
    "address_1": "108 E Mermod St",
    "address_2": null,
    "address_3": null,
    "city": "Carlsbad",
    "state_province": "New Mexico",
    "postal_code": "88220",
    "country": "United States",
    "longitude": -104.2256158,
    "latitude": 32.42061065,
    "phone": "5756891026",
    "website_url": "http://www.miltonsbrewing.com",
    "state": "New Mexico",
    "street": "108 E Mermod St"
  },
  {
    "id": "71aff9bc-61b0-46b6-b7bc-b123c120f170",
    "name": "Milwaukee Brewing Co - Production facility",
    "brewery_type": "micro",
    "address_1": "613 S 2nd St",
    "address_2": null,
    "address_3": null,
    "city": "Milwaukee",
    "state_province": "Wisconsin",
    "postal_code": "53204-1616",
    "country": "United States",
    "longitude": -87.91303682,
    "latitude": 43.02500965,
    "phone": "4142262337",
    "website_url": "http://www.ale-house.com",
    "state": "Wisconsin",
    "street": "613 S 2nd St"
  },
  {
    "id": "37e2d21b-cd0d-4e31-90e7-be86149ec9bf",
    "name": "Milwaukee Brewing Company",
    "brewery_type": "micro",
    "address_1": "613 S 2nd St",
    "address_2": null,
    "address_3": null,
    "city": "Milwaukee",
    "state_province": "Wisconsin",
    "postal_code": "53204-1616",
    "country": "United States",
    "longitude": -87.91303682,
    "latitude": 43.02500965,
    "phone": "4142262337",
    "website_url": "http://www.mkebrewing.com",
    "state": "Wisconsin",
    "street": "613 S 2nd St"
  },
  {
    "id": "20aad2db-4ce7-42b7-9a72-c2d4c2b833da",
    "name": "Milwaukee Premium Brewing Co",
    "brewery_type": "contract",
    "address_1": "6591 N Sidney Pl",
    "address_2": null,
    "address_3": null,
    "city": "Glendale",
    "state_province": "Wisconsin",
    "postal_code": "53209-3215",
    "country": "United States",
    "longitude": -87.9486093,
    "latitude": 43.13845743,
    "phone": "4143625000",
    "website_url": null,
    "state": "Wisconsin",
    "street": "6591 N Sidney Pl"
  },
  {
    "id": "8db4719d-962f-4e0c-a20d-943f062203e7",
    "name": "Mindful Brewing Company",
    "brewery_type": "brewpub",
    "address_1": "3759 Library Rd",
    "address_2": null,
    "address_3": null,
    "city": "Castle Shannon",
    "state_province": "Pennsylvania",
    "postal_code": "15234-2232",
    "country": "United States",
    "longitude": -80.02163298,
    "latitude": 40.36441782,
    "phone": "4126683857",
    "website_url": "http://Www.mindfulbrewing.com",
    "state": "Pennsylvania",
    "street": "3759 Library Rd"
  },
  {
    "id": "cd685064-02d7-4276-b41c-363af29e81f2",
    "name": "Mine Shaft Brewing",
    "brewery_type": "planning",
    "address_1": null,
    "address_2": null,
    "address_3": null,
    "city": "Park City",
    "state_province": "Utah",
    "postal_code": "84098-6724",
    "country": "United States",
    "longitude": null,
    "latitude": null,
    "phone": null,
    "website_url": "http://www.mineshaftbrewingpc.com",
    "state": "Utah",
    "street": null
  },
  {
    "id": "48bf3d71-82d6-4fec-a193-8782e5b3d5b9",
    "name": "Miner Brewing Co",
    "brewery_type": "brewpub",
    "address_1": "23845 Highway 385",
    "address_2": null,
    "address_3": null,
    "city": "Hill City",
    "state_province": "South Dakota",
    "postal_code": "57745-6517",
    "country": "United States",
    "longitude": -103.5224249,
    "latitude": 43.94871384,
    "phone": "6055742886",
    "website_url": "http://www.minerbrewing.com",
    "state": "South Dakota",
    "street": "23845 Highway 385"
  },
  {
    "id": "37884fdf-65bc-480f-ba9a-3f556fa5081a",
    "name": "Miner Brewing Co",
    "brewery_type": "brewpub",
    "address_1": "2101 W 41st St, Ste 25",
    "address_2": null,
    "address_3": null,
    "city": "Sioux Falls",
    "state_province": "South Dakota",
    "postal_code": "57105-6195",
    "country": "United States",
    "longitude": -96.75352318,
    "latitude": 43.51296253,
    "phone": "6054967175",
    "website_url": "http://minerbrewingsiouxfalls.com/",
    "state": "South Dakota",
    "street": "2101 W 41st St, Ste 25"
  },
  {
    "id": "3897f010-db31-4b2d-9373-4756987f5b5f",
    "name": "Miners Alley Brewing Company",
    "brewery_type": "brewpub",
    "address_1": "2053 Montgomery St",
    "address_2": null,
    "address_3": null,
    "city": "Oroville",
    "state_province": "California",
    "postal_code": "95965-4947",
    "country": "United States",
    "longitude": -121.5549792,
    "latitude": 39.51414912,
    "phone": "5306934388",
    "website_url": "http://www.minersalleybrewingco.com",
    "state": "California",
    "street": "2053 Montgomery St"
  },
  {
    "id": "7e26b37a-fa1d-4acf-8095-ae9c540098f1",
    "name": "Minglewood Brewery",
    "brewery_type": "brewpub",
    "address_1": "121 Broadway St",
    "address_2": null,
    "address_3": null,
    "city": "Cape Girardeau",
    "state_province": "Missouri",
    "postal_code": "63701-7326",
    "country": "United States",
    "longitude": -89.51852096,
    "latitude": 37.30583636,
    "phone": "5738030524",
    "website_url": "http://www.minglewoodbrewery.com",
    "state": "Missouri",
    "street": "121 Broadway St"
  },
  {
    "id": "b3731fa3-236f-46f9-bc36-d3556d32b4d1",
    "name": "Minhas Craft Brewery",
    "brewery_type": "regional",
    "address_1": "1208 14th Ave",
    "address_2": null,
    "address_3": null,
    "city": "Monroe",
    "state_province": "Wisconsin",
    "postal_code": "53566-2055",
    "country": "United States",
    "longitude": -89.641509,
    "latitude": 42.59863051,
    "phone": "6083289120",
    "website_url": "http://www.minhasbrewery.com",
    "state": "Wisconsin",
    "street": "1208 14th Ave"
  },
  {
    "id": "087974c8-a0fb-4f21-9905-06ef4bb902e4",
    "name": "Minibrowar Spi\u017c",
    "brewery_type": "brewpub",
    "address_1": "Rynek-Ratusz 9",
    "address_2": null,
    "address_3": null,
    "city": "Wroc\u0142aw",
    "state_province": "dolno\u015bl\u0105skie",
    "postal_code": "50-106",
    "country": "Poland",
    "longitude": 17.0312678,
    "latitude": 51.1100309,
    "phone": null,
    "website_url": null,
    "state": "dolno\u015bl\u0105skie",
    "street": "Rynek-Ratusz 9"
  },
  {
    "id": "655b93f8-9108-460a-a33d-5b418b62f42c",
    "name": "Minneapolis Town Hall Brewery",
    "brewery_type": "brewpub",
    "address_1": "1430 Washington Ave S",
    "address_2": null,
    "address_3": null,
    "city": "Minneapolis",
    "state_province": "Minnesota",
    "postal_code": "55454-1038",
    "country": "United States",
    "longitude": -93.247714,
    "latitude": 44.9733314,
    "phone": "6123398696",
    "website_url": "http://www.townhallbrewery.com",
    "state": "Minnesota",
    "street": "1430 Washington Ave S"
  },
  {
    "id": "c5b7e295-6109-4e4a-9eb9-7ae493fb4967",
    "name": "Minocqua Brewing Co",
    "brewery_type": "brewpub",
    "address_1": "238 Lake Shore Dr",
    "address_2": null,
    "address_3": null,
    "city": "Minocqua",
    "state_province": "Wisconsin",
    "postal_code": "54548-0081",
    "country": "United States",
    "longitude": null,
    "latitude": null,
    "phone": "7153562600",
    "website_url": "http://minocquabrewingcompany.com",
    "state": "Wisconsin",
    "street": "238 Lake Shore Dr"
  },
  {
    "id": "699c24ab-d73d-49b1-824e-8be49e919c19",
    "name": "MINOH BEER WAREHOUSE",
    "brewery_type": "brewpub",
    "address_1": "3-14-18 Makiochi",
    "address_2": null,
    "address_3": null,
    "city": "Minoh",
    "state_province": "Osaka",
    "postal_code": "562-0004",
    "country": "Japan",
    "longitude": 135.4730884,
    "latitude": 34.82355132,
    "phone": "81727257234",
    "website_url": "https://www.minoh-beer.jp/warehouse/",
    "state": "Osaka",
    "street": "3-14-18 Makiochi"
  },
  {
    "id": "61941d44-a720-4174-a694-d6a438895f75",
    "name": "Mirage Beer Co",
    "brewery_type": "proprietor",
    "address_1": "943 NW 50th St",
    "address_2": null,
    "address_3": null,
    "city": "Seattle",
    "state_province": "Washington",
    "postal_code": "98107",
    "country": "United States",
    "longitude": -122.3703933,
    "latitude": 47.66496474,
    "phone": null,
    "website_url": "http://miragebeer.com",
    "state": "Washington",
    "street": "943 NW 50th St"
  },
  {
    "id": "ab6b4d55-6c25-46a6-a080-9b6376fe26c4",
    "name": "Mirror Twin Brewing",
    "brewery_type": "brewpub",
    "address_1": "725 National Ave",
    "address_2": null,
    "address_3": null,
    "city": "Lexington",
    "state_province": "Kentucky",
    "postal_code": "40502-1431",
    "country": "United States",
    "longitude": -84.4784656,
    "latitude": 38.04042235,
    "phone": "8594478146",
    "website_url": "http://www.mirrortwinbrewing.com",
    "state": "Kentucky",
    "street": "725 National Ave"
  },
  {
    "id": "4552be6f-35d3-4cd5-b4ba-fde9785eb275",
    "name": "Misconduct Brewing",
    "brewery_type": "planning",
    "address_1": null,
    "address_2": null,
    "address_3": null,
    "city": "Carmel",
    "state_province": "Indiana",
    "postal_code": "46033-9414",
    "country": "United States",
    "longitude": null,
    "latitude": null,
    "phone": null,
    "website_url": null,
    "state": "Indiana",
    "street": null
  },
  {
    "id": "76cad617-f133-45d8-a927-3d83d3bd7d2e",
    "name": "Miscreation Brewing Company",
    "brewery_type": "brewpub",
    "address_1": "6 Center Sq",
    "address_2": null,
    "address_3": null,
    "city": "Hanover",
    "state_province": "Pennsylvania",
    "postal_code": "17331-3001",
    "country": "United States",
    "longitude": null,
    "latitude": null,
    "phone": "7176983666",
    "website_url": "http://www.miscreationbrewing.com",
    "state": "Pennsylvania",
    "street": "6 Center Sq"
  },
  {
    "id": "0f66c4e9-7284-4ffa-ad98-7d20ad393412",
    "name": "Mishap! Brewing Company",
    "brewery_type": "closed",
    "address_1": "48 S Main St",
    "address_2": null,
    "address_3": null,
    "city": "Buffalo",
    "state_province": "Wyoming",
    "postal_code": "82834-1823",
    "country": "United States",
    "longitude": -106.6985012,
    "latitude": 44.34570009,
    "phone": "3076205688",
    "website_url": "http://www.mishapbrewing.com",
    "state": "Wyoming",
    "street": "48 S Main St"
  },
  {
    "id": "85bd87d6-6db4-4bac-86d1-fc8f6d2d174c",
    "name": "Mishigama Craft Brewing / Ypsi Alehouse",
    "brewery_type": "brewpub",
    "address_1": "124 Pearl St Ste 100",
    "address_2": null,
    "address_3": null,
    "city": "Ypsilanti",
    "state_province": "Michigan",
    "postal_code": "48197-5374",
    "country": "United States",
    "longitude": null,
    "latitude": null,
    "phone": "7344871555",
    "website_url": "http://www.ypsialehouse.com",
    "state": "Michigan",
    "street": "124 Pearl St Ste 100"
  },
  {
    "id": "e3176cc4-ed3e-4aa6-862a-3327c70e981b",
    "name": "Miskatonic Brewing Company",
    "brewery_type": "micro",
    "address_1": "1000 N Frontage Rd Ste C",
    "address_2": null,
    "address_3": null,
    "city": "Darien",
    "state_province": "Illinois",
    "postal_code": "60561-6448",
    "country": "United States",
    "longitude": null,
    "latitude": null,
    "phone": "6305419414",
    "website_url": "http://www.miskatonicbrewing.com",
    "state": "Illinois",
    "street": "1000 N Frontage Rd Ste C"
  },
  {
    "id": "8978b04f-52e6-4930-9960-0f78ae143c9c",
    "name": "Mispillion River Brewing",
    "brewery_type": "micro",
    "address_1": "255 Mullet Run St",
    "address_2": null,
    "address_3": null,
    "city": "Milford",
    "state_province": "Delaware",
    "postal_code": "19963",
    "country": "United States",
    "longitude": -75.45083871,
    "latitude": 38.93078885,
    "phone": "3024916623",
    "website_url": "http://www.mispillionriverbrewing.com",
    "state": "Delaware",
    "street": "255 Mullet Run St"
  },
  {
    "id": "9b62df32-e3f8-4f7e-a346-f5530a533a57",
    "name": "Missing Falls Brewery",
    "brewery_type": "planning",
    "address_1": null,
    "address_2": null,
    "address_3": null,
    "city": "Akron",
    "state_province": "Ohio",
    "postal_code": "44311-1079",
    "country": "United States",
    "longitude": null,
    "latitude": null,
    "phone": "3308086097",
    "website_url": null,
    "state": "Ohio",
    "street": null
  },
  {
    "id": "4791280b-8d59-4ae5-9bd4-36911124cb09",
    "name": "Missing Link Brewery Ltd",
    "brewery_type": "taproom",
    "address_1": "Selsfield Road",
    "address_2": null,
    "address_3": null,
    "city": "East Grinstead",
    "state_province": "West Sussex",
    "postal_code": "RH16 4QS",
    "country": "England",
    "longitude": -0.070719,
    "latitude": 51.079995,
    "phone": "7515336785",
    "website_url": "https://missinglinkbrewing.com/",
    "state": "West Sussex",
    "street": "Selsfield Road"
  },
  {
    "id": "6c437cbd-0130-4559-8596-a631830eeab7",
    "name": "Missing Links Brewery",
    "brewery_type": "brewpub",
    "address_1": "891 Evans City Rd",
    "address_2": null,
    "address_3": null,
    "city": "Renfrew",
    "state_province": "Pennsylvania",
    "postal_code": "16053-9209",
    "country": "United States",
    "longitude": null,
    "latitude": null,
    "phone": "7249962948",
    "website_url": "http://www.missinglinksbrewery.com",
    "state": "Pennsylvania",
    "street": "891 Evans City Rd"
  },
  {
    "id": "a5fb1cc5-cdcd-4b4e-ab3b-dd0ecc74d1cc",
    "name": "Missing Mountain Brewing Company",
    "brewery_type": "brewpub",
    "address_1": "2811 Front St",
    "address_2": null,
    "address_3": null,
    "city": "Cuyahoga Falls",
    "state_province": "Ohio",
    "postal_code": "44262",
    "country": "United States",
    "longitude": -81.46928097,
    "latitude": 41.14838453,
    "phone": null,
    "website_url": "http://www.missingmountain.com",
    "state": "Ohio",
    "street": "2811 Front St"
  },
  {
    "id": "0e8aa3fe-40d6-4d55-8d2f-2a3348f14421",
    "name": "Mission Brewery",
    "brewery_type": "micro",
    "address_1": "1441 L St",
    "address_2": null,
    "address_3": null,
    "city": "San Diego",
    "state_province": "California",
    "postal_code": "92101-8967",
    "country": "United States",
    "longitude": -117.0682152,
    "latitude": 32.6220746,
    "phone": "6195440555",
    "website_url": "http://www.missionbrewery.com",
    "state": "California",
    "street": "1441 L St"
  },
  {
    "id": "ab98ee50-5473-4933-83e7-8cc6645fd0c5",
    "name": "Missoula Brewing Company",
    "brewery_type": "brewpub",
    "address_1": "200 International Dr",
    "address_2": null,
    "address_3": null,
    "city": "Missoula",
    "state_province": "Montana",
    "postal_code": "59808-1584",
    "country": "United States",
    "longitude": -114.0433078,
    "latitude": 46.90454835,
    "phone": "4065498193",
    "website_url": "http://www.highlanderbeer.com",
    "state": "Montana",
    "street": "200 International Dr"
  },
  {
    "id": "a1274517-d0af-4c1b-8b7b-2ec4662d2681",
    "name": "Missouri Beer Company",
    "brewery_type": "micro",
    "address_1": "22 W Industrial Dr",
    "address_2": null,
    "address_3": null,
    "city": "O Fallon",
    "state_province": "Missouri",
    "postal_code": "63366-1926",
    "country": "United States",
    "longitude": -90.75261,
    "latitude": 38.805938,
    "phone": "6362946672",
    "website_url": "http://www.mobeerco.com",
    "state": "Missouri",
    "street": "22 W Industrial Dr"
  },
  {
    "id": "bdb7f3a3-e8fb-46ca-a28c-9ff8b6ef345b",
    "name": "Missouri Breaks Brewing",
    "brewery_type": "micro",
    "address_1": "326 Main St",
    "address_2": null,
    "address_3": null,
    "city": "Wolf Point",
    "state_province": "Montana",
    "postal_code": "59201-0654",
    "country": "United States",
    "longitude": -105.6421748,
    "latitude": 48.09013004,
    "phone": "4066531467",
    "website_url": "http://www.missouribreaksbrewing.com",
    "state": "Montana",
    "street": "326 Main St"
  },
  {
    "id": "e6c27506-2269-4b6e-bad9-6b9e2c16a1da",
    "name": "Mistress Brewing Company",
    "brewery_type": "micro",
    "address_1": "1802 N Ankeny Blvd #108",
    "address_2": null,
    "address_3": null,
    "city": "Ankeny",
    "state_province": "Iowa",
    "postal_code": "50023-1802",
    "country": "United States",
    "longitude": -93.60151181,
    "latitude": 41.74780209,
    "phone": "5157712133",
    "website_url": "http://www.mistressbrewing.com",
    "state": "Iowa",
    "street": "1802 N Ankeny Blvd #108"
  },
  {
    "id": "2519c182-f15e-47cc-9d2a-4291dfa134bc",
    "name": "Misty Mountain Brewery",
    "brewery_type": "brewpub",
    "address_1": "625 Chetco Ave Suite 120",
    "address_2": null,
    "address_3": null,
    "city": "Brookings",
    "state_province": "Oregon",
    "postal_code": "97415-9519",
    "country": "United States",
    "longitude": -124.2824159,
    "latitude": 42.05228881,
    "phone": "5418132599",
    "website_url": "https://mistymountainbrewing.com/",
    "state": "Oregon",
    "street": "625 Chetco Ave Suite 120"
  },
  {
    "id": "01812623-d7f6-46db-80fa-b50dbea7db36",
    "name": "Mitten Brewing Co - Northport",
    "brewery_type": "brewpub",
    "address_1": "112 W Nagonaba St",
    "address_2": null,
    "address_3": null,
    "city": "Northport",
    "state_province": "Michigan",
    "postal_code": "49670-5018",
    "country": "United States",
    "longitude": -85.61801909,
    "latitude": 45.129833,
    "phone": "6163182448",
    "website_url": null,
    "state": "Michigan",
    "street": "112 W Nagonaba St"
  },
  {
    "id": "f77c9b88-94ee-4033-a93c-4d32f09f155d",
    "name": "Moab Brewery",
    "brewery_type": "micro",
    "address_1": "686 S Main St",
    "address_2": null,
    "address_3": null,
    "city": "Moab",
    "state_province": "Utah",
    "postal_code": "84532-2901",
    "country": "United States",
    "longitude": -109.549606,
    "latitude": 38.56263,
    "phone": "4352596333",
    "website_url": "http://www.themoabbrewery.com",
    "state": "Utah",
    "street": "686 S Main St"
  },
  {
    "id": "dfe6e726-9bba-4653-8dcc-c8ec944baa1c",
    "name": "Moat Mountain Smoke House and Brewing Co",
    "brewery_type": "brewpub",
    "address_1": "3378 White Mountain Highway",
    "address_2": null,
    "address_3": null,
    "city": "North Conway",
    "state_province": "New Hampshire",
    "postal_code": "03860-1518",
    "country": "United States",
    "longitude": -71.14358535,
    "latitude": 44.06850015,
    "phone": "6033566381",
    "website_url": "http://www.moatmountain.com",
    "state": "New Hampshire",
    "street": "3378 White Mountain Highway"
  },
  {
    "id": "f2d6ec98-b9b1-448c-948a-93bd0e8a3528",
    "name": "MobCraft Beer",
    "brewery_type": "proprietor",
    "address_1": "505 S 5th St",
    "address_2": null,
    "address_3": null,
    "city": "Milwaukee",
    "state_province": "Wisconsin",
    "postal_code": "53204-1518",
    "country": "United States",
    "longitude": -87.91693739,
    "latitude": 43.02618384,
    "phone": "6083463003",
    "website_url": "http://www.mobcraftbeer.com",
    "state": "Wisconsin",
    "street": "505 S 5th St"
  },
  {
    "id": "53a0bd5c-f9f3-4ee4-b4b0-0a41cf89376e",
    "name": "Mobtown Brewing Co",
    "brewery_type": "planning",
    "address_1": null,
    "address_2": null,
    "address_3": null,
    "city": "Baltimore",
    "state_province": "Maryland",
    "postal_code": "21224-4716",
    "country": "United States",
    "longitude": null,
    "latitude": null,
    "phone": "4104198312",
    "website_url": null,
    "state": "Maryland",
    "street": null
  },
  {
    "id": "93025041-59f2-44a9-8a2b-bec7c74c158b",
    "name": "Moby Dick Brewing Co.",
    "brewery_type": "brewpub",
    "address_1": "16 S Water St",
    "address_2": null,
    "address_3": null,
    "city": "New Bedford",
    "state_province": "Massachusetts",
    "postal_code": "02740-7235",
    "country": "United States",
    "longitude": -70.92251325,
    "latitude": 41.63382101,
    "phone": "7742026961",
    "website_url": "http://www.mobydickbrewing.com",
    "state": "Massachusetts",
    "street": "16 S Water St"
  },
  {
    "id": "c516f2aa-753b-484a-abb9-91312929211d",
    "name": "Mocama Brewing Company",
    "brewery_type": "planning",
    "address_1": null,
    "address_2": null,
    "address_3": null,
    "city": "Fernandina Beach",
    "state_province": "Florida",
    "postal_code": "32034",
    "country": "United States",
    "longitude": null,
    "latitude": null,
    "phone": "7062022077",
    "website_url": "http://www.mocama.com",
    "state": "Florida",
    "street": null
  },
  {
    "id": "5fd90c67-116f-4826-ae88-83b3a5ecd603",
    "name": "Moccasin Bend Brewing Co",
    "brewery_type": "micro",
    "address_1": "3210 Broad St # B",
    "address_2": null,
    "address_3": null,
    "city": "Chattanooga",
    "state_province": "Tennessee",
    "postal_code": "37408-3059",
    "country": "United States",
    "longitude": null,
    "latitude": null,
    "phone": "4238216392",
    "website_url": "http://www.bendbrewingbeer.com",
    "state": "Tennessee",
    "street": "3210 Broad St # B"
  },
  {
    "id": "dc6da585-1369-4b60-b00a-e39dffed1dd9",
    "name": "Mockery Brewing",
    "brewery_type": "micro",
    "address_1": "3501 Delgany St",
    "address_2": null,
    "address_3": null,
    "city": "Denver",
    "state_province": "Colorado",
    "postal_code": "80216-3617",
    "country": "United States",
    "longitude": -104.9797349,
    "latitude": 39.7712389,
    "phone": "3039532058",
    "website_url": "http://Mockerybrewing.com",
    "state": "Colorado",
    "street": "3501 Delgany St"
  },
  {
    "id": "73878a6f-9d44-49b4-a0b1-31ea0a115e20",
    "name": "Moderation Brewing",
    "brewery_type": "micro",
    "address_1": "103 Maine St",
    "address_2": null,
    "address_3": null,
    "city": "Brunswick",
    "state_province": "Maine",
    "postal_code": "04011-2012",
    "country": "United States",
    "longitude": -69.96566833,
    "latitude": 43.91631921,
    "phone": "12073479918",
    "website_url": "http://www.moderationbrewery.com",
    "state": "Maine",
    "street": "103 Maine St"
  }
]