[
  {
    "id": "2e475c21-a1f0-4ff8-8ba2-8c01cb7751ef",
    "name": "Rustica Brewing Company",
    "brewery_type": "micro",
    "address_1": "2370 S Kalamath St Unit A",
    "address_2": null,
    "address_3": null,
    "city": "Denver",
    "state_province": "Colorado",
    "postal_code": "80223-4248",
    "country": "United States",
    "longitude": null,
    "latitude": null,
    "phone": "7203979682",
    "website_url": "http://www.rusticabrewery.com",
    "state": "Colorado",
    "street": "2370 S Kalamath St Unit A"
  },
  {
    "id": "c226d829-6805-4dbc-9a59-d0c274c2544a",
    "name": "Rusty Bull Brewing Company",
    "brewery_type": "brewpub",
    "address_1": "3005 W Montague Ave Ste 110",
    "address_2": null,
    "address_3": null,
    "city": "North Charleston",
    "state_province": "South Carolina",
    "postal_code": "29418-7908",
    "country": "United States",
    "longitude": null,
    "latitude": null,
    "phone": "8432258600",
    "website_url": "http://Www.rustybullbrewing.com",
    "state": "South Carolina",
    "street": "3005 W Montague Ave Ste 110"
  },
  {
    "id": "2d5e000a-9439-4789-9263-b11a9c7b29ae",
    "name": "Rusty Gold Brewing",
    "brewery_type": "micro",
    "address_1": "43 W Pike St",
    "address_2": null,
    "address_3": null,
    "city": "Canonsburg",
    "state_province": "Pennsylvania",
    "postal_code": "15317",
    "country": "United States",
    "longitude": -80.18750486,
    "latitude": 40.25856457,
    "phone": "7244852332",
    "website_url": null,
    "state": "Pennsylvania",
    "street": "43 W Pike St"
  },
  {
    "id": "5b104c23-134e-46d5-9777-e59c98ab83d3",
    "name": "Rusty Nickel Brewing Co.",
    "brewery_type": "brewpub",
    "address_1": "4350 Seneca St",
    "address_2": null,
    "address_3": null,
    "city": "Buffalo",
    "state_province": "New York",
    "postal_code": "14224-3169",
    "country": "United States",
    "longitude": -78.851031,
    "latitude": 42.876243,
    "phone": "7166086155",
    "website_url": "http://www.rustynickelbrewing.com",
    "state": "New York",
    "street": "4350 Seneca St"
  },
  {
    "id": "b6ae47ee-790a-4490-b8be-574d08ee76be",
    "name": "Rusty Rail Brewing",
    "brewery_type": "brewpub",
    "address_1": "5 N 8th St Ste 1",
    "address_2": null,
    "address_3": null,
    "city": "Mifflinburg",
    "state_province": "Pennsylvania",
    "postal_code": "17844-1003",
    "country": "United States",
    "longitude": null,
    "latitude": null,
    "phone": "5709667878",
    "website_url": "http://www.rustyrailbrewing.com",
    "state": "Pennsylvania",
    "street": "5 N 8th St Ste 1"
  },
  {
    "id": "3d0e7cf3-6778-46dd-9907-1bd3370bb52b",
    "name": "Rusty Truck Brewing Company",
    "brewery_type": "brewpub",
    "address_1": "4649 SW Highway 101",
    "address_2": null,
    "address_3": null,
    "city": "Lincoln City",
    "state_province": "Oregon",
    "postal_code": "97367-1557",
    "country": "United States",
    "longitude": -124.0209913,
    "latitude": 44.93273319,
    "phone": "5419947729",
    "website_url": "http://www.rustytruckbrewing.com",
    "state": "Oregon",
    "street": "4649 SW Highway 101"
  },
  {
    "id": "b0ffaff1-21a3-47a5-bbd3-073cd3ec1678",
    "name": "Ryan Brewing Company",
    "brewery_type": "micro",
    "address_1": "5312 Williams Dr",
    "address_2": null,
    "address_3": null,
    "city": "Roscoe",
    "state_province": "Illinois",
    "postal_code": "61073",
    "country": "United States",
    "longitude": -89.01015782,
    "latitude": 42.4211214,
    "phone": "8152701223",
    "website_url": "http://www.ryanbrewingcompany.com",
    "state": "Illinois",
    "street": "5312 Williams Dr"
  },
  {
    "id": "9e0bf529-9a78-4899-8404-61b00d8c13ec",
    "name": "Rye River Brewing Company",
    "brewery_type": "micro",
    "address_1": "Donaghcumper",
    "address_2": "Dublin Rd",
    "address_3": null,
    "city": "Celbridge",
    "state_province": "Kildare",
    "postal_code": "W23 AX07",
    "country": "Ireland",
    "longitude": -6.5246196,
    "latitude": 53.3409641,
    "phone": "35316287255",
    "website_url": "https://www.ryeriverbrewingco.com/",
    "state": "Kildare",
    "street": "Donaghcumper"
  },
  {
    "id": "c63a3d08-74de-48c4-a413-4105bec41837",
    "name": "S & S Farm Brewery",
    "brewery_type": "micro",
    "address_1": "174 Middle Rd",
    "address_2": null,
    "address_3": null,
    "city": "Nassau",
    "state_province": "New York",
    "postal_code": "12123",
    "country": "United States",
    "longitude": -73.57263982,
    "latitude": 42.49050535,
    "phone": "5183360766",
    "website_url": "http://www.sandsbrewery.com",
    "state": "New York",
    "street": "174 Middle Rd"
  },
  {
    "id": "bf893977-4cd2-4fb2-bf23-087cf9da7d60",
    "name": "Sabbath Brewing",
    "brewery_type": "planning",
    "address_1": null,
    "address_2": null,
    "address_3": null,
    "city": "Atlanta",
    "state_province": "Georgia",
    "postal_code": "30316",
    "country": "United States",
    "longitude": null,
    "latitude": null,
    "phone": null,
    "website_url": null,
    "state": "Georgia",
    "street": null
  },
  {
    "id": "6e49945b-64fc-4925-90ca-decb714d99e0",
    "name": "Sabbatical Brewing Co",
    "brewery_type": "brewpub",
    "address_1": "835 S 29th St",
    "address_2": null,
    "address_3": null,
    "city": "Manitowoc",
    "state_province": "Wisconsin",
    "postal_code": "54220",
    "country": "United States",
    "longitude": -87.6838074,
    "latitude": 44.0912299,
    "phone": "9209013282",
    "website_url": "https://www.sabbaticalbrewingco.com",
    "state": "Wisconsin",
    "street": "835 S 29th St"
  },
  {
    "id": "f83e7244-ddf1-4e86-b6a7-ac288b38c71e",
    "name": "Sackbut Brewing and Barrelwerks",
    "brewery_type": "micro",
    "address_1": "3153 E Huntington Blvd",
    "address_2": null,
    "address_3": null,
    "city": "Fresno",
    "state_province": "California",
    "postal_code": "93702-3215",
    "country": "United States",
    "longitude": -119.7715206,
    "latitude": 36.73946658,
    "phone": null,
    "website_url": "http://www.sackbutbrewing.com",
    "state": "California",
    "street": "3153 E Huntington Blvd"
  },
  {
    "id": "c209ebea-b190-4b09-8ea5-ebc422eb1e10",
    "name": "Sackets Harbor Brewing Co",
    "brewery_type": "brewpub",
    "address_1": "212 W Main St",
    "address_2": null,
    "address_3": null,
    "city": "Sackets Harbor",
    "state_province": "New York",
    "postal_code": "13685-3183",
    "country": "United States",
    "longitude": -76.12164821,
    "latitude": 43.94796085,
    "phone": "3156462739",
    "website_url": "http://www.sacketsharborbrewpub.com",
    "state": "New York",
    "street": "212 W Main St"
  },
  {
    "id": "b80b3ac2-b5a3-45e9-b38d-b6492f928767",
    "name": "Saco River Brewing",
    "brewery_type": "brewpub",
    "address_1": "2686 S Main St Suite 3",
    "address_2": null,
    "address_3": null,
    "city": "North Conway",
    "state_province": "New Hampshire",
    "postal_code": "03860",
    "country": "United States",
    "longitude": null,
    "latitude": null,
    "phone": "6033560457",
    "website_url": null,
    "state": "New Hampshire",
    "street": "2686 S Main St Suite 3"
  },
  {
    "id": "403dbaa0-4494-48ac-896d-29752895b876",
    "name": "Saco River Brewing",
    "brewery_type": "micro",
    "address_1": "10 Jockey Cap Ln",
    "address_2": null,
    "address_3": null,
    "city": "Fryeburg",
    "state_province": "Maine",
    "postal_code": "04037-1428",
    "country": "United States",
    "longitude": null,
    "latitude": null,
    "phone": "2072563028",
    "website_url": "http://www.facebook.com/sacoriverbrewing",
    "state": "Maine",
    "street": "10 Jockey Cap Ln"
  },
  {
    "id": "4cae6ee1-6a28-4961-a3fc-169b5c2d5d2d",
    "name": "Sacrament Brewing",
    "brewery_type": "micro",
    "address_1": "1616 J st.",
    "address_2": null,
    "address_3": null,
    "city": "Sacramento",
    "state_province": "California",
    "postal_code": "95814",
    "country": "United States",
    "longitude": -121.4849275,
    "latitude": 38.57794927,
    "phone": "3102592158",
    "website_url": "http://www.sacramentbrewing.com",
    "state": "California",
    "street": "1616 J st."
  },
  {
    "id": "cc9bb9b0-bdea-4c49-b437-711d7f3a4612",
    "name": "Sacred Lake Brewing",
    "brewery_type": "planning",
    "address_1": null,
    "address_2": null,
    "address_3": null,
    "city": "Herrin",
    "state_province": "Illinois",
    "postal_code": "62948-6349",
    "country": "United States",
    "longitude": null,
    "latitude": null,
    "phone": null,
    "website_url": null,
    "state": "Illinois",
    "street": null
  },
  {
    "id": "f8ca57ef-0c93-41f3-a2dd-a309b7e046cc",
    "name": "Sacred Waters Brewing Company",
    "brewery_type": "planning",
    "address_1": null,
    "address_2": null,
    "address_3": null,
    "city": "Kalispell",
    "state_province": "Montana",
    "postal_code": "59901-6641",
    "country": "United States",
    "longitude": null,
    "latitude": null,
    "phone": "4062530746",
    "website_url": "http://www.sacredwatersbrewing.com",
    "state": "Montana",
    "street": null
  },
  {
    "id": "698cefc8-464f-4d3e-9953-63b7fcfebb7d",
    "name": "Sacrilege Brewing Project",
    "brewery_type": "brewpub",
    "address_1": "730 Main St",
    "address_2": null,
    "address_3": null,
    "city": "Half Moon Bay",
    "state_province": "California",
    "postal_code": "94019-1925",
    "country": "United States",
    "longitude": -122.4299132,
    "latitude": 37.460938,
    "phone": "6502767029",
    "website_url": null,
    "state": "California",
    "street": "730 Main St"
  },
  {
    "id": "2a94fbb0-2e87-4063-b496-09a4be6c6126",
    "name": "Saddle Mountain Brewing Company",
    "brewery_type": "brewpub",
    "address_1": "15651 W Roosevelt St",
    "address_2": null,
    "address_3": null,
    "city": "Goodyear",
    "state_province": "Arizona",
    "postal_code": "85338-9309",
    "country": "United States",
    "longitude": -112.3970112,
    "latitude": 33.4572737,
    "phone": "6239809524",
    "website_url": null,
    "state": "Arizona",
    "street": "15651 W Roosevelt St"
  },
  {
    "id": "31eef285-74df-4f42-8ac1-b50212996148",
    "name": "Saddle Rock Pub & Brewery",
    "brewery_type": "brewpub",
    "address_1": "25 N Wenatchee Ave Ste 107",
    "address_2": null,
    "address_3": null,
    "city": "Wenatchee",
    "state_province": "Washington",
    "postal_code": "98801-2201",
    "country": "United States",
    "longitude": -120.31186858845,
    "latitude": 47.426017658389,
    "phone": "5098884790",
    "website_url": "http://www.saddlerockbrewery.com",
    "state": "Washington",
    "street": "25 N Wenatchee Ave Ste 107"
  },
  {
    "id": "21fa52e0-8144-41bf-a181-2509d40d4d7d",
    "name": "Saddlebock Brewery",
    "brewery_type": "micro",
    "address_1": "16600 Saddlebock Lane",
    "address_2": null,
    "address_3": null,
    "city": "Springdale",
    "state_province": "Arkansas",
    "postal_code": "72764-7582",
    "country": "United States",
    "longitude": null,
    "latitude": null,
    "phone": "4794221797",
    "website_url": "http://www.saddlebock.com",
    "state": "Arkansas",
    "street": "16600 Saddlebock Lane"
  },
  {
    "id": "2d16cfa0-c07b-4f6b-927f-597833014c26",
    "name": "Sager Beer Works",
    "brewery_type": "planning",
    "address_1": null,
    "address_2": null,
    "address_3": null,
    "city": "Rochester",
    "state_province": "New York",
    "postal_code": "14607-1669",
    "country": "United States",
    "longitude": null,
    "latitude": null,
    "phone": "5857520613",
    "website_url": "http://www.sagerbeerworks.com",
    "state": "New York",
    "street": null
  },
  {
    "id": "2cb6340e-0e01-4f87-8456-dbbefdbf158f",
    "name": "Sahm Brewing Company",
    "brewery_type": "micro",
    "address_1": "203 S Salina St",
    "address_2": null,
    "address_3": null,
    "city": "Syracuse",
    "state_province": "New York",
    "postal_code": "13202",
    "country": "United States",
    "longitude": -76.15209318,
    "latitude": 43.04945059,
    "phone": "3158777246",
    "website_url": "http://www.facebook.com/SahmBrewCo/",
    "state": "New York",
    "street": "203 S Salina St"
  },
  {
    "id": "34011fb5-ccda-4f99-b21a-62953b9b6128",
    "name": "Sailfish Brewing Company, llc",
    "brewery_type": "micro",
    "address_1": "130 N 2nd St",
    "address_2": null,
    "address_3": null,
    "city": "Fort Pierce",
    "state_province": "Florida",
    "postal_code": "34950-4403",
    "country": "United States",
    "longitude": -80.32431828,
    "latitude": 27.44903854,
    "phone": "7725774382",
    "website_url": "http://www.sailfishbrewingco.com",
    "state": "Florida",
    "street": "130 N 2nd St"
  },
  {
    "id": "558d16c5-ccf9-4a3b-b644-d6af7c60233e",
    "name": "Saint Archer Brewing Company",
    "brewery_type": "large",
    "address_1": "9550 Distribution Ave",
    "address_2": null,
    "address_3": null,
    "city": "San Diego",
    "state_province": "California",
    "postal_code": "92121-2306",
    "country": "United States",
    "longitude": -117.163745,
    "latitude": 32.880445,
    "phone": "8582252337",
    "website_url": "http://www.saintarcherbrewery.com",
    "state": "California",
    "street": "9550 Distribution Ave"
  },
  {
    "id": "611a3d39-d0a2-4020-b9ce-87cbc545ad0d",
    "name": "Saint Arnold Brewing Co",
    "brewery_type": "regional",
    "address_1": "2000 Lyons Ave",
    "address_2": null,
    "address_3": null,
    "city": "Houston",
    "state_province": "Texas",
    "postal_code": "77020-2028",
    "country": "United States",
    "longitude": -95.34846656,
    "latitude": 29.77112745,
    "phone": "7136869494",
    "website_url": "http://www.saintarnold.com",
    "state": "Texas",
    "street": "2000 Lyons Ave"
  },
  {
    "id": "7526abe5-393d-461f-b9b6-fb5880167db7",
    "name": "Saint Benjamin Brewing Co",
    "brewery_type": "micro",
    "address_1": "1710 N 5th St",
    "address_2": null,
    "address_3": null,
    "city": "Philadelphia",
    "state_province": "Pennsylvania",
    "postal_code": "19122-2909",
    "country": "United States",
    "longitude": -75.1475016,
    "latitude": 39.9562965,
    "phone": null,
    "website_url": null,
    "state": "Pennsylvania",
    "street": "1710 N 5th St"
  },
  {
    "id": "7cfafd1b-9f71-421e-b68a-2a020e3f9540",
    "name": "Saint Boniface Craft Brewing Co",
    "brewery_type": "brewpub",
    "address_1": "1701 W Main St",
    "address_2": null,
    "address_3": null,
    "city": "Ephrata",
    "state_province": "Pennsylvania",
    "postal_code": "17522-1106",
    "country": "United States",
    "longitude": -76.205629,
    "latitude": 40.200294,
    "phone": "7177211744",
    "website_url": null,
    "state": "Pennsylvania",
    "street": "1701 W Main St"
  },
  {
    "id": "d138f5c2-f5f8-4d68-bcd9-b69a021cae6d",
    "name": "Saint Croix Beer Co. DBA Saint Croix Brewing Co.",
    "brewery_type": "contract",
    "address_1": "363 Webster St",
    "address_2": null,
    "address_3": null,
    "city": "Saint Paul",
    "state_province": "Minnesota",
    "postal_code": "55102-3651",
    "country": "United States",
    "longitude": -93.12454994,
    "latitude": 44.93128073,
    "phone": "6513870708",
    "website_url": "http://www.stcroixbeer.com",
    "state": "Minnesota",
    "street": "363 Webster St"
  },
  {
    "id": "df62a0f5-73ba-457c-90c9-9d79d495348d",
    "name": "Saint Hazards Brewery",
    "brewery_type": "brewpub",
    "address_1": "1233 Fox Road",
    "address_2": null,
    "address_3": null,
    "city": "Middle Bass Island",
    "state_province": "Ohio",
    "postal_code": "43446",
    "country": "United States",
    "longitude": null,
    "latitude": null,
    "phone": "4192856121",
    "website_url": null,
    "state": "Ohio",
    "street": "1233 Fox Road"
  },
  {
    "id": "44dda0d1-ec31-47ce-a4ca-b3fef5161990",
    "name": "Saint J Brewery",
    "brewery_type": "brewpub",
    "address_1": "2002 Memorial Dr",
    "address_2": null,
    "address_3": null,
    "city": "Saint Johnsbury",
    "state_province": "Vermont",
    "postal_code": "05819-8991",
    "country": "United States",
    "longitude": -72.01506898,
    "latitude": 44.45918219,
    "phone": "8024241700",
    "website_url": "http://www.saintjbrewery.com",
    "state": "Vermont",
    "street": "2002 Memorial Dr"
  },
  {
    "id": "323e6f9e-6e29-4e97-bb59-474d701e48bf",
    "name": "Saint James Brewery",
    "brewery_type": "micro",
    "address_1": "929 Lincoln Ave Ste 11",
    "address_2": null,
    "address_3": null,
    "city": "Holbrook",
    "state_province": "New York",
    "postal_code": "11741-2256",
    "country": "United States",
    "longitude": null,
    "latitude": null,
    "phone": "6217073192",
    "website_url": "http://www.saintjamesbrewery.com",
    "state": "New York",
    "street": "929 Lincoln Ave Ste 11"
  },
  {
    "id": "37763ebb-c13e-4de7-b53d-7f12a7f48d9e",
    "name": "Saint Patrick's Brewing Company",
    "brewery_type": "micro",
    "address_1": "2842 W Bowles Ave",
    "address_2": null,
    "address_3": null,
    "city": "Littleton",
    "state_province": "Colorado",
    "postal_code": "80120-1843",
    "country": "United States",
    "longitude": -105.024584,
    "latitude": 39.6125875,
    "phone": "3037187575",
    "website_url": "http://www.stpatricksbrewco.com",
    "state": "Colorado",
    "street": "2842 W Bowles Ave"
  },
  {
    "id": "05ec470f-09d7-4582-b432-fca4758f146e",
    "name": "Saint Somewhere Brewing Co",
    "brewery_type": "micro",
    "address_1": "312 E Tarpon Ave",
    "address_2": null,
    "address_3": null,
    "city": "Tarpon Springs",
    "state_province": "Florida",
    "postal_code": "34689-4320",
    "country": "United States",
    "longitude": -82.75335373,
    "latitude": 28.14615551,
    "phone": "8135036181",
    "website_url": "http://www.saintsomewherebrewing.com",
    "state": "Florida",
    "street": "312 E Tarpon Ave"
  },
  {
    "id": "b52a2cbf-4041-43b6-afbb-151883c9900d",
    "name": "Saints Row Brewing",
    "brewery_type": "micro",
    "address_1": "1211 Taft St",
    "address_2": null,
    "address_3": null,
    "city": "Rockville",
    "state_province": "Maryland",
    "postal_code": "20850-1344",
    "country": "United States",
    "longitude": -77.13401808,
    "latitude": 39.09361715,
    "phone": null,
    "website_url": "http://www.saintsrowbeer.com",
    "state": "Maryland",
    "street": "1211 Taft St"
  },
  {
    "id": "73a9fd49-5bbb-421b-b62e-221eed613881",
    "name": "SakeBrooklyn Brewing Co., LLC",
    "brewery_type": "planning",
    "address_1": null,
    "address_2": null,
    "address_3": null,
    "city": "Brooklyn",
    "state_province": "New York",
    "postal_code": "11237-5263",
    "country": "United States",
    "longitude": null,
    "latitude": null,
    "phone": "9294007253",
    "website_url": "http://www.sakebrooklyn.com",
    "state": "New York",
    "street": null
  },
  {
    "id": "8a639388-c76a-466c-a8f3-80af5ebcf43f",
    "name": "Salem Ale Works",
    "brewery_type": "micro",
    "address_1": "2315 25th St SE",
    "address_2": null,
    "address_3": null,
    "city": "Salem",
    "state_province": "Oregon",
    "postal_code": "97302-1145",
    "country": "United States",
    "longitude": -123.0103968,
    "latitude": 44.91998888,
    "phone": "5039908486",
    "website_url": "http://www.aleinsalem.com",
    "state": "Oregon",
    "street": "2315 25th St SE"
  },
  {
    "id": "d75ad0e6-7f74-4708-9828-4298ca8b9e46",
    "name": "Salem Beer Works",
    "brewery_type": "brewpub",
    "address_1": "278 Derby St",
    "address_2": null,
    "address_3": null,
    "city": "Salem",
    "state_province": "Massachusetts",
    "postal_code": "01970-3635",
    "country": "United States",
    "longitude": -70.8898634,
    "latitude": 42.52079262,
    "phone": "9787452337",
    "website_url": "http://www.beerworks.net",
    "state": "Massachusetts",
    "street": "278 Derby St"
  },
  {
    "id": "91a7067e-1832-4b74-b319-3fefb1b291be",
    "name": "Salish Sea Brewing Company",
    "brewery_type": "brewpub",
    "address_1": "518 Dayton St Ste 104",
    "address_2": null,
    "address_3": null,
    "city": "Edmonds",
    "state_province": "Washington",
    "postal_code": "98020-",
    "country": "United States",
    "longitude": -122.37685979708,
    "latitude": 47.809891675096,
    "phone": "2062953116",
    "website_url": "http://www.salishbrewing.com",
    "state": "Washington",
    "street": "518 Dayton St Ste 104"
  },
  {
    "id": "0534dcda-ed55-4104-915b-e95e7ec5a7a5",
    "name": "Salmon River Brewery",
    "brewery_type": "brewpub",
    "address_1": "411 Railroad Ave",
    "address_2": null,
    "address_3": null,
    "city": "McCall",
    "state_province": "Idaho",
    "postal_code": "83638-4132",
    "country": "United States",
    "longitude": -116.097682,
    "latitude": 44.911663,
    "phone": "2086344772",
    "website_url": "http://www.salmonriverbrewery.com",
    "state": "Idaho",
    "street": "411 Railroad Ave"
  },
  {
    "id": "a904f795-1ac5-40e1-a7fa-4eff2ad5882b",
    "name": "Saloon Door Brewing Co",
    "brewery_type": "brewpub",
    "address_1": "105 Magellan Cir Ste A",
    "address_2": null,
    "address_3": null,
    "city": "Webster",
    "state_province": "Texas",
    "postal_code": "77598-2033",
    "country": "United States",
    "longitude": null,
    "latitude": null,
    "phone": "4099393992",
    "website_url": "http://www.saloondoorbrewing.com",
    "state": "Texas",
    "street": "105 Magellan Cir Ste A"
  },
  {
    "id": "979a9377-27e4-436c-938e-fddea2d87888",
    "name": "Salt City Brewing",
    "brewery_type": "micro",
    "address_1": "514 N Main Street",
    "address_2": null,
    "address_3": null,
    "city": "Hutchinson",
    "state_province": "Kansas",
    "postal_code": "67501",
    "country": "United States",
    "longitude": -97.93175306,
    "latitude": 38.05869143,
    "phone": "6209606210",
    "website_url": null,
    "state": "Kansas",
    "street": "514 N Main Street"
  },
  {
    "id": "6db95a97-2d83-4952-8a99-7bd8d77c5138",
    "name": "Salt Creek Brewery",
    "brewery_type": "brewpub",
    "address_1": "466 Old State Road 37 N",
    "address_2": null,
    "address_3": null,
    "city": "Bedford",
    "state_province": "Indiana",
    "postal_code": "47421-8068",
    "country": "United States",
    "longitude": null,
    "latitude": null,
    "phone": "8122778277",
    "website_url": "http://www.saltcreeekbrewery.beer",
    "state": "Indiana",
    "street": "466 Old State Road 37 N"
  },
  {
    "id": "08945808-d75c-48f5-beed-9c7c9178d2b8",
    "name": "Salt Flats Brewery",
    "brewery_type": "micro",
    "address_1": "2020 W Industrial Cir",
    "address_2": null,
    "address_3": null,
    "city": "Salt Lake City",
    "state_province": "Utah",
    "postal_code": "84104-4260",
    "country": "United States",
    "longitude": -111.9481568,
    "latitude": 40.7298237,
    "phone": "8018283469",
    "website_url": "http://rpmbeer.com",
    "state": "Utah",
    "street": "2020 W Industrial Cir"
  },
  {
    "id": "e6cf8a79-37b3-4717-8df8-6acd82b1890a",
    "name": "Salt Lake Brewing Co/ Squatters Pub Brewery",
    "brewery_type": "micro",
    "address_1": "147 W Broadway",
    "address_2": null,
    "address_3": null,
    "city": "Salt Lake City",
    "state_province": "Utah",
    "postal_code": "84101-1914",
    "country": "United States",
    "longitude": -111.895676,
    "latitude": 40.762524,
    "phone": "8013632739",
    "website_url": "http://www.squatters.com",
    "state": "Utah",
    "street": "147 W Broadway"
  },
  {
    "id": "150a966d-9635-4389-9280-241e1da8a35c",
    "name": "Salt Marsh Brewing",
    "brewery_type": "brewpub",
    "address_1": "203 Bluffton Rd",
    "address_2": null,
    "address_3": null,
    "city": "Bluffton",
    "state_province": "South Carolina",
    "postal_code": "29910-6213",
    "country": "United States",
    "longitude": -80.86048975,
    "latitude": 32.2372909,
    "phone": "8433219556",
    "website_url": "http://www.facebook.com/Saltmarshbrew/",
    "state": "South Carolina",
    "street": "203 Bluffton Rd"
  },
  {
    "id": "eaa42613-3192-4867-805e-7e578994c526",
    "name": "Salt Point Brewing Co, LLC",
    "brewery_type": "brewpub",
    "address_1": "2075 East Shore Dr",
    "address_2": null,
    "address_3": null,
    "city": "Lansing",
    "state_province": "New York",
    "postal_code": "14882",
    "country": "United States",
    "longitude": -76.50592053,
    "latitude": 42.53689005,
    "phone": "6075330124",
    "website_url": null,
    "state": "New York",
    "street": "2075 East Shore Dr"
  },
  {
    "id": "11f843b1-c0af-406a-9324-7abb436817cb",
    "name": "Salt Springs Brewery",
    "brewery_type": "brewpub",
    "address_1": "117 S Ann Arbor St",
    "address_2": null,
    "address_3": null,
    "city": "Saline",
    "state_province": "Michigan",
    "postal_code": "48176-1320",
    "country": "United States",
    "longitude": -83.78105412,
    "latitude": 42.16646594,
    "phone": "7342959191",
    "website_url": "http://wwww.saltpsringsbrewery.com",
    "state": "Michigan",
    "street": "117 S Ann Arbor St"
  },
  {
    "id": "d2950fc3-0965-4692-90ad-b9d8a8031829",
    "name": "Saltbox Brewery",
    "brewery_type": "brewpub",
    "address_1": "84 Commonwealth Ave",
    "address_2": null,
    "address_3": null,
    "city": "Concord",
    "state_province": "Massachusetts",
    "postal_code": "01742-2904",
    "country": "United States",
    "longitude": -71.39468258,
    "latitude": 42.45690806,
    "phone": "9782123585",
    "website_url": "http://www.saltboxkitchen.com",
    "state": "Massachusetts",
    "street": "84 Commonwealth Ave"
  }
]