[
  {
    "id": "9b678eac-c1d5-4ff7-beb9-60534f2346a7",
    "name": "Nine Maidens Brewing Company",
    "brewery_type": "micro",
    "address_1": "1344 University Ave",
    "address_2": "Suite 140",
    "address_3": null,
    "city": "Rochester",
    "state_province": "New York",
    "postal_code": "14607",
    "country": "United States",
    "longitude": -77.56625665,
    "latitude": 43.15104753,
    "phone": "5854343030",
    "website_url": "https://ninemaidensbrewing.com",
    "state": "New York",
    "street": "1344 University Ave"
  },
  {
    "id": "5cd23923-67b2-4443-b792-0f24872e6467",
    "name": "Nine Yards Brewing",
    "brewery_type": "closed",
    "address_1": "7324 NE 175th St Ste A",
    "address_2": null,
    "address_3": null,
    "city": "Kenmore",
    "state_province": "Washington",
    "postal_code": "98028-2500",
    "country": "United States",
    "longitude": -122.2422906,
    "latitude": 47.75713837,
    "phone": "2066932333",
    "website_url": "http://www.nineyardsbrewing.com",
    "state": "Washington",
    "street": "7324 NE 175th St Ste A"
  },
  {
    "id": "482a6631-2632-46e5-bea1-834d1d7474c4",
    "name": "Ninkasi Brewing Co",
    "brewery_type": "regional",
    "address_1": "155 Blair Blvd",
    "address_2": null,
    "address_3": null,
    "city": "Eugene",
    "state_province": "Oregon",
    "postal_code": "97402-4146",
    "country": "United States",
    "longitude": -123.1108891,
    "latitude": 44.05734326,
    "phone": "5413442739",
    "website_url": "http://www.ninkasibrewing.com",
    "state": "Oregon",
    "street": "155 Blair Blvd"
  },
  {
    "id": "8acc8ce7-11c0-43b3-913d-34e0830e03cf",
    "name": "Nisqually Valley Brewing",
    "brewery_type": "closed",
    "address_1": "704 W Yelm Ave",
    "address_2": null,
    "address_3": null,
    "city": "Yelm",
    "state_province": "Washington",
    "postal_code": "98597-7676",
    "country": "United States",
    "longitude": -122.6146521,
    "latitude": 46.94649437,
    "phone": "4252328191",
    "website_url": null,
    "state": "Washington",
    "street": "704 W Yelm Ave"
  },
  {
    "id": "5ac42050-fd76-4876-9391-6b7b84a7d845",
    "name": "Nivol Brewing",
    "brewery_type": "micro",
    "address_1": "483 N Richard Jackson Blvd",
    "address_2": null,
    "address_3": null,
    "city": "Panama City Beach",
    "state_province": "Florida",
    "postal_code": "32407-3647",
    "country": "United States",
    "longitude": null,
    "latitude": null,
    "phone": "8502491150",
    "website_url": "http://www.nivolbrewery.com",
    "state": "Florida",
    "street": "483 N Richard Jackson Blvd"
  },
  {
    "id": "0eef4089-8abb-43aa-9bed-2845c549c737",
    "name": "NLand Brewing Company",
    "brewery_type": "micro",
    "address_1": "4836 Hwy 71 E",
    "address_2": null,
    "address_3": null,
    "city": "del Valle",
    "state_province": "Texas",
    "postal_code": "78617-3217",
    "country": "United States",
    "longitude": null,
    "latitude": null,
    "phone": "5128061900",
    "website_url": null,
    "state": "Texas",
    "street": "4836 Hwy 71 E"
  },
  {
    "id": "4ef00f5d-4b35-499e-ba90-8485b4d7ad8d",
    "name": "No Boat Brewing Company",
    "brewery_type": "micro",
    "address_1": "35214 SE Center St # 2",
    "address_2": null,
    "address_3": null,
    "city": "Snoqualmie",
    "state_province": "Washington",
    "postal_code": "98065-9279",
    "country": "United States",
    "longitude": -121.8721847,
    "latitude": 47.52917112,
    "phone": "2063995626",
    "website_url": "http://www.noboatbrewing.com",
    "state": "Washington",
    "street": "35214 SE Center St # 2"
  },
  {
    "id": "bd119567-1524-49cd-a608-4b15f885a7f7",
    "name": "No Clue Craft Brewery",
    "brewery_type": "micro",
    "address_1": "9037 Arrow Rte Ste 170",
    "address_2": null,
    "address_3": null,
    "city": "Rancho Cucamonga",
    "state_province": "California",
    "postal_code": "91730-4433",
    "country": "United States",
    "longitude": -117.5410707,
    "latitude": 34.0990988,
    "phone": "9099892394",
    "website_url": "http://www.nocluebrew.com",
    "state": "California",
    "street": "9037 Arrow Rte Ste 170"
  },
  {
    "id": "993fa956-4a45-4a84-94c7-975cea6e9602",
    "name": "No Drought Brewing Co",
    "brewery_type": "micro",
    "address_1": "10604 E 16th Ave",
    "address_2": null,
    "address_3": null,
    "city": "Spokane Valley",
    "state_province": "Washington",
    "postal_code": "99206",
    "country": "United States",
    "longitude": -117.2624031,
    "latitude": 47.64269047,
    "phone": "4257735309",
    "website_url": "https://nodroughtbrewing.com",
    "state": "Washington",
    "street": "10604 E 16th Ave"
  },
  {
    "id": "ede002ca-e4fd-42ad-8f34-f355339bec32",
    "name": "No Label Brewing Co",
    "brewery_type": "micro",
    "address_1": "5351-A 1st St",
    "address_2": null,
    "address_3": null,
    "city": "Katy",
    "state_province": "Texas",
    "postal_code": "77493-2506",
    "country": "United States",
    "longitude": null,
    "latitude": null,
    "phone": "2816937545",
    "website_url": "http://www.nolabelbrew.com",
    "state": "Texas",
    "street": "5351-A 1st St"
  },
  {
    "id": "ab6833ed-c009-48fc-9c28-66b346f3a66d",
    "name": "No Worries Brewing Company",
    "brewery_type": "micro",
    "address_1": "2520 State St",
    "address_2": null,
    "address_3": null,
    "city": "Hamden",
    "state_province": "Connecticut",
    "postal_code": "06517-3004",
    "country": "United States",
    "longitude": null,
    "latitude": null,
    "phone": "2036916662",
    "website_url": "http://www.noworriesbeer.com",
    "state": "Connecticut",
    "street": "2520 State St"
  },
  {
    "id": "a2f1cd52-8d42-4763-935d-f6d3846e163b",
    "name": "No-Li Brewhouse",
    "brewery_type": "micro",
    "address_1": "1003 E Trent Ave Ste 170",
    "address_2": null,
    "address_3": null,
    "city": "Spokane",
    "state_province": "Washington",
    "postal_code": "99202-2185",
    "country": "United States",
    "longitude": -117.3935426,
    "latitude": 47.6637169,
    "phone": "5093154061",
    "website_url": "http://www.nolibrewhouse.com",
    "state": "Washington",
    "street": "1003 E Trent Ave Ste 170"
  },
  {
    "id": "365669a0-156f-4d7c-8f11-e50bf0b85c80",
    "name": "Noble Ale Works",
    "brewery_type": "micro",
    "address_1": "1621 S Sinclair St Ste B",
    "address_2": null,
    "address_3": null,
    "city": "Anaheim",
    "state_province": "California",
    "postal_code": "92806-5947",
    "country": "United States",
    "longitude": -117.8826431,
    "latitude": 33.80875036,
    "phone": "7146342739",
    "website_url": "http://www.noblealeworks.com",
    "state": "California",
    "street": "1621 S Sinclair St Ste B"
  },
  {
    "id": "cd6e88e8-4e7d-4c49-bffe-278c5e329313",
    "name": "Noble Beast Brewing Co.",
    "brewery_type": "brewpub",
    "address_1": "1470 Lakeside Ave E",
    "address_2": null,
    "address_3": null,
    "city": "Cleveland",
    "state_province": "Ohio",
    "postal_code": "44114-1137",
    "country": "United States",
    "longitude": -81.68692334,
    "latitude": 41.50768107,
    "phone": "7175859216",
    "website_url": "http://noblebeastbeer.com",
    "state": "Ohio",
    "street": "1470 Lakeside Ave E"
  },
  {
    "id": "35c24341-b1dd-4218-a209-a4b8e26b6d04",
    "name": "Noble Creature Cask House",
    "brewery_type": "brewpub",
    "address_1": "126 E Rayen Ave",
    "address_2": null,
    "address_3": null,
    "city": "Youngstown",
    "state_province": "Ohio",
    "postal_code": "44503-1619",
    "country": "United States",
    "longitude": -80.64576162,
    "latitude": 41.1022793,
    "phone": "2347191827",
    "website_url": "http://www.noblecreaturebeer.com",
    "state": "Ohio",
    "street": "126 E Rayen Ave"
  },
  {
    "id": "fb3382e7-dddc-4538-a920-8a73f8499fa0",
    "name": "Noble Order Brewing Company",
    "brewery_type": "brewpub",
    "address_1": "3407 National Rd W",
    "address_2": null,
    "address_3": null,
    "city": "Richmond",
    "state_province": "Indiana",
    "postal_code": "47374-4416",
    "country": "United States",
    "longitude": -84.94882319,
    "latitude": 39.82198694,
    "phone": "7659659463",
    "website_url": "http://www.nobleorderbrewing.com",
    "state": "Indiana",
    "street": "3407 National Rd W"
  },
  {
    "id": "27b8a5c5-c9b0-4379-92c5-b51227419527",
    "name": "Noble Rey Brewing Company",
    "brewery_type": "micro",
    "address_1": "2636 Farrington St",
    "address_2": null,
    "address_3": null,
    "city": "Dallas",
    "state_province": "Texas",
    "postal_code": "75207-5908",
    "country": "United States",
    "longitude": -96.83952145,
    "latitude": 32.79998405,
    "phone": "9726777612",
    "website_url": "http://www.noblereybrewing.com",
    "state": "Texas",
    "street": "2636 Farrington St"
  },
  {
    "id": "be4d1a52-2a5c-493b-9000-6e2d46ca6fed",
    "name": "Noble Roots Brewing",
    "brewery_type": "micro",
    "address_1": "2790 University Ave",
    "address_2": null,
    "address_3": null,
    "city": "Green Bay",
    "state_province": "Wisconsin",
    "postal_code": "54311-5856",
    "country": "United States",
    "longitude": -87.996992,
    "latitude": 44.51462,
    "phone": null,
    "website_url": null,
    "state": "Wisconsin",
    "street": "2790 University Ave"
  },
  {
    "id": "8ffc4efe-c037-4619-bbd5-6892acf73bc5",
    "name": "Noble Shepherd Craft Brewery",
    "brewery_type": "micro",
    "address_1": "7853 State Route 20a",
    "address_2": null,
    "address_3": null,
    "city": "Bloomfield",
    "state_province": "New York",
    "postal_code": "14469-9659",
    "country": "United States",
    "longitude": null,
    "latitude": null,
    "phone": "5852297661",
    "website_url": "http://www.nobleshepherdbrewery.com",
    "state": "New York",
    "street": "7853 State Route 20a"
  },
  {
    "id": "5d6f03de-3d1e-4164-802f-df0ef0addb2b",
    "name": "Noble Stein Brewing Co.",
    "brewery_type": "micro",
    "address_1": "1170-G Wayne Avenue",
    "address_2": null,
    "address_3": null,
    "city": "Indiana",
    "state_province": "Pennsylvania",
    "postal_code": "15701",
    "country": "United States",
    "longitude": null,
    "latitude": null,
    "phone": "7248018087",
    "website_url": "http://www.noblesteinbeer.com",
    "state": "Pennsylvania",
    "street": "1170-G Wayne Avenue"
  },
  {
    "id": "7a316e4c-43af-48c4-9dd7-238c29c9355e",
    "name": "NOBO Brewing Company",
    "brewery_type": "micro",
    "address_1": "2901 Commerce Park Dr",
    "address_2": null,
    "address_3": null,
    "city": "Boynton Beach",
    "state_province": "Florida",
    "postal_code": "33426-8728",
    "country": "United States",
    "longitude": null,
    "latitude": null,
    "phone": "5613201522",
    "website_url": "http://www.nobobrewing.com",
    "state": "Florida",
    "street": "2901 Commerce Park Dr"
  },
  {
    "id": "0ef56b9f-5e22-4727-9507-4e81e18ec36c",
    "name": "NoCoast Beer Co",
    "brewery_type": "micro",
    "address_1": "1407 17th Ave E Ste B",
    "address_2": null,
    "address_3": null,
    "city": "Oskaloosa",
    "state_province": "Iowa",
    "postal_code": "52577-3563",
    "country": "United States",
    "longitude": -92.629066,
    "latitude": 41.280628,
    "phone": "6416733481",
    "website_url": "http://www.nocoastbeer.co",
    "state": "Iowa",
    "street": "1407 17th Ave E Ste B"
  },
  {
    "id": "32f14df7-72c2-4b46-be09-9c9c887a8cc1",
    "name": "Nocterra Brewing Co",
    "brewery_type": "micro",
    "address_1": "41 Depot St",
    "address_2": null,
    "address_3": null,
    "city": "Powell",
    "state_province": "Ohio",
    "postal_code": "43065",
    "country": "United States",
    "longitude": -83.0784981,
    "latitude": 40.1596311,
    "phone": "614-896-8000",
    "website_url": "https://nocterrabrewing.com/",
    "state": "Ohio",
    "street": "41 Depot St"
  },
  {
    "id": "23a3ecc4-0f48-46e5-8b7c-d72222af9d0f",
    "name": "Nod Hill Brewery",
    "brewery_type": "micro",
    "address_1": "137 Ethan Allen Hwy",
    "address_2": null,
    "address_3": null,
    "city": "Ridgefield",
    "state_province": "Connecticut",
    "postal_code": "06877-6238",
    "country": "United States",
    "longitude": -73.44388491,
    "latitude": 41.27316148,
    "phone": "2036171191",
    "website_url": "http://www.nodhillbrewery.com",
    "state": "Connecticut",
    "street": "137 Ethan Allen Hwy"
  },
  {
    "id": "34b3f37c-5c35-4afa-a10f-590b88a055f1",
    "name": "NoDa Brewing Co - NE",
    "brewery_type": "regional",
    "address_1": "2921 N Tryon St",
    "address_2": null,
    "address_3": null,
    "city": "Charlotte",
    "state_province": "North Carolina",
    "postal_code": "28206-2762",
    "country": "United States",
    "longitude": -80.7190968,
    "latitude": 35.3342735,
    "phone": "7044511394",
    "website_url": "http://www.nodabrewing.com",
    "state": "North Carolina",
    "street": "2921 N Tryon St"
  },
  {
    "id": "537b2caf-1ce6-4c4f-9e7c-618d3c0bf9c1",
    "name": "NoDa Brewing Co - OG",
    "brewery_type": "micro",
    "address_1": "2229 N Davidson St",
    "address_2": null,
    "address_3": null,
    "city": "Charlotte",
    "state_province": "North Carolina",
    "postal_code": "28205-1829",
    "country": "United States",
    "longitude": -80.81513271,
    "latitude": 35.23971743,
    "phone": "7044511394",
    "website_url": null,
    "state": "North Carolina",
    "street": "2229 N Davidson St"
  },
  {
    "id": "4898f503-7bb3-494f-98dc-921d032912ef",
    "name": "Nomadic Beerworks",
    "brewery_type": "micro",
    "address_1": "3804 Woodbury Dr Suita A",
    "address_2": null,
    "address_3": null,
    "city": "Austin",
    "state_province": "Texas",
    "postal_code": "78704",
    "country": "United States",
    "longitude": -97.7627464,
    "latitude": 30.2244374,
    "phone": null,
    "website_url": "http://www.nomadicbeerworks.com",
    "state": "Texas",
    "street": "3804 Woodbury Dr Suita A"
  },
  {
    "id": "5448b56f-2da6-4a53-a379-061c33b7b66c",
    "name": "Nonesuch River Brewing",
    "brewery_type": "brewpub",
    "address_1": "201 Gorham Rd",
    "address_2": null,
    "address_3": null,
    "city": "Scarborough",
    "state_province": "Maine",
    "postal_code": "04074-8970",
    "country": "United States",
    "longitude": null,
    "latitude": null,
    "phone": "2072198948",
    "website_url": "http://www.nonesuchriverbrewing.com",
    "state": "Maine",
    "street": "201 Gorham Rd"
  },
  {
    "id": "b7b2b15a-641c-4ca0-9b04-b36d0a5bf3de",
    "name": "Noon Whistle Brewing Company",
    "brewery_type": "micro",
    "address_1": "800 E Roosevelt Rd Ste 3",
    "address_2": null,
    "address_3": null,
    "city": "Lombard",
    "state_province": "Illinois",
    "postal_code": "60148-4765",
    "country": "United States",
    "longitude": null,
    "latitude": null,
    "phone": "7089063625",
    "website_url": "http://www.noonwhistlebrewing.com",
    "state": "Illinois",
    "street": "800 E Roosevelt Rd Ste 3"
  },
  {
    "id": "38ca86ea-1286-4668-ac55-b84aebc30c32",
    "name": "Norfork Brewing Company",
    "brewery_type": "micro",
    "address_1": "1237 River Ridge Rd",
    "address_2": null,
    "address_3": null,
    "city": "Norfork",
    "state_province": "Arkansas",
    "postal_code": "72658-9630",
    "country": "United States",
    "longitude": -92.2711893,
    "latitude": 36.2245472,
    "phone": "9187066082",
    "website_url": "http://www.nfbrew.com",
    "state": "Arkansas",
    "street": "1237 River Ridge Rd"
  },
  {
    "id": "d0829fa2-1489-43a5-9bbf-a89d51e8747a",
    "name": "Norris English Pub",
    "brewery_type": "brewpub",
    "address_1": "202 E Seminary St",
    "address_2": null,
    "address_3": null,
    "city": "Liberty",
    "state_province": "Indiana",
    "postal_code": "47353-1206",
    "country": "United States",
    "longitude": -84.92508133,
    "latitude": 39.6344325,
    "phone": "7652232337",
    "website_url": "http://www.norrisenglishpub.com",
    "state": "Indiana",
    "street": "202 E Seminary St"
  },
  {
    "id": "385aa942-7fc3-441b-90c5-7ad9410e2d03",
    "name": "Norsemen Brewing Co.",
    "brewery_type": "micro",
    "address_1": "830 N Kansas Ave",
    "address_2": null,
    "address_3": null,
    "city": "Topeka",
    "state_province": "Kansas",
    "postal_code": "66608-1211",
    "country": "United States",
    "longitude": -95.6663742,
    "latitude": 39.06706165,
    "phone": "7856085065",
    "website_url": "http://www.norsemenbrewingco.com",
    "state": "Kansas",
    "street": "830 N Kansas Ave"
  },
  {
    "id": "1c3768b5-cdcf-4b42-915a-0f99ad191b87",
    "name": "Nortada",
    "brewery_type": "brewpub",
    "address_1": "R. de S\u00e1 da Bandeira 210",
    "address_2": null,
    "address_3": null,
    "city": "Porto",
    "state_province": "Porto",
    "postal_code": "4000-427",
    "country": "Portugal",
    "longitude": -8.6081642666967,
    "latitude": 41.148109589962,
    "phone": "+351 22 018 1000",
    "website_url": "https://cervejanortada.pt",
    "state": "Porto",
    "street": "R. de S\u00e1 da Bandeira 210"
  },
  {
    "id": "a10124cd-39fc-494b-8196-3b71410ba8ca",
    "name": "North 47 Brewing Co",
    "brewery_type": "micro",
    "address_1": "1000 Town Ctr NE Ste 160",
    "address_2": null,
    "address_3": null,
    "city": "Tacoma",
    "state_province": "Washington",
    "postal_code": "98422-1197",
    "country": "United States",
    "longitude": -122.4354592,
    "latitude": 47.30149275,
    "phone": "2535179865",
    "website_url": "http://www.north47brewery.com",
    "state": "Washington",
    "street": "1000 Town Ctr NE Ste 160"
  },
  {
    "id": "e8c22d10-8479-4770-917a-7d9788a8e515",
    "name": "North American Breweries",
    "brewery_type": "regional",
    "address_1": "445 Saint Paul St",
    "address_2": null,
    "address_3": null,
    "city": "Rochester",
    "state_province": "New York",
    "postal_code": "14605-1726",
    "country": "United States",
    "longitude": -77.6143245,
    "latitude": 43.16481717,
    "phone": "5855461030",
    "website_url": null,
    "state": "New York",
    "street": "445 Saint Paul St"
  },
  {
    "id": "1749a21d-054c-42ac-86a4-a540a60e7110",
    "name": "North Branch Brewing Co",
    "brewery_type": "micro",
    "address_1": "101 Armstrong St Ste 1",
    "address_2": null,
    "address_3": null,
    "city": "Keyser",
    "state_province": "West Virginia",
    "postal_code": "26726-3502",
    "country": "United States",
    "longitude": -78.981671784223,
    "latitude": 39.462143670226,
    "phone": "3047884000",
    "website_url": "https://www.facebook.com/NorthBranchPub",
    "state": "West Virginia",
    "street": "101 Armstrong St Ste 1"
  },
  {
    "id": "8de15b68-c090-4116-9d26-e09a2c845c52",
    "name": "North Brewery",
    "brewery_type": "micro",
    "address_1": "110 Washington Ave",
    "address_2": null,
    "address_3": null,
    "city": "Endicott",
    "state_province": "New York",
    "postal_code": "13760-5307",
    "country": "United States",
    "longitude": -76.04827802,
    "latitude": 42.102192,
    "phone": "6077850524",
    "website_url": "http://www.northbrewery.com",
    "state": "New York",
    "street": "110 Washington Ave"
  },
  {
    "id": "a5719005-b4e5-49c8-95ed-47f6c6fcec05",
    "name": "North By Northwest Restaurant and Brewery - North Capital",
    "brewery_type": "brewpub",
    "address_1": "10010 N Capital of Texas Hwy",
    "address_2": null,
    "address_3": null,
    "city": "Austin",
    "state_province": "Texas",
    "postal_code": "78759-5837",
    "country": "United States",
    "longitude": null,
    "latitude": null,
    "phone": "5124676969",
    "website_url": "http://www.nxnwbrew.com",
    "state": "Texas",
    "street": "10010 N Capital of Texas Hwy"
  },
  {
    "id": "6232a3d2-740c-4c51-b69f-234f44a6d003",
    "name": "North By Northwest Restaurant and Brewery - Slaughter",
    "brewery_type": "brewpub",
    "address_1": "5701 W Slaughter Ln Bld D",
    "address_2": null,
    "address_3": null,
    "city": "Austin",
    "state_province": "Texas",
    "postal_code": "78759-5837",
    "country": "United States",
    "longitude": null,
    "latitude": null,
    "phone": "5124676969",
    "website_url": null,
    "state": "Texas",
    "street": "5701 W Slaughter Ln Bld D"
  },
  {
    "id": "2fe4a822-2435-4f5c-bebf-66a40909e8d4",
    "name": "North Center Brewing Co.",
    "brewery_type": "brewpub",
    "address_1": "410 N Center St",
    "address_2": null,
    "address_3": null,
    "city": "Northville",
    "state_province": "Michigan",
    "postal_code": "48167-1224",
    "country": "United States",
    "longitude": -83.48311135,
    "latitude": 42.43412107,
    "phone": "2484447967",
    "website_url": "http://www.northcenterbrewing.com",
    "state": "Michigan",
    "street": "410 N Center St"
  },
  {
    "id": "2983edd7-074e-4a0e-970f-6fc938c07e94",
    "name": "North Channel Brewing Co.",
    "brewery_type": "brewpub",
    "address_1": "86 Washington St",
    "address_2": null,
    "address_3": null,
    "city": "Manistee",
    "state_province": "Michigan",
    "postal_code": "49660-1231",
    "country": "United States",
    "longitude": -86.32379888,
    "latitude": 44.24929388,
    "phone": "2312991020",
    "website_url": "http://www.NorthChannelBrewing.com",
    "state": "Michigan",
    "street": "86 Washington St"
  },
  {
    "id": "8ded24ab-ee4b-4ae5-89aa-279f870c5f99",
    "name": "North Coast Brewing Co Inc.",
    "brewery_type": "regional",
    "address_1": "455 N Main St",
    "address_2": null,
    "address_3": null,
    "city": "Fort Bragg",
    "state_province": "California",
    "postal_code": "95437-3215",
    "country": "United States",
    "longitude": -123.8057604,
    "latitude": 39.44618406,
    "phone": "7079642739",
    "website_url": "http://www.northcoastbrewing.com",
    "state": "California",
    "street": "455 N Main St"
  },
  {
    "id": "315984bd-5e4e-4752-bfee-e91c5d77ae8f",
    "name": "North Country Brewing Co. LLC",
    "brewery_type": "micro",
    "address_1": "141 S Main St",
    "address_2": null,
    "address_3": null,
    "city": "Slippery Rock",
    "state_province": "Pennsylvania",
    "postal_code": "16057-1246",
    "country": "United States",
    "longitude": -80.05566287,
    "latitude": 41.06345599,
    "phone": "7247942337",
    "website_url": "http://www.northcountrybrewing.com",
    "state": "Pennsylvania",
    "street": "141 S Main St"
  },
  {
    "id": "d3d3ffc2-081b-4004-a9b9-b3471061dafc",
    "name": "North Country Canning Co",
    "brewery_type": "micro",
    "address_1": "111 Arrowhead Dr Ste B",
    "address_2": null,
    "address_3": null,
    "city": "Slippery Rock",
    "state_province": "Pennsylvania",
    "postal_code": "16057-2667",
    "country": "United States",
    "longitude": null,
    "latitude": null,
    "phone": "7247942337",
    "website_url": null,
    "state": "Pennsylvania",
    "street": "111 Arrowhead Dr Ste B"
  },
  {
    "id": "ca5d6e06-3eb3-4a52-a827-5c237b414323",
    "name": "North End Tavern & Brewery",
    "brewery_type": "brewpub",
    "address_1": "3500 Emerson Ave",
    "address_2": null,
    "address_3": null,
    "city": "Parkersburg",
    "state_province": "West Virginia",
    "postal_code": "26104-1806",
    "country": "United States",
    "longitude": -81.5330081,
    "latitude": 39.2874512,
    "phone": "3044285854",
    "website_url": "http://www.netbrewery.com",
    "state": "West Virginia",
    "street": "3500 Emerson Ave"
  },
  {
    "id": "f8ecb4a2-5fb8-4b64-8723-2edc12a766a3",
    "name": "North Fork Brewing Co",
    "brewery_type": "brewpub",
    "address_1": "6186 Mt Baker Hwy",
    "address_2": null,
    "address_3": null,
    "city": "Deming",
    "state_province": "Washington",
    "postal_code": "98244-9501",
    "country": "United States",
    "longitude": -122.243112,
    "latitude": 48.833032,
    "phone": "3605992337",
    "website_url": "http://www.northforkbrewery.com",
    "state": "Washington",
    "street": "6186 Mt Baker Hwy"
  },
  {
    "id": "bae199e6-4672-41d7-9c0c-c3ecc42033da",
    "name": "North Fork Brewing Company",
    "brewery_type": "planning",
    "address_1": null,
    "address_2": null,
    "address_3": null,
    "city": "Riverhead",
    "state_province": "New York",
    "postal_code": "11901-4615",
    "country": "United States",
    "longitude": null,
    "latitude": null,
    "phone": null,
    "website_url": null,
    "state": "New York",
    "street": null
  },
  {
    "id": "7cc5e4f3-1c61-42ce-a66b-eb5e18a011ba",
    "name": "North Forty Beer Company",
    "brewery_type": "micro",
    "address_1": "435 SE Jackson St",
    "address_2": null,
    "address_3": null,
    "city": "Roseburg",
    "state_province": "Oregon",
    "postal_code": "97470-4945",
    "country": "United States",
    "longitude": -123.3429552,
    "latitude": 43.21021235,
    "phone": "5413216636",
    "website_url": "http://www.northfortybeer.com",
    "state": "Oregon",
    "street": "435 SE Jackson St"
  },
  {
    "id": "453056a2-f7af-460b-81bc-d88e3e558889",
    "name": "North Haven Brewing Company",
    "brewery_type": "micro",
    "address_1": "2 Iron Point Rd # 2",
    "address_2": null,
    "address_3": null,
    "city": "North Haven",
    "state_province": "Maine",
    "postal_code": "04853",
    "country": "United States",
    "longitude": -68.8719897,
    "latitude": 44.1280622,
    "phone": "2078672337",
    "website_url": "http://www.northhavenbrewing.com",
    "state": "Maine",
    "street": "2 Iron Point Rd # 2"
  },
  {
    "id": "83737f10-3aa4-47c7-899d-d0eac85b098c",
    "name": "North High Brewing",
    "brewery_type": "micro",
    "address_1": "1125 Cleveland Ave",
    "address_2": null,
    "address_3": null,
    "city": "Columbus",
    "state_province": "Ohio",
    "postal_code": "43201-2900",
    "country": "United States",
    "longitude": -82.982658,
    "latitude": 39.992787,
    "phone": "6142263244",
    "website_url": "http://www.northhighbrewing.com",
    "state": "Ohio",
    "street": "1125 Cleveland Ave"
  }
]