[
  {
    "id": "b17e985e-6d4c-4887-9cd2-d88fce11b0c2",
    "name": "The Oozlefinch Craft Brewery",
    "brewery_type": "micro",
    "address_1": "81 Patch Rd",
    "address_2": null,
    "address_3": null,
    "city": "Fort Monroe",
    "state_province": "Virginia",
    "postal_code": "23651-1052",
    "country": "United States",
    "longitude": null,
    "latitude": null,
    "phone": "7572247042",
    "website_url": "http://www.oozlefinchbeers.com",
    "state": "Virginia",
    "street": "81 Patch Rd"
  },
  {
    "id": "f6715a67-222b-4bed-802c-25b228aed9e0",
    "name": "The Other Farm Brewing Company",
    "brewery_type": "brewpub",
    "address_1": "128 E Philadelphia Ave Ste 1",
    "address_2": null,
    "address_3": null,
    "city": "Boyertown",
    "state_province": "Pennsylvania",
    "postal_code": "19512-1161",
    "country": "United States",
    "longitude": null,
    "latitude": null,
    "phone": "4844150741",
    "website_url": "http://www.theotherfarmbrewingcompany.com",
    "state": "Pennsylvania",
    "street": "128 E Philadelphia Ave Ste 1"
  },
  {
    "id": "9ec433d3-96fc-4055-88ef-cdc1b2aa9caa",
    "name": "The Other Side of the Moon - Jamestown",
    "brewery_type": "brewpub",
    "address_1": "103 W Main St",
    "address_2": null,
    "address_3": null,
    "city": "Jamestown",
    "state_province": "North Carolina",
    "postal_code": "27282",
    "country": "United States",
    "longitude": -79.93765165,
    "latitude": 35.99284597,
    "phone": "3633072887",
    "website_url": null,
    "state": "North Carolina",
    "street": "103 W Main St"
  },
  {
    "id": "f6a4ecaa-2045-43ed-8563-9d4bf0af345f",
    "name": "The Outlaw Brewing Company",
    "brewery_type": "micro",
    "address_1": "215 Scotland Rd",
    "address_2": null,
    "address_3": null,
    "city": "Winchester",
    "state_province": "New Hampshire",
    "postal_code": "03470-3006",
    "country": "United States",
    "longitude": -72.35620045,
    "latitude": 42.75012519,
    "phone": "6033363444",
    "website_url": "http://www.theoutlawbrewingcompany.com",
    "state": "New Hampshire",
    "street": "215 Scotland Rd"
  },
  {
    "id": "451c1c4a-fd8d-4cda-a43d-7cc527c8ff37",
    "name": "The Owls Brew",
    "brewery_type": "large",
    "address_1": "135 W 29th St Rm 602",
    "address_2": null,
    "address_3": null,
    "city": "New York",
    "state_province": "New York",
    "postal_code": "10001-5175",
    "country": "United States",
    "longitude": null,
    "latitude": null,
    "phone": "2125640218",
    "website_url": "http://www.theowlsbrew.com",
    "state": "New York",
    "street": "135 W 29th St Rm 602"
  },
  {
    "id": "15c5f1c0-f36a-42a0-89ce-dfff6bf9636e",
    "name": "The Parlor",
    "brewery_type": "brewpub",
    "address_1": "205 Lake Ave",
    "address_2": null,
    "address_3": null,
    "city": "Traverse City",
    "state_province": "Michigan",
    "postal_code": "49684-2532",
    "country": "United States",
    "longitude": -85.6204308,
    "latitude": 44.7601402,
    "phone": "2319414422",
    "website_url": "http://www.bigtoebrewery.com",
    "state": "Michigan",
    "street": "205 Lake Ave"
  },
  {
    "id": "ddf0bca8-b865-460a-a287-19c2fd69d061",
    "name": "The Peak Brewing Company",
    "brewery_type": "brewpub",
    "address_1": "78491 US-40",
    "address_2": null,
    "address_3": null,
    "city": "Winter Park",
    "state_province": "Colorado",
    "postal_code": "80482",
    "country": "United States",
    "longitude": null,
    "latitude": null,
    "phone": "9707267951",
    "website_url": "http://www.thepeakwp.com",
    "state": "Colorado",
    "street": "78491 US-40"
  },
  {
    "id": "1dd33c00-3a98-42bc-a33c-4c19da3a6a8b",
    "name": "The Peddler",
    "brewery_type": "brewpub",
    "address_1": "835 3rd Ave",
    "address_2": null,
    "address_3": null,
    "city": "Huntington",
    "state_province": "West Virginia",
    "postal_code": "25701",
    "country": "United States",
    "longitude": -82.44527196,
    "latitude": 38.42165769,
    "phone": "3046910415",
    "website_url": null,
    "state": "West Virginia",
    "street": "835 3rd Ave"
  },
  {
    "id": "044fc194-fa8d-41cb-8a8c-6b1d18b4b3bd",
    "name": "The Peoples Pint / Franklin County Brewing Co",
    "brewery_type": "brewpub",
    "address_1": "76 Hope St",
    "address_2": null,
    "address_3": null,
    "city": "Greenfield",
    "state_province": "Massachusetts",
    "postal_code": "01301-3573",
    "country": "United States",
    "longitude": -72.59769229,
    "latitude": 42.58187599,
    "phone": "4137730333",
    "website_url": "http://www.thepeoplespint.com",
    "state": "Massachusetts",
    "street": "76 Hope St"
  },
  {
    "id": "0bec1266-0d4a-4df2-bfb5-6b2c405c9983",
    "name": "The Perch Pub & Brewery",
    "brewery_type": "brewpub",
    "address_1": "232 S Wall St",
    "address_2": null,
    "address_3": null,
    "city": "Chandler",
    "state_province": "Arizona",
    "postal_code": "85225-9528",
    "country": "United States",
    "longitude": -111.8424808,
    "latitude": 33.3000878,
    "phone": "4805808044",
    "website_url": "http://www.perchpubbrewery.com",
    "state": "Arizona",
    "street": "232 S Wall St"
  },
  {
    "id": "916c862e-98d5-4dcb-aba7-20389e5676fd",
    "name": "The Phoenix Ale Brewery",
    "brewery_type": "micro",
    "address_1": "3002 E Washington St # 3002",
    "address_2": null,
    "address_3": null,
    "city": "Phoenix",
    "state_province": "Arizona",
    "postal_code": "85034-1518",
    "country": "United States",
    "longitude": -111.9642922,
    "latitude": 33.4457883,
    "phone": "6022755049",
    "website_url": "http://phoenixale.com",
    "state": "Arizona",
    "street": "3002 E Washington St # 3002"
  },
  {
    "id": "b351f9ac-ec78-4778-8dbf-a5359bdf5bd0",
    "name": "The Phoenix Brewing Company",
    "brewery_type": "micro",
    "address_1": "131 N Diamond St",
    "address_2": null,
    "address_3": null,
    "city": "Mansfield",
    "state_province": "Ohio",
    "postal_code": "44902-1331",
    "country": "United States",
    "longitude": -82.51395188,
    "latitude": 40.76201837,
    "phone": "4195222552",
    "website_url": "http://www.phoenixbrewing.com",
    "state": "Ohio",
    "street": "131 N Diamond St"
  },
  {
    "id": "3e98180b-d811-49d8-8085-f6a9f67af1ca",
    "name": "The Phoenix On Westheimer",
    "brewery_type": "brewpub",
    "address_1": "1915 Westheimer Rd",
    "address_2": null,
    "address_3": null,
    "city": "Houston",
    "state_province": "Texas",
    "postal_code": "77098-1521",
    "country": "United States",
    "longitude": -95.4966157,
    "latitude": 29.7377481,
    "phone": "7135263100",
    "website_url": "http://www.phoenixow.com",
    "state": "Texas",
    "street": "1915 Westheimer Rd"
  },
  {
    "id": "cdc5bcd0-ffab-47b9-a21b-bbd5f02c171b",
    "name": "The Plains Brewing Company",
    "brewery_type": "micro",
    "address_1": "515 N FM 179",
    "address_2": null,
    "address_3": null,
    "city": "Lubbock",
    "state_province": "Texas",
    "postal_code": "79416-9512",
    "country": "United States",
    "longitude": null,
    "latitude": null,
    "phone": "8067868583",
    "website_url": null,
    "state": "Texas",
    "street": "515 N FM 179"
  },
  {
    "id": "0c76b63a-b885-4f71-9c03-1274cc347cb9",
    "name": "The Porterhouse Brewing Company",
    "brewery_type": "micro",
    "address_1": "3-4 Stag Industrial Estate",
    "address_2": "Ballyboggan Road",
    "address_3": "Dublin 11",
    "city": "Dublin",
    "state_province": "Dublin",
    "postal_code": "D11 AY91",
    "country": "Ireland",
    "longitude": -6.2998473,
    "latitude": 53.3735147,
    "phone": "35318227415",
    "website_url": "http://www.porterhousebrewco.ie/",
    "state": "Dublin",
    "street": "3-4 Stag Industrial Estate"
  },
  {
    "id": "7f7e73b4-7a05-4f3b-937a-b1dc33e43795",
    "name": "The Portsmouth Brewery",
    "brewery_type": "closed",
    "address_1": "56 Market St",
    "address_2": null,
    "address_3": null,
    "city": "Portsmouth",
    "state_province": "New Hampshire",
    "postal_code": "03801-3750",
    "country": "United States",
    "longitude": -70.7576875,
    "latitude": 43.0780072,
    "phone": "6034311115",
    "website_url": "http://www.portsmouthbrewery.com",
    "state": "New Hampshire",
    "street": "56 Market St"
  },
  {
    "id": "8d658be9-25c4-4c6c-8067-f2f48ca84796",
    "name": "The Post Brewing Co",
    "brewery_type": "brewpub",
    "address_1": "2027 13th St",
    "address_2": null,
    "address_3": null,
    "city": "Boulder",
    "state_province": "Colorado",
    "postal_code": "80302-5201",
    "country": "United States",
    "longitude": -105.2788942,
    "latitude": 40.01847649,
    "phone": "7203723341",
    "website_url": "http://www.postbrewing.com",
    "state": "Colorado",
    "street": "2027 13th St"
  },
  {
    "id": "fccbb48b-551d-4751-8fbc-42debc14a8f6",
    "name": "The Post Brewing Co",
    "brewery_type": "brewpub",
    "address_1": "105 W Emma St",
    "address_2": null,
    "address_3": null,
    "city": "Lafayette",
    "state_province": "Colorado",
    "postal_code": "80026-1501",
    "country": "United States",
    "longitude": -105.0913165,
    "latitude": 39.99461105,
    "phone": "3035932066",
    "website_url": "http://www.postbrewing.com",
    "state": "Colorado",
    "street": "105 W Emma St"
  },
  {
    "id": "64187393-244a-4e18-8fae-9628e3979dac",
    "name": "The Pour Farm",
    "brewery_type": "planning",
    "address_1": null,
    "address_2": null,
    "address_3": null,
    "city": "Union",
    "state_province": "Maine",
    "postal_code": "04862",
    "country": "United States",
    "longitude": null,
    "latitude": null,
    "phone": "5083805372",
    "website_url": "http://www.thepourfarm.com",
    "state": "Maine",
    "street": null
  },
  {
    "id": "26a82c03-9de0-4c7f-a2fc-3885f8ce961a",
    "name": "The Prodigal Brewing Company",
    "brewery_type": "micro",
    "address_1": "9 Auburndale Ln",
    "address_2": null,
    "address_3": null,
    "city": "Auburn",
    "state_province": "New Hampshire",
    "postal_code": "03032",
    "country": "United States",
    "longitude": null,
    "latitude": null,
    "phone": "6036827381",
    "website_url": null,
    "state": "New Hampshire",
    "street": "9 Auburndale Ln"
  },
  {
    "id": "1c5234da-6871-4fb3-8c42-3ec063d6474c",
    "name": "The Proper Brewing Company",
    "brewery_type": "brewpub",
    "address_1": "117 W Broad St",
    "address_2": null,
    "address_3": null,
    "city": "Quakertown",
    "state_province": "Pennsylvania",
    "postal_code": "18951-1200",
    "country": "United States",
    "longitude": -75.34137437,
    "latitude": 40.44177523,
    "phone": "2674905168",
    "website_url": "http://www.theproperbrewing.com",
    "state": "Pennsylvania",
    "street": "117 W Broad St"
  },
  {
    "id": "c19087b5-c47d-4db7-ad1d-72a6b9d518d4",
    "name": "The Public Option",
    "brewery_type": "brewpub",
    "address_1": "1601 Rhode Island Ave NE",
    "address_2": null,
    "address_3": null,
    "city": "Washington",
    "state_province": "District of Columbia",
    "postal_code": "20018-1841",
    "country": "United States",
    "longitude": -76.9817377,
    "latitude": 38.926148,
    "phone": "2023975129",
    "website_url": "http://www.thepublicoptiondc.com",
    "state": "District of Columbia",
    "street": "1601 Rhode Island Ave NE"
  },
  {
    "id": "864ffc76-4334-4f8e-baa2-42c2d3a6605c",
    "name": "The Railyard Brewing Co",
    "brewery_type": "brewpub",
    "address_1": "12 W Jefferson St Ste 100",
    "address_2": null,
    "address_3": null,
    "city": "Montgomery",
    "state_province": "Alabama",
    "postal_code": "36104-2573",
    "country": "United States",
    "longitude": null,
    "latitude": null,
    "phone": "3342620080",
    "website_url": "http://www.railyardbrewingcompany.com",
    "state": "Alabama",
    "street": "12 W Jefferson St Ste 100"
  },
  {
    "id": "549487d1-b744-4505-b3bf-47be3df2b59e",
    "name": "The Rare Barrel",
    "brewery_type": "micro",
    "address_1": "940 Parker St",
    "address_2": null,
    "address_3": null,
    "city": "Berkeley",
    "state_province": "California",
    "postal_code": "94710",
    "country": "United States",
    "longitude": -122.2914445,
    "latitude": 37.8576209,
    "phone": "5109846585",
    "website_url": "http://www.therarebarrel.com",
    "state": "California",
    "street": "940 Parker St"
  },
  {
    "id": "fafb891c-aace-44e9-b4d1-b554f0e6d72a",
    "name": "The Ravenous Pig / Cask & Larder",
    "brewery_type": "brewpub",
    "address_1": "565 W Fairbanks Ave",
    "address_2": null,
    "address_3": null,
    "city": "Winter Park",
    "state_province": "Florida",
    "postal_code": "32789-5005",
    "country": "United States",
    "longitude": -81.3558211,
    "latitude": 28.5933111,
    "phone": "3212804200",
    "website_url": "http://www.caskandlarder.com",
    "state": "Florida",
    "street": "565 W Fairbanks Ave"
  },
  {
    "id": "e7757500-d0bf-4060-8da7-be9734e4397d",
    "name": "The Red Baron",
    "brewery_type": "brewpub",
    "address_1": "2495 S Center Rd",
    "address_2": null,
    "address_3": null,
    "city": "Burton",
    "state_province": "Michigan",
    "postal_code": "48519-1145",
    "country": "United States",
    "longitude": -83.63373728,
    "latitude": 42.9924788,
    "phone": "8107441310",
    "website_url": "http://www.baronburger.com",
    "state": "Michigan",
    "street": "2495 S Center Rd"
  },
  {
    "id": "724e6386-5227-4fce-908f-d8b863723c99",
    "name": "The Red Yeti",
    "brewery_type": "brewpub",
    "address_1": "256 Spring St",
    "address_2": null,
    "address_3": null,
    "city": "Jeffersonville",
    "state_province": "Indiana",
    "postal_code": "47130-3340",
    "country": "United States",
    "longitude": -85.7401585,
    "latitude": 38.2718249,
    "phone": "8122885788",
    "website_url": "http://www.redyetijeff.com",
    "state": "Indiana",
    "street": "256 Spring St"
  },
  {
    "id": "b6948362-c439-4421-b6ec-ce0d56148f7e",
    "name": "The Redding Beer Company",
    "brewery_type": "micro",
    "address_1": "7 Main St",
    "address_2": null,
    "address_3": null,
    "city": "Redding",
    "state_province": "Connecticut",
    "postal_code": "06896-3203",
    "country": "United States",
    "longitude": null,
    "latitude": null,
    "phone": "2035879000",
    "website_url": "http://www.reddingbeer.com",
    "state": "Connecticut",
    "street": "7 Main St"
  },
  {
    "id": "9364246f-38bc-4ab9-bf81-d4b4b2ca4527",
    "name": "The Referend Bier Blendery",
    "brewery_type": "micro",
    "address_1": "1595 Reed Rd Unit 2",
    "address_2": null,
    "address_3": null,
    "city": "Pennington",
    "state_province": "New Jersey",
    "postal_code": "08534-5007",
    "country": "United States",
    "longitude": null,
    "latitude": null,
    "phone": "6094740443",
    "website_url": "http://www.thereferend.com",
    "state": "New Jersey",
    "street": "1595 Reed Rd Unit 2"
  },
  {
    "id": "a3d83ebc-e6b7-4fa0-b867-2c044200e21c",
    "name": "The Root Cellar",
    "brewery_type": "brewpub",
    "address_1": "215 N Lbj Dr",
    "address_2": null,
    "address_3": null,
    "city": "San Marcos",
    "state_province": "Texas",
    "postal_code": "78666-5621",
    "country": "United States",
    "longitude": null,
    "latitude": null,
    "phone": "5123925158",
    "website_url": "http://www.rootcellarcafe.com",
    "state": "Texas",
    "street": "215 N Lbj Dr"
  },
  {
    "id": "f53459e0-fe45-468b-aa09-f16deebab0ae",
    "name": "The Runway By Patrick",
    "brewery_type": "brewpub",
    "address_1": "2044 Airport Rd",
    "address_2": null,
    "address_3": null,
    "city": "Napa",
    "state_province": "California",
    "postal_code": "94558-6208",
    "country": "United States",
    "longitude": -122.2730244,
    "latitude": 38.2171014,
    "phone": "7072586115",
    "website_url": "http://www.therunwaybypatrick.com",
    "state": "California",
    "street": "2044 Airport Rd"
  },
  {
    "id": "e31f2a40-51ea-433b-ab68-a327ddd1d59b",
    "name": "The Runway Caf\u00e9 and Bar",
    "brewery_type": "bar",
    "address_1": "20 Eastwood Road",
    "address_2": "Eastwood Centre",
    "address_3": "#01-14B",
    "city": "Singapore",
    "state_province": "Singapore",
    "postal_code": "486442",
    "country": "Singapore",
    "longitude": 1.3217099857977,
    "latitude": 103.95543724233,
    "phone": "+65 9859 5348",
    "website_url": null,
    "state": "Singapore",
    "street": "20 Eastwood Road"
  },
  {
    "id": "dacd265f-723f-4318-bbed-e747655487bb",
    "name": "The Sandlot Brewery At Coors Field",
    "brewery_type": "large",
    "address_1": "2145 Blake St",
    "address_2": null,
    "address_3": null,
    "city": "Denver",
    "state_province": "Colorado",
    "postal_code": "80205-2010",
    "country": "United States",
    "longitude": -104.9926484,
    "latitude": 39.75571836,
    "phone": "3032981587",
    "website_url": "http://www.millercoors.com",
    "state": "Colorado",
    "street": "2145 Blake St"
  },
  {
    "id": "d9c28f8d-fe6b-4964-9e4e-df297410772c",
    "name": "The Sanford Beverage Company, Inc. D.B.A. Steele Street Brewing",
    "brewery_type": "brewpub",
    "address_1": "300 S Steele St",
    "address_2": null,
    "address_3": null,
    "city": "Ionia",
    "state_province": "Michigan",
    "postal_code": "48846-2008",
    "country": "United States",
    "longitude": -85.06766243,
    "latitude": 42.98135831,
    "phone": "6165234003",
    "website_url": "http://www.steelestreetbrewing.com",
    "state": "Michigan",
    "street": "300 S Steele St"
  },
  {
    "id": "e46f6a31-62ee-4635-ad2d-d03ed6f0d69c",
    "name": "The Seventh Tap Brewing Project",
    "brewery_type": "micro",
    "address_1": "2640 Linwood Ave",
    "address_2": null,
    "address_3": null,
    "city": "Shreveport",
    "state_province": "Louisiana",
    "postal_code": "71103",
    "country": "United States",
    "longitude": -93.762508,
    "latitude": 32.486727,
    "phone": "3187544471",
    "website_url": "http://www.theseventhtap.com",
    "state": "Louisiana",
    "street": "2640 Linwood Ave"
  },
  {
    "id": "8408c237-93da-4528-9127-4429128898fe",
    "name": "The Shop Beer Co.",
    "brewery_type": "micro",
    "address_1": "922 W 1st St",
    "address_2": null,
    "address_3": null,
    "city": "Tempe",
    "state_province": "Arizona",
    "postal_code": "85281-2674",
    "country": "United States",
    "longitude": -111.9514292,
    "latitude": 33.42917384,
    "phone": "6027174237",
    "website_url": "http://www.theshop.beer",
    "state": "Arizona",
    "street": "922 W 1st St"
  },
  {
    "id": "6c14ba9d-86b9-4d26-befc-f49838604d3b",
    "name": "The SoCo Taphouse",
    "brewery_type": "brewpub",
    "address_1": "113 E Concho Ave Ste 210",
    "address_2": null,
    "address_3": null,
    "city": "San Angelo",
    "state_province": "Texas",
    "postal_code": "76903-5948",
    "country": "United States",
    "longitude": null,
    "latitude": null,
    "phone": "3257036218",
    "website_url": "http://www.socotaphouse.com",
    "state": "Texas",
    "street": "113 E Concho Ave Ste 210"
  },
  {
    "id": "29d07a78-b6dd-457d-9d29-887fc809ddeb",
    "name": "The Southern Growl",
    "brewery_type": "planning",
    "address_1": null,
    "address_2": null,
    "address_3": null,
    "city": "Greer",
    "state_province": "South Carolina",
    "postal_code": "29650-1285",
    "country": "United States",
    "longitude": null,
    "latitude": null,
    "phone": null,
    "website_url": "http://www.thesoutherngrowl.com",
    "state": "South Carolina",
    "street": null
  },
  {
    "id": "e7113db6-8cc9-40b3-a17e-fceb42d28fa8",
    "name": "The Split Batch Brewery",
    "brewery_type": "planning",
    "address_1": null,
    "address_2": null,
    "address_3": null,
    "city": "Buford",
    "state_province": "Georgia",
    "postal_code": "30519-2236",
    "country": "United States",
    "longitude": null,
    "latitude": null,
    "phone": "4049834303",
    "website_url": "http://www.splitbatchbrewery.com",
    "state": "Georgia",
    "street": null
  },
  {
    "id": "c79755ff-d7f9-4879-8ff9-6493a771745c",
    "name": "The St. George Brewing Company",
    "brewery_type": "micro",
    "address_1": "204 Challenger Way",
    "address_2": null,
    "address_3": null,
    "city": "Hampton",
    "state_province": "Virginia",
    "postal_code": "23666-1365",
    "country": "United States",
    "longitude": -76.39442194,
    "latitude": 37.09992525,
    "phone": "7578657781",
    "website_url": "http://www.stgbeer.com",
    "state": "Virginia",
    "street": "204 Challenger Way"
  },
  {
    "id": "793d1d94-9504-437a-9603-a5c0ad987c95",
    "name": "The Stalking Horse",
    "brewery_type": "brewpub",
    "address_1": "10543 West Pico Blvd",
    "address_2": null,
    "address_3": null,
    "city": "Los Angeles",
    "state_province": "California",
    "postal_code": "90064",
    "country": "United States",
    "longitude": -118.3273271,
    "latitude": 34.0478786,
    "phone": "4248327511",
    "website_url": "http://www.thestalkinghorsepub.com",
    "state": "California",
    "street": "10543 West Pico Blvd"
  },
  {
    "id": "fd8670d9-f555-416a-b509-710d83602e87",
    "name": "The Star Spangled Brewing Co.",
    "brewery_type": "micro",
    "address_1": "1030 Progress Dr Ste E",
    "address_2": null,
    "address_3": null,
    "city": "Clarksville",
    "state_province": "Tennessee",
    "postal_code": "37040-5329",
    "country": "United States",
    "longitude": null,
    "latitude": null,
    "phone": "6153981237",
    "website_url": null,
    "state": "Tennessee",
    "street": "1030 Progress Dr Ste E"
  },
  {
    "id": "bfa759d5-5b8b-43c5-93ef-0a3a4f785417",
    "name": "The Station U Brew",
    "brewery_type": "micro",
    "address_1": "211 W Stewart",
    "address_2": null,
    "address_3": null,
    "city": "Puyallup",
    "state_province": "Washington",
    "postal_code": "98371-4393",
    "country": "United States",
    "longitude": -122.2913497,
    "latitude": 47.19252511,
    "phone": "2534663721",
    "website_url": null,
    "state": "Washington",
    "street": "211 W Stewart"
  },
  {
    "id": "2f09262d-c9a9-495a-94ca-e9bbd14d564d",
    "name": "The Sycamore Brewing Cannery",
    "brewery_type": "micro",
    "address_1": "401 W 24th St",
    "address_2": null,
    "address_3": null,
    "city": "Charlotte",
    "state_province": "North Carolina",
    "postal_code": "28206-2664",
    "country": "United States",
    "longitude": -80.825601,
    "latitude": 35.246262,
    "phone": "7049103821",
    "website_url": null,
    "state": "North Carolina",
    "street": "401 W 24th St"
  },
  {
    "id": "2e8426ce-ade4-43f3-8966-ee839e1152ee",
    "name": "The Tank Brewing Company",
    "brewery_type": "micro",
    "address_1": "5100 NW 72nd Ave. Bay A-1",
    "address_2": null,
    "address_3": null,
    "city": "Miami",
    "state_province": "Florida",
    "postal_code": "33166",
    "country": "United States",
    "longitude": null,
    "latitude": null,
    "phone": "7868011554",
    "website_url": "http://www.thetankbrewing.com",
    "state": "Florida",
    "street": "5100 NW 72nd Ave. Bay A-1"
  },
  {
    "id": "31a04853-9975-43ef-94c0-311c40b29959",
    "name": "The Tap Brewery",
    "brewery_type": "brewpub",
    "address_1": "204 W Kirkwood Ave",
    "address_2": null,
    "address_3": null,
    "city": "Bloomington",
    "state_province": "Indiana",
    "postal_code": "47404-5144",
    "country": "United States",
    "longitude": -86.5350444,
    "latitude": 39.16650797,
    "phone": "8122878579",
    "website_url": "http://www.thetapbeerbar.com",
    "state": "Indiana",
    "street": "204 W Kirkwood Ave"
  },
  {
    "id": "f726f11e-905b-4378-aefe-ab63a493900c",
    "name": "The Tap Brewing Company",
    "brewery_type": "brewpub",
    "address_1": "100 Washington St",
    "address_2": null,
    "address_3": null,
    "city": "Haverhill",
    "state_province": "Massachusetts",
    "postal_code": "01832-5500",
    "country": "United States",
    "longitude": -71.084935,
    "latitude": 42.7728879,
    "phone": "6178358315",
    "website_url": "http://www.tapbrewingcompany.com",
    "state": "Massachusetts",
    "street": "100 Washington St"
  },
  {
    "id": "cf1497a1-7064-4107-a8f9-8e8b40a01029",
    "name": "The Three Legs Brewing Co",
    "brewery_type": "taproom",
    "address_1": "Udimore Road",
    "address_2": null,
    "address_3": null,
    "city": "Rye",
    "state_province": "East Sussex",
    "postal_code": "TN31 6BX",
    "country": "England",
    "longitude": 0.611331,
    "latitude": 50.945341,
    "phone": "7939997622",
    "website_url": "http://www.thethreelegs.co.uk/",
    "state": "East Sussex",
    "street": "Udimore Road"
  },
  {
    "id": "cd77bbc5-a335-4602-814a-a7f74f4e72e3",
    "name": "The Top-Notch Brewing Company Ltd",
    "brewery_type": "micro",
    "address_1": "Wickham Way",
    "address_2": null,
    "address_3": null,
    "city": "Haywards Heath",
    "state_province": "West Sussex",
    "postal_code": "RH16 1UQ",
    "country": "England",
    "longitude": -0.10313,
    "latitude": 51.011152,
    "phone": "7963829368",
    "website_url": null,
    "state": "West Sussex",
    "street": "Wickham Way"
  },
  {
    "id": "30eb076f-c19a-4118-853e-af259d6fdd99",
    "name": "The Traveler's Rest Brewpub",
    "brewery_type": "brewpub",
    "address_1": "22 Hemp Hill Rd",
    "address_2": null,
    "address_3": null,
    "city": "Bristol",
    "state_province": "New Hampshire",
    "postal_code": "03222",
    "country": "United States",
    "longitude": null,
    "latitude": null,
    "phone": "6034554477",
    "website_url": null,
    "state": "New Hampshire",
    "street": "22 Hemp Hill Rd"
  }
]