[
  {
    "id": "b03278e4-ab18-489a-abdb-2dd1e3a8e487",
    "name": "North Idaho Mountain Brew / City Limits Pub",
    "brewery_type": "brewpub",
    "address_1": "108 Nine Mile Rd",
    "address_2": null,
    "address_3": null,
    "city": "Wallace",
    "state_province": "Idaho",
    "postal_code": "83873-5021",
    "country": "United States",
    "longitude": -115.922925,
    "latitude": 47.475441,
    "phone": "2085561885",
    "website_url": "https://northidahomountainbrew.com",
    "state": "Idaho",
    "street": "108 Nine Mile Rd"
  },
  {
    "id": "563b7a6a-3c59-4e52-9fa2-c7af3e1bfd18",
    "name": "North Jetty Brewing",
    "brewery_type": "micro",
    "address_1": "4200 Pacific Way",
    "address_2": null,
    "address_3": null,
    "city": "Seaview",
    "state_province": "Washington",
    "postal_code": "98644-4212",
    "country": "United States",
    "longitude": -124.0545827,
    "latitude": 46.333147,
    "phone": "3606424234",
    "website_url": "http://www.northjettybrewing.com",
    "state": "Washington",
    "street": "4200 Pacific Way"
  },
  {
    "id": "793264a4-d4b5-4aa2-8858-b7806e2fe00c",
    "name": "North Laine Brewhouse",
    "brewery_type": "brewpub",
    "address_1": "Gloucester Place",
    "address_2": null,
    "address_3": null,
    "city": "Brighton",
    "state_province": "East Sussex",
    "postal_code": "BN1 4AA",
    "country": "England",
    "longitude": -0.13588,
    "latitude": 50.826276,
    "phone": "1273683666",
    "website_url": "https://www.northlaine.pub/",
    "state": "East Sussex",
    "street": "Gloucester Place"
  },
  {
    "id": "c9891cfa-d6dd-4499-bad9-0fa9bfb39342",
    "name": "North Mountain Brewing Co",
    "brewery_type": "brewpub",
    "address_1": "522 E Dunlap Ave",
    "address_2": null,
    "address_3": null,
    "city": "Phoenix",
    "state_province": "Arizona",
    "postal_code": "85020-2916",
    "country": "United States",
    "longitude": -112.0660919,
    "latitude": 33.56787865,
    "phone": "6028615999",
    "website_url": "http://www.northmountainbrewing.com",
    "state": "Arizona",
    "street": "522 E Dunlap Ave"
  },
  {
    "id": "2a85f041-c3d9-4062-831a-9bf2eb9a9127",
    "name": "North Park Beer Co.",
    "brewery_type": "micro",
    "address_1": "3038 University Ave",
    "address_2": null,
    "address_3": null,
    "city": "San Diego",
    "state_province": "California",
    "postal_code": "92104-3002",
    "country": "United States",
    "longitude": -117.129137,
    "latitude": 32.748724,
    "phone": "6192552946",
    "website_url": "http://www.northparkbeerco.com",
    "state": "California",
    "street": "3038 University Ave"
  },
  {
    "id": "7bfc1562-4643-4470-9f03-caaabfb82e21",
    "name": "North Peak Brewing Co",
    "brewery_type": "brewpub",
    "address_1": "400 W Front St",
    "address_2": null,
    "address_3": null,
    "city": "Traverse City",
    "state_province": "Michigan",
    "postal_code": "49684-2800",
    "country": "United States",
    "longitude": -85.6285431,
    "latitude": 44.7643155,
    "phone": "2319417325",
    "website_url": "http://www.northpeak.net",
    "state": "Michigan",
    "street": "400 W Front St"
  },
  {
    "id": "8e765472-33c8-4e1d-8923-20973d75e6f4",
    "name": "North Pier Brewing",
    "brewery_type": "micro",
    "address_1": "670 N Shore Dr",
    "address_2": null,
    "address_3": null,
    "city": "Benton Harbor",
    "state_province": "Michigan",
    "postal_code": "49022-3646",
    "country": "United States",
    "longitude": -86.45499315,
    "latitude": 42.12454349,
    "phone": "2697577163",
    "website_url": "http://www.northpierbrewing.com",
    "state": "Michigan",
    "street": "670 N Shore Dr"
  },
  {
    "id": "d704deed-0ee2-43be-a3df-68c9c104e83c",
    "name": "North River Hops And Brewing",
    "brewery_type": "micro",
    "address_1": "1571 Route 9",
    "address_2": null,
    "address_3": null,
    "city": "Wappingers Falls",
    "state_province": "New York",
    "postal_code": "12590-2827",
    "country": "United States",
    "longitude": null,
    "latitude": null,
    "phone": "8452972190",
    "website_url": "http://www.northriverbrews.com",
    "state": "New York",
    "street": "1571 Route 9"
  },
  {
    "id": "391dc957-781e-4669-9ff0-c76744652ef1",
    "name": "North Sound Brewing Co.",
    "brewery_type": "micro",
    "address_1": "17406 State Route 536 Unit A",
    "address_2": null,
    "address_3": null,
    "city": "Mount Vernon",
    "state_province": "Washington",
    "postal_code": "98273-8755",
    "country": "United States",
    "longitude": -122.3701317,
    "latitude": 48.43222464,
    "phone": "3609822057",
    "website_url": "http://northsoundbrewing.com",
    "state": "Washington",
    "street": "17406 State Route 536 Unit A"
  },
  {
    "id": "6fcab9b2-c9bf-40eb-a82e-53bc6a69e5e5",
    "name": "Northampton Brewery",
    "brewery_type": "brewpub",
    "address_1": "11 Brewster Ct",
    "address_2": null,
    "address_3": null,
    "city": "Northampton",
    "state_province": "Massachusetts",
    "postal_code": "01060-3801",
    "country": "United States",
    "longitude": -72.6303406,
    "latitude": 42.317397,
    "phone": "4135849903",
    "website_url": "http://www.northamptonbrewery.com",
    "state": "Massachusetts",
    "street": "11 Brewster Ct"
  },
  {
    "id": "83c8e63b-c302-46e3-bb2b-7f3ac12ba99b",
    "name": "Northbound Smokehouse Brewpub",
    "brewery_type": "brewpub",
    "address_1": "2716 E 38th St",
    "address_2": null,
    "address_3": null,
    "city": "Minneapolis",
    "state_province": "Minnesota",
    "postal_code": "55406-3004",
    "country": "United States",
    "longitude": -93.2323804,
    "latitude": 44.9342257,
    "phone": "6122081450",
    "website_url": "http://www.smokehousebrewpub.com",
    "state": "Minnesota",
    "street": "2716 E 38th St"
  },
  {
    "id": "0e834e30-1b30-4a68-81d2-10665c6af1df",
    "name": "Northern Ales",
    "brewery_type": "brewpub",
    "address_1": "325 W 3rd Ave",
    "address_2": null,
    "address_3": null,
    "city": "Kettle Falls",
    "state_province": "Washington",
    "postal_code": "99141-0993",
    "country": "United States",
    "longitude": -118.0651843,
    "latitude": 48.60979793,
    "phone": "5097387382",
    "website_url": "http://northernales.com",
    "state": "Washington",
    "street": "325 W 3rd Ave"
  },
  {
    "id": "6873097b-bd2b-464f-84c1-3f88e07c63d1",
    "name": "Northern Harvest Brewing Company",
    "brewery_type": "planning",
    "address_1": null,
    "address_2": null,
    "address_3": null,
    "city": "Moriah",
    "state_province": "New York",
    "postal_code": "12960-2306",
    "country": "United States",
    "longitude": null,
    "latitude": null,
    "phone": "5184682337",
    "website_url": "http://www.northernharvest.beer",
    "state": "New York",
    "street": null
  },
  {
    "id": "16b64ce9-966d-4ef8-be16-2fd585f45b9b",
    "name": "Northern Maine Brewing Co",
    "brewery_type": "brewpub",
    "address_1": "22 Main St",
    "address_2": null,
    "address_3": null,
    "city": "Caribou",
    "state_province": "Maine",
    "postal_code": "04736-4163",
    "country": "United States",
    "longitude": -67.99670995,
    "latitude": 46.81407692,
    "phone": "2074922185",
    "website_url": null,
    "state": "Maine",
    "street": "22 Main St"
  },
  {
    "id": "a4e574c0-4323-43ac-bb45-475c32413d06",
    "name": "Northern Oak Brewery",
    "brewery_type": "brewpub",
    "address_1": "806 N Saginaw St",
    "address_2": null,
    "address_3": null,
    "city": "Holly",
    "state_province": "Michigan",
    "postal_code": "48442-1347",
    "country": "United States",
    "longitude": -83.62737964,
    "latitude": 42.80026273,
    "phone": "2486347515",
    "website_url": "http://www.northernoakbrewery.com",
    "state": "Michigan",
    "street": "806 N Saginaw St"
  },
  {
    "id": "b66534e0-f458-43b0-b9b4-e72487d9414e",
    "name": "Northern Outer Banks Brewing Company",
    "brewery_type": "micro",
    "address_1": "520 Old Stoney Rd",
    "address_2": null,
    "address_3": null,
    "city": "Corolla",
    "state_province": "North Carolina",
    "postal_code": "27927",
    "country": "United States",
    "longitude": null,
    "latitude": null,
    "phone": "2522071890",
    "website_url": "http://www.northernobxbrewing.com",
    "state": "North Carolina",
    "street": "520 Old Stoney Rd"
  },
  {
    "id": "a5ccfdc3-051a-444c-b51b-0091d9a799e0",
    "name": "Northern Pine Brewing",
    "brewery_type": "micro",
    "address_1": "326 N Horne St",
    "address_2": null,
    "address_3": null,
    "city": "Oceanside",
    "state_province": "California",
    "postal_code": "92054-2810",
    "country": "United States",
    "longitude": -117.376798,
    "latitude": 33.199836,
    "phone": "7607541434",
    "website_url": "http://www.northernpinebrewing.com",
    "state": "California",
    "street": "326 N Horne St"
  },
  {
    "id": "cb19bf9b-71b5-444c-a8a5-00a4fadf1d7b",
    "name": "Northern Row Brewery & Distillery",
    "brewery_type": "micro",
    "address_1": "111 W McMicken Ave",
    "address_2": null,
    "address_3": null,
    "city": "Cincinnati",
    "state_province": "Ohio",
    "postal_code": "45202-4915",
    "country": "United States",
    "longitude": -84.51924466,
    "latitude": 39.11836855,
    "phone": "5136736689",
    "website_url": "http://www.northernrow.com",
    "state": "Ohio",
    "street": "111 W McMicken Ave"
  },
  {
    "id": "f82ff275-dad6-45be-ada4-0f572743461b",
    "name": "Northish Beer Company",
    "brewery_type": "micro",
    "address_1": null,
    "address_2": null,
    "address_3": null,
    "city": "Tacoma",
    "state_province": "Washington",
    "postal_code": "98444",
    "country": "United States",
    "longitude": null,
    "latitude": null,
    "phone": "2537786106",
    "website_url": null,
    "state": "Washington",
    "street": null
  },
  {
    "id": "479157a8-7e68-4983-91a5-9b6b2a5ee470",
    "name": "Northshire Brewery, Inc",
    "brewery_type": "micro",
    "address_1": "108 County St",
    "address_2": null,
    "address_3": null,
    "city": "Bennington",
    "state_province": "Vermont",
    "postal_code": "05201-1807",
    "country": "United States",
    "longitude": -73.20053877,
    "latitude": 42.88457164,
    "phone": "8026810201",
    "website_url": "http://www.northshirebrewery.com",
    "state": "Vermont",
    "street": "108 County St"
  },
  {
    "id": "e19854be-9a28-4587-b055-90e13fcbd7fb",
    "name": "Northville Winery and Brewery",
    "brewery_type": "micro",
    "address_1": "630 Old Baseline Rd",
    "address_2": null,
    "address_3": null,
    "city": "Northville",
    "state_province": "Michigan",
    "postal_code": "48167",
    "country": "United States",
    "longitude": null,
    "latitude": null,
    "phone": "2483206507",
    "website_url": null,
    "state": "Michigan",
    "street": "630 Old Baseline Rd"
  },
  {
    "id": "2be1334f-d077-4164-807b-33d967296185",
    "name": "Northwest Brewing Company",
    "brewery_type": "closed",
    "address_1": "1091 Valentine Ave SE",
    "address_2": null,
    "address_3": null,
    "city": "Pacific",
    "state_province": "Washington",
    "postal_code": "98047-2127",
    "country": "United States",
    "longitude": -122.2488484,
    "latitude": 47.2501336,
    "phone": "2539875680",
    "website_url": "http://www.nwbrewingcompany.com",
    "state": "Washington",
    "street": "1091 Valentine Ave SE"
  },
  {
    "id": "7da574f0-1e97-4f39-81a4-7737b440d445",
    "name": "Northwest Passage Craft Brewery",
    "brewery_type": "micro",
    "address_1": null,
    "address_2": null,
    "address_3": null,
    "city": "Vancouver",
    "state_province": "Washington",
    "postal_code": "98661",
    "country": "United States",
    "longitude": null,
    "latitude": null,
    "phone": "3605212417",
    "website_url": null,
    "state": "Washington",
    "street": null
  },
  {
    "id": "d93d3629-6694-437e-89bd-dcc748c72316",
    "name": "Northwest Peaks Brewery",
    "brewery_type": "micro",
    "address_1": "5718 Rainier Ave S",
    "address_2": null,
    "address_3": null,
    "city": "Seattle",
    "state_province": "Washington",
    "postal_code": "98118-2704",
    "country": "United States",
    "longitude": -122.2774364,
    "latitude": 47.55099169,
    "phone": "2067252337",
    "website_url": "http://www.nwpeaksbrewery.com",
    "state": "Washington",
    "street": "5718 Rainier Ave S"
  },
  {
    "id": "fdad47c3-6aa5-48d5-902f-25cfadcb46ed",
    "name": "Northwood Public House & Brewery",
    "brewery_type": "brewpub",
    "address_1": "1401 SE Rasmussen Blvd",
    "address_2": null,
    "address_3": null,
    "city": "Battle Ground",
    "state_province": "Washington",
    "postal_code": "98604-8620",
    "country": "United States",
    "longitude": -122.5232786,
    "latitude": 45.77521745,
    "phone": "3607230937",
    "website_url": "http://www.northwoodpublichouse.com",
    "state": "Washington",
    "street": "1401 SE Rasmussen Blvd"
  },
  {
    "id": "762d6bfd-e2ba-469e-b3f5-05817d0a2d96",
    "name": "Northwoods Brewing Co",
    "brewery_type": "planning",
    "address_1": null,
    "address_2": null,
    "address_3": null,
    "city": "Northwood",
    "state_province": "New Hampshire",
    "postal_code": "03261",
    "country": "United States",
    "longitude": null,
    "latitude": null,
    "phone": "2073516983",
    "website_url": null,
    "state": "New Hampshire",
    "street": null
  },
  {
    "id": "10e225f0-d48e-40c8-8d58-1393404ff7a2",
    "name": "Northwoods Brewpub and Grill",
    "brewery_type": "brewpub",
    "address_1": "50918 West Street",
    "address_2": null,
    "address_3": null,
    "city": "Osseo",
    "state_province": "Wisconsin",
    "postal_code": "54758",
    "country": "United States",
    "longitude": -91.22665123,
    "latitude": 44.58270666,
    "phone": "7155520510",
    "website_url": "http://www.northwoodsbrewpub.com",
    "state": "Wisconsin",
    "street": "50918 West Street"
  },
  {
    "id": "2486587b-e54e-48e4-842e-f35d9111767c",
    "name": "Nortons Brewing Co.",
    "brewery_type": "brewpub",
    "address_1": "125 N Saint Francis St",
    "address_2": null,
    "address_3": null,
    "city": "Wichita",
    "state_province": "Kansas",
    "postal_code": "67202-2607",
    "country": "United States",
    "longitude": -97.331744,
    "latitude": 37.68657784,
    "phone": "3166446067",
    "website_url": "http://www.nortonsbrewing.com",
    "state": "Kansas",
    "street": "125 N Saint Francis St"
  },
  {
    "id": "439343a8-59c1-4823-9bf6-ea0c831d9db5",
    "name": "Norway Brewing Company",
    "brewery_type": "brewpub",
    "address_1": "237 Main St",
    "address_2": null,
    "address_3": null,
    "city": "Norway",
    "state_province": "Maine",
    "postal_code": "04268-5913",
    "country": "United States",
    "longitude": -70.5268344,
    "latitude": 44.1973621,
    "phone": "2077392126",
    "website_url": "http://www.norwaybrewing.com",
    "state": "Maine",
    "street": "237 Main St"
  },
  {
    "id": "dab6bfc2-f4ba-4545-b06d-06d9d429f4d6",
    "name": "Nosdunk Brewing Company",
    "brewery_type": "closed",
    "address_1": null,
    "address_2": null,
    "address_3": null,
    "city": "Walla Walla",
    "state_province": "Washington",
    "postal_code": "99362-9311",
    "country": "United States",
    "longitude": null,
    "latitude": null,
    "phone": "5095408784",
    "website_url": "http://www.nosdunkbrewing.com",
    "state": "Washington",
    "street": null
  },
  {
    "id": "b4be3337-2dfa-44af-affb-9f65903a61c8",
    "name": "Nostrum Brewing",
    "brewery_type": "planning",
    "address_1": null,
    "address_2": null,
    "address_3": null,
    "city": "Alexandria",
    "state_province": "Virginia",
    "postal_code": "22303-2214",
    "country": "United States",
    "longitude": null,
    "latitude": null,
    "phone": null,
    "website_url": null,
    "state": "Virginia",
    "street": null
  },
  {
    "id": "cfaff05e-fab7-4530-b84e-bf10f5d439b7",
    "name": "Notch Brewing",
    "brewery_type": "micro",
    "address_1": "283R Derby St",
    "address_2": null,
    "address_3": null,
    "city": "Salem",
    "state_province": "Massachusetts",
    "postal_code": "01970-",
    "country": "United States",
    "longitude": -70.8898969,
    "latitude": 42.52062541,
    "phone": "9782389060",
    "website_url": "http://www.notchbrewing.com",
    "state": "Massachusetts",
    "street": "283R Derby St"
  },
  {
    "id": "d32244a7-1996-4dd3-b2b4-490dde9a5c39",
    "name": "Nothing's Left Brewing Co.",
    "brewery_type": "contract",
    "address_1": "1502 E 6th St",
    "address_2": null,
    "address_3": null,
    "city": "Tulsa",
    "state_province": "Oklahoma",
    "postal_code": "74120-4026",
    "country": "United States",
    "longitude": -95.99253596,
    "latitude": 36.14047292,
    "phone": "9186061902",
    "website_url": "http://www.nothingsleftbrew.co",
    "state": "Oklahoma",
    "street": "1502 E 6th St"
  },
  {
    "id": "db05a3a2-1c2e-4c9f-a5f2-c364db13586e",
    "name": "Nova Brewing Co",
    "brewery_type": "micro",
    "address_1": "1580 W San Bernardino Rd Ste H",
    "address_2": null,
    "address_3": null,
    "city": "Covina",
    "state_province": "California",
    "postal_code": "91722-3457",
    "country": "United States",
    "longitude": -117.9230666,
    "latitude": 34.08867414,
    "phone": "6263889949",
    "website_url": "http://www.novabrewingco.com",
    "state": "California",
    "street": "1580 W San Bernardino Rd Ste H"
  },
  {
    "id": "8343a7db-e614-456d-8e96-6ea87da3c942",
    "name": "Novel Brewing Company",
    "brewery_type": "micro",
    "address_1": "6510 San Pablo Ave",
    "address_2": null,
    "address_3": null,
    "city": "Oakland",
    "state_province": "California",
    "postal_code": "94608-1236",
    "country": "United States",
    "longitude": -122.282003,
    "latitude": 37.837819,
    "phone": "5109229974",
    "website_url": "http://novelbrewing.com",
    "state": "California",
    "street": "6510 San Pablo Ave"
  },
  {
    "id": "7a2b157a-7973-4e45-aacf-c3401a4cf6ac",
    "name": "Novel Strand Brewing",
    "brewery_type": "micro",
    "address_1": "305 W 1st Ave",
    "address_2": null,
    "address_3": null,
    "city": "Denver",
    "state_province": "Colorado",
    "postal_code": "80223-1509",
    "country": "United States",
    "longitude": -104.9923182,
    "latitude": 39.718471,
    "phone": "5189613217",
    "website_url": null,
    "state": "Colorado",
    "street": "305 W 1st Ave"
  },
  {
    "id": "6024f8b3-c827-42a8-9ad9-d58b79e1916c",
    "name": "Novo Brazil Brewing Company",
    "brewery_type": "micro",
    "address_1": "901 Lane Ave # 100",
    "address_2": null,
    "address_3": null,
    "city": "Chula Vista",
    "state_province": "California",
    "postal_code": "91914-3501",
    "country": "United States",
    "longitude": -116.9613594,
    "latitude": 32.6518762,
    "phone": "6198694274",
    "website_url": "http://www.novobrazilbrewing.com",
    "state": "California",
    "street": "901 Lane Ave # 100"
  },
  {
    "id": "44e8dfa5-7682-466d-9fcb-7ab1c42ca7bf",
    "name": "Nowhere In Particular Brewing Company",
    "brewery_type": "proprietor",
    "address_1": "6826 Loop Rd",
    "address_2": null,
    "address_3": null,
    "city": "Dayton",
    "state_province": "Ohio",
    "postal_code": "45459-2159",
    "country": "United States",
    "longitude": null,
    "latitude": null,
    "phone": "5133487282",
    "website_url": "http://www.nipbrewco.com",
    "state": "Ohio",
    "street": "6826 Loop Rd"
  },
  {
    "id": "ff1c4781-8052-4cb7-bbc5-510de9df420a",
    "name": "Numbers Brewing Company",
    "brewery_type": "brewpub",
    "address_1": "127 N Beaver St",
    "address_2": null,
    "address_3": null,
    "city": "Lisbon",
    "state_province": "Ohio",
    "postal_code": "44432-1121",
    "country": "United States",
    "longitude": -80.76970138,
    "latitude": 40.77253357,
    "phone": "3308705305",
    "website_url": null,
    "state": "Ohio",
    "street": "127 N Beaver St"
  },
  {
    "id": "d519f6e4-88be-44b6-948e-ddbd4bf0966b",
    "name": "Nun Chuck's Brewing Co",
    "brewery_type": "micro",
    "address_1": "18609 76th Avenue West Suite #C",
    "address_2": null,
    "address_3": null,
    "city": "Lynnwood",
    "state_province": "Washington",
    "postal_code": "98037",
    "country": "United States",
    "longitude": -122.3373596,
    "latitude": 47.82993093,
    "phone": "2066361105",
    "website_url": "https://nunchucksbrewing.com",
    "state": "Washington",
    "street": "18609 76th Avenue West Suite #C"
  },
  {
    "id": "f9c62e1c-dd1a-4e87-b3b7-c70f941976b9",
    "name": "Nutmeg Brewhouse",
    "brewery_type": "brewpub",
    "address_1": "1905 County Road 42 W",
    "address_2": null,
    "address_3": null,
    "city": "Burnsville",
    "state_province": "Minnesota",
    "postal_code": "55306-6211",
    "country": "United States",
    "longitude": -93.30547377,
    "latitude": 44.74636346,
    "phone": "9528921438",
    "website_url": "http://www.nutmegbrewhouse.com",
    "state": "Minnesota",
    "street": "1905 County Road 42 W"
  },
  {
    "id": "370c64be-4eac-4b7b-b0d0-a40c69290320",
    "name": "Nuts and Bolts Brewing",
    "brewery_type": "micro",
    "address_1": "10 Westpoint Ln Bldg 10 Ste 204",
    "address_2": null,
    "address_3": null,
    "city": "Biddeford",
    "state_province": "Maine",
    "postal_code": "04005",
    "country": "United States",
    "longitude": null,
    "latitude": null,
    "phone": "2074681538",
    "website_url": "http://www.nutsnboltsbeer.com",
    "state": "Maine",
    "street": "10 Westpoint Ln Bldg 10 Ste 204"
  },
  {
    "id": "7585139f-7a98-4552-862c-388de1fe1d59",
    "name": "O Brother Brewing",
    "brewery_type": "micro",
    "address_1": "G3",
    "address_2": "Network Enterprise Park",
    "address_3": null,
    "city": "Kilcool",
    "state_province": "Wicklow",
    "postal_code": "A63 DX47",
    "country": "Ireland",
    "longitude": -6.0642913,
    "latitude": 53.0986762,
    "phone": "353872028465",
    "website_url": "https://www.obrotherbrewing.com/",
    "state": "Wicklow",
    "street": "G3"
  },
  {
    "id": "5a27af9d-5a16-408e-b9c3-525ff59636c3",
    "name": "O.H.S.O. Brewery",
    "brewery_type": "brewpub",
    "address_1": "10810 N Tatum Blvd Ste 126",
    "address_2": null,
    "address_3": null,
    "city": "Phoenix",
    "state_province": "Arizona",
    "postal_code": "85028-6057",
    "country": "United States",
    "longitude": null,
    "latitude": null,
    "phone": "6029009003",
    "website_url": "http://www.ohsobrewery.com",
    "state": "Arizona",
    "street": "10810 N Tatum Blvd Ste 126"
  },
  {
    "id": "9848a316-3ec6-415c-bca6-a6a8514decf6",
    "name": "O.H.S.O. Brewery - Gilbert",
    "brewery_type": "brewpub",
    "address_1": "335 N Gilbert Rd",
    "address_2": null,
    "address_3": null,
    "city": "Gilbert",
    "state_province": "Arizona",
    "postal_code": "85234-5766",
    "country": "United States",
    "longitude": -111.7896117,
    "latitude": 33.3508552,
    "phone": "6029009004",
    "website_url": null,
    "state": "Arizona",
    "street": "335 N Gilbert Rd"
  },
  {
    "id": "02affaa6-de24-4d80-ba61-889f9c5752d9",
    "name": "O.H.S.O. Eatery + NanoBrewery",
    "brewery_type": "brewpub",
    "address_1": "4900 E Indian School Rd",
    "address_2": null,
    "address_3": null,
    "city": "Phoenix",
    "state_province": "Arizona",
    "postal_code": "85018-5554",
    "country": "United States",
    "longitude": -111.975831,
    "latitude": 33.49501715,
    "phone": "6029550358",
    "website_url": "http://www.ohsobrewery.com",
    "state": "Arizona",
    "street": "4900 E Indian School Rd"
  },
  {
    "id": "4214d4f6-75da-4830-b0b5-c643f8ec76ac",
    "name": "O'Connor Brewing Co",
    "brewery_type": "micro",
    "address_1": "211 W 24th St",
    "address_2": null,
    "address_3": null,
    "city": "Norfolk",
    "state_province": "Virginia",
    "postal_code": "23517-1303",
    "country": "United States",
    "longitude": -76.28625088,
    "latitude": 36.8697822,
    "phone": "7576520059",
    "website_url": "http://www.oconnorbrewing.com",
    "state": "Virginia",
    "street": "211 W 24th St"
  },
  {
    "id": "201c624e-15c6-46ac-93ff-3ec93543d17e",
    "name": "O'Dempsey's Brewing Co",
    "brewery_type": "contract",
    "address_1": "205 Grosvenor Place, Nw",
    "address_2": null,
    "address_3": null,
    "city": "Atlanta",
    "state_province": "Georgia",
    "postal_code": "30328",
    "country": "United States",
    "longitude": null,
    "latitude": null,
    "phone": "4048450059",
    "website_url": "http://www.odempseys.com",
    "state": "Georgia",
    "street": "205 Grosvenor Place, Nw"
  },
  {
    "id": "79ed4f4a-a470-42c2-af50-955633f757b7",
    "name": "O'Fallon Brewery",
    "brewery_type": "micro",
    "address_1": "45 Progress Pkwy",
    "address_2": null,
    "address_3": null,
    "city": "Maryland Heights",
    "state_province": "Missouri",
    "postal_code": "63043-3701",
    "country": "United States",
    "longitude": -90.44580667,
    "latitude": 38.71250421,
    "phone": "6364742337",
    "website_url": "http://www.ofallonbrewery.com",
    "state": "Missouri",
    "street": "45 Progress Pkwy"
  },
  {
    "id": "a4e0521d-ddd8-4991-9d19-456b3455ecd8",
    "name": "O'Griffs Grill & Brewhouse",
    "brewery_type": "brewpub",
    "address_1": "415 Hampshire St",
    "address_2": null,
    "address_3": null,
    "city": "Quincy",
    "state_province": "Illinois",
    "postal_code": "62301-2931",
    "country": "United States",
    "longitude": -91.40876529,
    "latitude": 39.93330414,
    "phone": "2172242002",
    "website_url": null,
    "state": "Illinois",
    "street": "415 Hampshire St"
  }
]