[
  {
    "id": "6aa5bb2f-7b2f-43b6-8291-216bdc545f8e",
    "name": "Vanished Valley Brewing Company",
    "brewery_type": "micro",
    "address_1": "782 Center Street",
    "address_2": null,
    "address_3": null,
    "city": "Ludlow",
    "state_province": "Massachusetts",
    "postal_code": "01056",
    "country": "United States",
    "longitude": -72.47021639,
    "latitude": 42.18292741,
    "phone": "4132710503",
    "website_url": "http://www.vanishedvalley.com",
    "state": "Massachusetts",
    "street": "782 Center Street"
  },
  {
    "id": "7ce7a516-c6e4-42c2-b357-a4dfd53f7236",
    "name": "VanMax Brewing Company LLC",
    "brewery_type": "micro",
    "address_1": "103 N Phelps St",
    "address_2": null,
    "address_3": null,
    "city": "Decatur",
    "state_province": "Michigan",
    "postal_code": "49045-1008",
    "country": "United States",
    "longitude": -85.97454749,
    "latitude": 42.10876694,
    "phone": "2692171720",
    "website_url": "http://www.vanmaxbrewing.com",
    "state": "Michigan",
    "street": "103 N Phelps St"
  },
  {
    "id": "78cb7d62-ff5b-4e03-a5fc-0553b9fa3428",
    "name": "Vanport Brewing Company",
    "brewery_type": "planning",
    "address_1": null,
    "address_2": null,
    "address_3": null,
    "city": "Portland",
    "state_province": "Oregon",
    "postal_code": "97211-2907",
    "country": "United States",
    "longitude": null,
    "latitude": null,
    "phone": "5032670219",
    "website_url": null,
    "state": "Oregon",
    "street": null
  },
  {
    "id": "b961ff9e-4495-4db5-aa88-dea50bc3a02b",
    "name": "Variant Brewing Company",
    "brewery_type": "micro",
    "address_1": "66 Norcross St",
    "address_2": null,
    "address_3": null,
    "city": "Roswell",
    "state_province": "Georgia",
    "postal_code": "30075-3866",
    "country": "United States",
    "longitude": -84.35907858,
    "latitude": 34.02576775,
    "phone": "6782428189",
    "website_url": null,
    "state": "Georgia",
    "street": "66 Norcross St"
  },
  {
    "id": "cefefb6f-577c-43e0-81e1-12f6125a86d6",
    "name": "Varietal Beer Company",
    "brewery_type": "micro",
    "address_1": "416 E Edison Ave",
    "address_2": null,
    "address_3": null,
    "city": "Sunnyside",
    "state_province": "Washington",
    "postal_code": "98944-1459",
    "country": "United States",
    "longitude": -120.0157684,
    "latitude": 46.32370319,
    "phone": "5093074622",
    "website_url": "http://www.varietalbeer.com",
    "state": "Washington",
    "street": "416 E Edison Ave"
  },
  {
    "id": "d521368b-3245-4084-9f94-4783ba1f3238",
    "name": "Vasen Brewing Company",
    "brewery_type": "micro",
    "address_1": "3331 Moore St",
    "address_2": null,
    "address_3": null,
    "city": "Richmond",
    "state_province": "Virginia",
    "postal_code": "23230-4423",
    "country": "United States",
    "longitude": -77.4517779,
    "latitude": 37.5574905,
    "phone": "8045885678",
    "website_url": "http://www.vasenbrewing.com",
    "state": "Virginia",
    "street": "3331 Moore St"
  },
  {
    "id": "615a73ce-eb1a-44bb-8a8d-0cc1b5573e72",
    "name": "Vashon Brewing Co",
    "brewery_type": "micro",
    "address_1": null,
    "address_2": null,
    "address_3": null,
    "city": "Vashon",
    "state_province": "Washington",
    "postal_code": "98070-5900",
    "country": "United States",
    "longitude": null,
    "latitude": null,
    "phone": null,
    "website_url": "http://www.vashonbrewingco.com",
    "state": "Washington",
    "street": null
  },
  {
    "id": "86157812-980d-4f66-b355-5aed2438ccc5",
    "name": "Vault Brewing Co",
    "brewery_type": "brewpub",
    "address_1": "10 S Main St",
    "address_2": null,
    "address_3": null,
    "city": "Morrisville",
    "state_province": "Pennsylvania",
    "postal_code": "19067-1511",
    "country": "United States",
    "longitude": null,
    "latitude": null,
    "phone": "2675734291",
    "website_url": "http://www.vaultbrewing.com",
    "state": "Pennsylvania",
    "street": "10 S Main St"
  },
  {
    "id": "5dafecff-6ef6-430d-87ed-1f9e315f3f92",
    "name": "Vecino Brewing",
    "brewery_type": "brewpub",
    "address_1": "300 E Main St",
    "address_2": null,
    "address_3": null,
    "city": "Carrboro",
    "state_province": "North Carolina",
    "postal_code": "27510-2359",
    "country": "United States",
    "longitude": -79.0689722,
    "latitude": 35.9100127,
    "phone": "9196495101",
    "website_url": "http://www.vecinobrewing.com",
    "state": "North Carolina",
    "street": "300 E Main St"
  },
  {
    "id": "376af0a3-abdd-42e8-850d-0635374c2e86",
    "name": "Velveteen Brewing Co",
    "brewery_type": "planning",
    "address_1": null,
    "address_2": null,
    "address_3": null,
    "city": "Mamaroneck",
    "state_province": "New York",
    "postal_code": "10543-4719",
    "country": "United States",
    "longitude": null,
    "latitude": null,
    "phone": null,
    "website_url": null,
    "state": "New York",
    "street": null
  },
  {
    "id": "e4e8348e-71ba-41df-b571-b866fffbf050",
    "name": "Venice Ale House Brewing Co",
    "brewery_type": "contract",
    "address_1": "2 Rose Ave",
    "address_2": null,
    "address_3": null,
    "city": "Venice",
    "state_province": "California",
    "postal_code": "90291-2411",
    "country": "United States",
    "longitude": -118.480274,
    "latitude": 33.994634,
    "phone": "3103148253",
    "website_url": "http://www.venicealehouse.com",
    "state": "California",
    "street": "2 Rose Ave"
  },
  {
    "id": "be340e56-0609-44de-a684-eca999c2b5a4",
    "name": "Venice Duck Brewery",
    "brewery_type": "contract",
    "address_1": null,
    "address_2": null,
    "address_3": null,
    "city": "Venice",
    "state_province": "California",
    "postal_code": "90291-3833",
    "country": "United States",
    "longitude": -118.4668875,
    "latitude": 33.995044,
    "phone": "3103834927",
    "website_url": "http://www.veniceduckbrewery.com",
    "state": "California",
    "street": null
  },
  {
    "id": "cdb0ccdd-a7c9-457e-aaef-2aacb17954b9",
    "name": "Venn Brewing Company",
    "brewery_type": "micro",
    "address_1": "3550 E 46th St Suite 140",
    "address_2": null,
    "address_3": null,
    "city": "Minneapolis",
    "state_province": "Minnesota",
    "postal_code": "55406-3965",
    "country": "United States",
    "longitude": null,
    "latitude": null,
    "phone": null,
    "website_url": "http://www.vennbrewing.com",
    "state": "Minnesota",
    "street": "3550 E 46th St Suite 140"
  },
  {
    "id": "f74cf0da-72f1-449c-b2ec-81b5fcd848bf",
    "name": "Ventura Coast Brewing Company",
    "brewery_type": "micro",
    "address_1": "76 S Oak St",
    "address_2": null,
    "address_3": null,
    "city": "Ventura",
    "state_province": "California",
    "postal_code": "93001-2702",
    "country": "United States",
    "longitude": -119.2945588,
    "latitude": 34.27988394,
    "phone": "8056678640",
    "website_url": "http://www.vcbc.beer",
    "state": "California",
    "street": "76 S Oak St"
  },
  {
    "id": "007923ef-19cb-4433-be8e-355ff64b34e7",
    "name": "Veracious Brewing Company",
    "brewery_type": "micro",
    "address_1": "246 Main St",
    "address_2": null,
    "address_3": null,
    "city": "Monroe",
    "state_province": "Connecticut",
    "postal_code": "06468-1171",
    "country": "United States",
    "longitude": null,
    "latitude": null,
    "phone": "2038805670",
    "website_url": "http://www.veraciousbrewing.com",
    "state": "Connecticut",
    "street": "246 Main St"
  },
  {
    "id": "d217a26e-7eec-4618-b32c-2689c76b92c3",
    "name": "Verboten Brewing",
    "brewery_type": "micro",
    "address_1": "127 E 5th St",
    "address_2": null,
    "address_3": null,
    "city": "Loveland",
    "state_province": "Colorado",
    "postal_code": "80537-5503",
    "country": "United States",
    "longitude": -105.0749674,
    "latitude": 40.39658612,
    "phone": "9707757371",
    "website_url": "http://www.verbotenbrewing.com",
    "state": "Colorado",
    "street": "127 E 5th St"
  },
  {
    "id": "2d9ff9d8-6a92-49fd-b03c-d77bbb371600",
    "name": "Verde Brewing Company",
    "brewery_type": "micro",
    "address_1": "724 Industrial Dr Unit 7A",
    "address_2": null,
    "address_3": null,
    "city": "Camp Verde",
    "state_province": "Arizona",
    "postal_code": "86322",
    "country": "United States",
    "longitude": null,
    "latitude": null,
    "phone": "9285678626",
    "website_url": "http://www.verdebrewing.com",
    "state": "Arizona",
    "street": "724 Industrial Dr Unit 7A"
  },
  {
    "id": "5504068e-77c6-41c1-a1a2-01b796b52cd1",
    "name": "Verdugo West Brewing Company",
    "brewery_type": "micro",
    "address_1": "156 W Verdugo Ave",
    "address_2": null,
    "address_3": null,
    "city": "Burbank",
    "state_province": "California",
    "postal_code": "91502-2132",
    "country": "United States",
    "longitude": -118.3103682,
    "latitude": 34.17375015,
    "phone": "8188415040",
    "website_url": "http://www.verdugowestbrewing.com",
    "state": "California",
    "street": "156 W Verdugo Ave"
  },
  {
    "id": "784b40eb-252d-4e8e-a002-e11de9c3b59a",
    "name": "Vermont Pub and Brewery",
    "brewery_type": "brewpub",
    "address_1": "144 College St",
    "address_2": null,
    "address_3": null,
    "city": "Burlington",
    "state_province": "Vermont",
    "postal_code": "05401-8416",
    "country": "United States",
    "longitude": -73.2143746,
    "latitude": 44.4772683,
    "phone": "8028650500",
    "website_url": "http://www.vermontbrewery.com",
    "state": "Vermont",
    "street": "144 College St"
  },
  {
    "id": "9a4d9c4e-fc5f-4af0-9fed-9374d1c2ee4f",
    "name": "Vernal Brewing Company",
    "brewery_type": "micro",
    "address_1": "510 E Main St",
    "address_2": null,
    "address_3": null,
    "city": "Vernal",
    "state_province": "Utah",
    "postal_code": "84078-2700",
    "country": "United States",
    "longitude": -109.5161701,
    "latitude": 40.45578612,
    "phone": "4357812337",
    "website_url": "http://www.vernalbrewingcompany.com",
    "state": "Utah",
    "street": "510 E Main St"
  },
  {
    "id": "427d559f-ec7b-4e5f-b973-c8cd9cbf15d9",
    "name": "Vertigo Brewing",
    "brewery_type": "micro",
    "address_1": "21420 NW Nicholas Ct Ste D-7",
    "address_2": null,
    "address_3": null,
    "city": "Hillsboro",
    "state_province": "Oregon",
    "postal_code": "97124-6633",
    "country": "United States",
    "longitude": -122.8955804,
    "latitude": 45.53189006,
    "phone": "5036456644",
    "website_url": "http://www.vertigobrew.com",
    "state": "Oregon",
    "street": "21420 NW Nicholas Ct Ste D-7"
  },
  {
    "id": "f48f194a-adbb-4309-8138-72f89f53d4c7",
    "name": "Very Nice Brewing Co",
    "brewery_type": "micro",
    "address_1": "20 Lakeview Drive Unit 112",
    "address_2": null,
    "address_3": null,
    "city": "Nederland",
    "state_province": "Colorado",
    "postal_code": "80466",
    "country": "United States",
    "longitude": null,
    "latitude": null,
    "phone": "3032583770",
    "website_url": "http://www.verynicebrewing.com",
    "state": "Colorado",
    "street": "20 Lakeview Drive Unit 112"
  },
  {
    "id": "d3b92246-604a-45f4-bbe0-bd02451924b8",
    "name": "Vessel Ales & Taphouse",
    "brewery_type": "closed",
    "address_1": "19405 144th Ave NE Bldg D",
    "address_2": null,
    "address_3": null,
    "city": "Woodinville",
    "state_province": "Washington",
    "postal_code": "98072-6485",
    "country": "United States",
    "longitude": null,
    "latitude": null,
    "phone": "2066295024",
    "website_url": "http://www.vesselwines.com",
    "state": "Washington",
    "street": "19405 144th Ave NE Bldg D"
  },
  {
    "id": "4c7bdc81-c8a2-49a4-90c5-5297e796e7a9",
    "name": "Veteran Beer Co / Veteran Beverage Company",
    "brewery_type": "proprietor",
    "address_1": "320 W Ohio St Ste 501",
    "address_2": null,
    "address_3": null,
    "city": "Chicago",
    "state_province": "Illinois",
    "postal_code": "60654-7816",
    "country": "United States",
    "longitude": null,
    "latitude": null,
    "phone": "6192498081",
    "website_url": "http://www.veteranbeercompany.com",
    "state": "Illinois",
    "street": "320 W Ohio St Ste 501"
  },
  {
    "id": "aa0393b5-3623-4eeb-98c8-56547386d4eb",
    "name": "Veteran Brewhouse",
    "brewery_type": "micro",
    "address_1": "829 CR 801",
    "address_2": null,
    "address_3": null,
    "city": "Ashland",
    "state_province": "Ohio",
    "postal_code": "44805",
    "country": "United States",
    "longitude": null,
    "latitude": null,
    "phone": "4196064014",
    "website_url": "http://www.veteranbrewhouse.com",
    "state": "Ohio",
    "street": "829 CR 801"
  },
  {
    "id": "75a0701e-0f94-4550-afaf-892cd31774ee",
    "name": "Veteran Brothers Brewing Company",
    "brewery_type": "brewpub",
    "address_1": "21 N Parish Ave",
    "address_2": null,
    "address_3": null,
    "city": "Johnstown",
    "state_province": "Colorado",
    "postal_code": "80534",
    "country": "United States",
    "longitude": -104.9061919,
    "latitude": 40.33713,
    "phone": "9705876786",
    "website_url": "https://www.facebook.com/veteranbrothersbrew",
    "state": "Colorado",
    "street": "21 N Parish Ave"
  },
  {
    "id": "2d3c288c-ecb1-47fc-bca3-c277c7728944",
    "name": "Veterans United Craft Brewery",
    "brewery_type": "micro",
    "address_1": "8999 Western Way Ste 104",
    "address_2": null,
    "address_3": null,
    "city": "Jacksonville",
    "state_province": "Florida",
    "postal_code": "32256",
    "country": "United States",
    "longitude": -81.5570848,
    "latitude": 30.2008038,
    "phone": "9042533326",
    "website_url": "http://www.vubrew.com",
    "state": "Florida",
    "street": "8999 Western Way Ste 104"
  },
  {
    "id": "3895d6bc-06f0-4440-8350-9b929b95cda2",
    "name": "Veza Sur Brewing Co",
    "brewery_type": "large",
    "address_1": "55 NW 25th St",
    "address_2": null,
    "address_3": null,
    "city": "Miami",
    "state_province": "Florida",
    "postal_code": "33127-4415",
    "country": "United States",
    "longitude": -80.19614871,
    "latitude": 25.80089733,
    "phone": null,
    "website_url": null,
    "state": "Florida",
    "street": "55 NW 25th St"
  },
  {
    "id": "add3dcfb-12fd-4d9f-be5d-5119961df9ce",
    "name": "Vibrant Shore Brewing Company",
    "brewery_type": "planning",
    "address_1": null,
    "address_2": null,
    "address_3": null,
    "city": "Virginia Beach",
    "state_province": "Virginia",
    "postal_code": "23451-2005",
    "country": "United States",
    "longitude": null,
    "latitude": null,
    "phone": "8082805895",
    "website_url": null,
    "state": "Virginia",
    "street": null
  },
  {
    "id": "b9f63a8d-4145-4e1f-8613-1bb45dba84dc",
    "name": "Vice District Tap Room",
    "brewery_type": "micro",
    "address_1": "1454 S Michigan Ave Ste 1",
    "address_2": null,
    "address_3": null,
    "city": "Chicago",
    "state_province": "Illinois",
    "postal_code": "60605-2811",
    "country": "United States",
    "longitude": null,
    "latitude": null,
    "phone": "3122919022",
    "website_url": "http://www.vicedistrictbrewing.com",
    "state": "Illinois",
    "street": "1454 S Michigan Ave Ste 1"
  },
  {
    "id": "4c321585-4c57-400b-9a56-fb95767b8cee",
    "name": "Vicious Fishes Brewery",
    "brewery_type": "micro",
    "address_1": "219 Fish Dr",
    "address_2": null,
    "address_3": null,
    "city": "Angier",
    "state_province": "North Carolina",
    "postal_code": "27501-6077",
    "country": "United States",
    "longitude": -78.749408,
    "latitude": 35.507541,
    "phone": "9196393369",
    "website_url": "http://www.viciousfishes.com",
    "state": "North Carolina",
    "street": "219 Fish Dr"
  },
  {
    "id": "ccae7ca3-7457-44cf-8138-f6f5d8959b8c",
    "name": "Victor 23 Craft Brewery",
    "brewery_type": "brewpub",
    "address_1": "2905 St Johns Blvd",
    "address_2": null,
    "address_3": null,
    "city": "Vancouver",
    "state_province": "Washington",
    "postal_code": "98661-3718",
    "country": "United States",
    "longitude": -122.6464236,
    "latitude": 45.6426306,
    "phone": "3609845413",
    "website_url": "http://www.Victor23.com",
    "state": "Washington",
    "street": "2905 St Johns Blvd"
  },
  {
    "id": "1b8122fc-3b03-49c0-9ae2-e344a3510030",
    "name": "Victory Brewing Co",
    "brewery_type": "regional",
    "address_1": "420 Acorn Ln",
    "address_2": null,
    "address_3": null,
    "city": "Downingtown",
    "state_province": "Pennsylvania",
    "postal_code": "19335-3040",
    "country": "United States",
    "longitude": null,
    "latitude": null,
    "phone": "6108730881",
    "website_url": "http://www.victorybeer.com",
    "state": "Pennsylvania",
    "street": "420 Acorn Ln"
  },
  {
    "id": "caa654e3-bfa9-4019-8e83-2aca7a423720",
    "name": "Victory Brewing Co",
    "brewery_type": "brewpub",
    "address_1": "650 W Cypress St Ste 1",
    "address_2": null,
    "address_3": null,
    "city": "Kennett Square",
    "state_province": "Pennsylvania",
    "postal_code": "19348-3059",
    "country": "United States",
    "longitude": null,
    "latitude": null,
    "phone": "4847301870",
    "website_url": "http://www.victorybeer.com",
    "state": "Pennsylvania",
    "street": "650 W Cypress St Ste 1"
  },
  {
    "id": "392b4940-7333-4a2e-9e64-3b12e0290354",
    "name": "Victory Brewing Co",
    "brewery_type": "regional",
    "address_1": "3127 Lower Valley Rd",
    "address_2": null,
    "address_3": null,
    "city": "Parkesburg",
    "state_province": "Pennsylvania",
    "postal_code": "19365-9617",
    "country": "United States",
    "longitude": null,
    "latitude": null,
    "phone": "6108730881",
    "website_url": "http://www.victorybeer.com",
    "state": "Pennsylvania",
    "street": "3127 Lower Valley Rd"
  },
  {
    "id": "60fad081-4a4e-4415-95d8-b478cb0ce9c1",
    "name": "Vierling Restaurant & Marquette Harbor Brewery",
    "brewery_type": "brewpub",
    "address_1": "119 S Front St",
    "address_2": null,
    "address_3": null,
    "city": "Marquette",
    "state_province": "Michigan",
    "postal_code": "49855-4642",
    "country": "United States",
    "longitude": -87.3928955,
    "latitude": 46.5425586,
    "phone": "9062283533",
    "website_url": "http://www.thevierling.com",
    "state": "Michigan",
    "street": "119 S Front St"
  },
  {
    "id": "b3be1ab8-d34b-465c-9704-b50364cfd061",
    "name": "Viewpoint Brewing Co",
    "brewery_type": "brewpub",
    "address_1": "2201 San Dieguito Dr Ste F",
    "address_2": null,
    "address_3": null,
    "city": "del Mar",
    "state_province": "California",
    "postal_code": "92014-2257",
    "country": "United States",
    "longitude": -117.2618232,
    "latitude": 32.970049,
    "phone": "8583569346",
    "website_url": "http://www.viewpointbrewing.com",
    "state": "California",
    "street": "2201 San Dieguito Dr Ste F"
  },
  {
    "id": "9fb445cd-bd7c-4b97-a249-ef17e9856cc0",
    "name": "Viking Brewpub",
    "brewery_type": "brewpub",
    "address_1": "211 E Main St",
    "address_2": null,
    "address_3": null,
    "city": "Stoughton",
    "state_province": "Wisconsin",
    "postal_code": "53589-1700",
    "country": "United States",
    "longitude": -89.2188242,
    "latitude": 42.9166357,
    "phone": "6087195041",
    "website_url": null,
    "state": "Wisconsin",
    "street": "211 E Main St"
  },
  {
    "id": "f51b3f3d-be14-40da-914a-3b5c83f75bbf",
    "name": "Villacher Brauerei (Heineken)",
    "brewery_type": "large",
    "address_1": "Brauhausgasse 6",
    "address_2": null,
    "address_3": null,
    "city": "Villach",
    "state_province": "K\ufffdrnten",
    "postal_code": "9500",
    "country": "Austria",
    "longitude": 13.851682458581,
    "latitude": 46.616624634222,
    "phone": "+434242277770",
    "website_url": "https://www.villacher.com",
    "state": "K\ufffdrnten",
    "street": "Brauhausgasse 6"
  },
  {
    "id": "4d87a123-b93b-4f06-9c57-8f197a9b2ad9",
    "name": "Village Idiot Brewing Company",
    "brewery_type": "micro",
    "address_1": "42 High St",
    "address_2": null,
    "address_3": null,
    "city": "Mount Holly",
    "state_province": "New Jersey",
    "postal_code": "08060-1702",
    "country": "United States",
    "longitude": -74.78801924,
    "latitude": 39.99417605,
    "phone": "6099759270",
    "website_url": "http://www.villageidiotbrewing.com",
    "state": "New Jersey",
    "street": "42 High St"
  },
  {
    "id": "71ac4ae1-27a3-45bb-a309-fa41cff28e4d",
    "name": "Village Vintner Winery & Brewery",
    "brewery_type": "brewpub",
    "address_1": "2380 Esplanade Dr Ste 100",
    "address_2": null,
    "address_3": null,
    "city": "Algonquin",
    "state_province": "Illinois",
    "postal_code": "60102-5450",
    "country": "United States",
    "longitude": -88.33838098,
    "latitude": 42.14408948,
    "phone": "8476584900",
    "website_url": "http://www.thevillagevintner.com",
    "state": "Illinois",
    "street": "2380 Esplanade Dr Ste 100"
  },
  {
    "id": "7acd06bc-672e-4bc0-85ae-efa205f92b25",
    "name": "Vine Park Brewing Co",
    "brewery_type": "micro",
    "address_1": "1254 7th St W",
    "address_2": null,
    "address_3": null,
    "city": "Saint Paul",
    "state_province": "Minnesota",
    "postal_code": "55102-4123",
    "country": "United States",
    "longitude": -93.1655001,
    "latitude": 44.9040455,
    "phone": "6512281355",
    "website_url": "http://www.vinepark.com",
    "state": "Minnesota",
    "street": "1254 7th St W"
  },
  {
    "id": "05d5110e-1f3c-40d0-b6b4-d00b5fdac6c1",
    "name": "Vine Street Pub & Brewery",
    "brewery_type": "brewpub",
    "address_1": "1700 Vine St",
    "address_2": null,
    "address_3": null,
    "city": "Denver",
    "state_province": "Colorado",
    "postal_code": "80206-1120",
    "country": "United States",
    "longitude": -104.9627421,
    "latitude": 39.7434087,
    "phone": "3033882337",
    "website_url": "http://www.mountainsunpub.com",
    "state": "Colorado",
    "street": "1700 Vine St"
  },
  {
    "id": "17995f06-7c5d-4a2c-b3cf-b8cc855ba10e",
    "name": "Vino's Pizza Pub Brewery",
    "brewery_type": "brewpub",
    "address_1": "923 W 7th St",
    "address_2": null,
    "address_3": null,
    "city": "Little Rock",
    "state_province": "Arkansas",
    "postal_code": "72201-4005",
    "country": "United States",
    "longitude": -92.28140212,
    "latitude": 34.7434392,
    "phone": "5013758466",
    "website_url": "http://www.vinosbrewpub.com",
    "state": "Arkansas",
    "street": "923 W 7th St"
  },
  {
    "id": "d2cf661a-d6dc-4e6e-b15d-a5100adc6ef4",
    "name": "Vintage Brewing Co",
    "brewery_type": "brewpub",
    "address_1": "674 S Whitney Way",
    "address_2": null,
    "address_3": null,
    "city": "Madison",
    "state_province": "Wisconsin",
    "postal_code": "53711-1035",
    "country": "United States",
    "longitude": -89.47266345,
    "latitude": 43.05171633,
    "phone": "6082042739",
    "website_url": "http://www.vintagebrewingco.com",
    "state": "Wisconsin",
    "street": "674 S Whitney Way"
  },
  {
    "id": "f7660e19-369a-41f8-b77e-10d094e67142",
    "name": "Vintage Brewing Co",
    "brewery_type": "brewpub",
    "address_1": "600 Water Street",
    "address_2": null,
    "address_3": null,
    "city": "Sauk City",
    "state_province": "Wisconsin",
    "postal_code": "53583",
    "country": "United States",
    "longitude": -89.7180892,
    "latitude": 43.2820804,
    "phone": "6082042739",
    "website_url": null,
    "state": "Wisconsin",
    "street": "600 Water Street"
  },
  {
    "id": "e66239b3-a3ec-4b2b-8738-0710ec300f25",
    "name": "Vinyl Brewing Company, LLC",
    "brewery_type": "micro",
    "address_1": "300B 12th St",
    "address_2": null,
    "address_3": null,
    "city": "Hammonton",
    "state_province": "New Jersey",
    "postal_code": "08037-",
    "country": "United States",
    "longitude": -74.80690714,
    "latitude": 39.6330492,
    "phone": "6096665460",
    "website_url": "http://www.vinylbrewingnj.com",
    "state": "New Jersey",
    "street": "300B 12th St"
  },
  {
    "id": "1c9765e4-b86d-4127-8403-ba0eaa4a6e68",
    "name": "Virant Family Winery / Black Angus Brewery",
    "brewery_type": "micro",
    "address_1": "541 Atkins Rd",
    "address_2": null,
    "address_3": null,
    "city": "Geneva",
    "state_province": "Ohio",
    "postal_code": "44041",
    "country": "United States",
    "longitude": null,
    "latitude": null,
    "phone": "4404666279",
    "website_url": "http://www.virantfamilywinery.com",
    "state": "Ohio",
    "street": "541 Atkins Rd"
  },
  {
    "id": "0c325218-d9f7-47c5-8305-d4a6058ec3bc",
    "name": "Virginia City Brewery & Taphouse",
    "brewery_type": "brewpub",
    "address_1": "62 North C Street",
    "address_2": null,
    "address_3": null,
    "city": "Virginia City",
    "state_province": "Nevada",
    "postal_code": "89440",
    "country": "United States",
    "longitude": -119.648264,
    "latitude": 39.314358,
    "phone": "7758477064",
    "website_url": "http://www.virginiacitybreweryandtaphouse.com",
    "state": "Nevada",
    "street": "62 North C Street"
  },
  {
    "id": "e3f7a311-cddb-4810-9fb8-32bca371f72c",
    "name": "Vis Major Brewing Co",
    "brewery_type": "brewpub",
    "address_1": "3501 Center St",
    "address_2": null,
    "address_3": null,
    "city": "Omaha",
    "state_province": "Nebraska",
    "postal_code": "68105-2423",
    "country": "United States",
    "longitude": -95.964461,
    "latitude": 41.241419,
    "phone": "4028844082",
    "website_url": "http://www.vismajorbrewing.com",
    "state": "Nebraska",
    "street": "3501 Center St"
  }
]