[
  {
    "id": "39db40da-0ee5-465d-9a9a-38f9eb51ba09",
    "name": "Original Gravity Brewing Co",
    "brewery_type": "brewpub",
    "address_1": "440 County St",
    "address_2": null,
    "address_3": null,
    "city": "Milan",
    "state_province": "Michigan",
    "postal_code": "48160-1504",
    "country": "United States",
    "longitude": -83.67523597,
    "latitude": 42.083974,
    "phone": "7344397490",
    "website_url": "http://www.ogbrewing.com",
    "state": "Michigan",
    "street": "440 County St"
  },
  {
    "id": "ab675ed9-9050-41b8-81f1-c6ebf70b3106",
    "name": "Original Pattern Brewing Company",
    "brewery_type": "micro",
    "address_1": "292 4th St",
    "address_2": null,
    "address_3": null,
    "city": "Oakland",
    "state_province": "California",
    "postal_code": "94607-4332",
    "country": "United States",
    "longitude": -122.2718245,
    "latitude": 37.796075,
    "phone": "5108444833",
    "website_url": "http://www.originalpatternbeer.com",
    "state": "California",
    "street": "292 4th St"
  },
  {
    "id": "6b8450c8-3810-40ce-bac3-55bf20261c4c",
    "name": "Orlando Brewing Partners, Inc.",
    "brewery_type": "micro",
    "address_1": "1301 Atlanta Ave",
    "address_2": null,
    "address_3": null,
    "city": "Orlando",
    "state_province": "Florida",
    "postal_code": "32806-3908",
    "country": "United States",
    "longitude": -81.38304499,
    "latitude": 28.52691826,
    "phone": "4078721117",
    "website_url": "http://www.orlandobrewing.com",
    "state": "Florida",
    "street": "1301 Atlanta Ave"
  },
  {
    "id": "e9c56fbd-e001-470f-88b6-29df8e0573c9",
    "name": "Orlison Brewing Company",
    "brewery_type": "closed",
    "address_1": "12921 West 17th Ave",
    "address_2": null,
    "address_3": null,
    "city": "Airway Heights",
    "state_province": "Washington",
    "postal_code": "99001",
    "country": "United States",
    "longitude": -117.5924443,
    "latitude": 47.6403069,
    "phone": "5093896253",
    "website_url": "http://www.orlisonbrewing.com",
    "state": "Washington",
    "street": "12921 West 17th Ave"
  },
  {
    "id": "fcfc9ac7-49ce-4ab4-a727-0d2fa89919b9",
    "name": "Ormond Brewing",
    "brewery_type": "micro",
    "address_1": "301 Division Ave Unit 15",
    "address_2": null,
    "address_3": null,
    "city": "Ormond Beach",
    "state_province": "Florida",
    "postal_code": "32174-8812",
    "country": "United States",
    "longitude": null,
    "latitude": null,
    "phone": "3862563904",
    "website_url": "http://www.ormondbrewing.com",
    "state": "Florida",
    "street": "301 Division Ave Unit 15"
  },
  {
    "id": "c1357ef9-d471-4c4c-98a7-b740c6c013ab",
    "name": "Oro Brewing Company",
    "brewery_type": "micro",
    "address_1": "210 W Main St",
    "address_2": null,
    "address_3": null,
    "city": "Mesa",
    "state_province": "Arizona",
    "postal_code": "85201-7312",
    "country": "United States",
    "longitude": -111.8370503,
    "latitude": 33.41519982,
    "phone": "4803988247",
    "website_url": "http://www.orobrewing.com",
    "state": "Arizona",
    "street": "210 W Main St"
  },
  {
    "id": "9fca7f46-6737-4633-a566-cb957ca93034",
    "name": "Orono Brewing Bangor Draught Room",
    "brewery_type": "micro",
    "address_1": "26 State St",
    "address_2": null,
    "address_3": null,
    "city": "Bangor",
    "state_province": "Maine",
    "postal_code": "04401",
    "country": "United States",
    "longitude": -68.7428115,
    "latitude": 44.81159483,
    "phone": null,
    "website_url": null,
    "state": "Maine",
    "street": "26 State St"
  },
  {
    "id": "91949951-a50a-430e-a009-59bc9124ed00",
    "name": "Orono Brewing Brewery & Draught Room",
    "brewery_type": "planning",
    "address_1": null,
    "address_2": null,
    "address_3": null,
    "city": "Orono",
    "state_province": "Maine",
    "postal_code": "04473",
    "country": "United States",
    "longitude": null,
    "latitude": null,
    "phone": null,
    "website_url": null,
    "state": "Maine",
    "street": null
  },
  {
    "id": "f255ae39-f3df-4876-bbc6-28073432c3e3",
    "name": "Orono Brewing Company",
    "brewery_type": "brewpub",
    "address_1": "20 Main St",
    "address_2": null,
    "address_3": null,
    "city": "Orono",
    "state_province": "Maine",
    "postal_code": "04473",
    "country": "United States",
    "longitude": -68.669582,
    "latitude": 44.88754094,
    "phone": "2078664677",
    "website_url": "http://www.oronobrewing.com",
    "state": "Maine",
    "street": "20 Main St"
  },
  {
    "id": "769676e2-2a79-475b-8b35-6755a2826e47",
    "name": "Orpheus Brewing",
    "brewery_type": "micro",
    "address_1": "1440 Dutch Valley Pl NE Ste 2001",
    "address_2": null,
    "address_3": null,
    "city": "Atlanta",
    "state_province": "Georgia",
    "postal_code": "30324-5366",
    "country": "United States",
    "longitude": -84.36858051,
    "latitude": 33.79314935,
    "phone": "4043471777",
    "website_url": "http://www.orpheusbrewing.com",
    "state": "Georgia",
    "street": "1440 Dutch Valley Pl NE Ste 2001"
  },
  {
    "id": "3265e88f-c7af-4243-b836-5475b1e3315d",
    "name": "Orr's Brewing Company",
    "brewery_type": "brewpub",
    "address_1": "109 S Franklin St",
    "address_2": null,
    "address_3": null,
    "city": "Titusville",
    "state_province": "Pennsylvania",
    "postal_code": "16354",
    "country": "United States",
    "longitude": -79.6733234,
    "latitude": 41.6230211,
    "phone": "8148270000",
    "website_url": null,
    "state": "Pennsylvania",
    "street": "109 S Franklin St"
  },
  {
    "id": "b9c27692-5db5-44dd-aa88-b8b66b944f3c",
    "name": "Osgood Brewing",
    "brewery_type": "brewpub",
    "address_1": "4051 Chicago Dr SW",
    "address_2": null,
    "address_3": null,
    "city": "Grandville",
    "state_province": "Michigan",
    "postal_code": "49418-1257",
    "country": "United States",
    "longitude": -85.76493039,
    "latitude": 42.90907804,
    "phone": null,
    "website_url": "http://www.osgoodbrewing.com",
    "state": "Michigan",
    "street": "4051 Chicago Dr SW"
  },
  {
    "id": "d128cc62-6893-4c15-bdde-6d23b55822cc",
    "name": "Oskar Blues Brewery",
    "brewery_type": "micro",
    "address_1": "10420 Metric Blvd # 150",
    "address_2": null,
    "address_3": null,
    "city": "Austin",
    "state_province": "Texas",
    "postal_code": "78758-4939",
    "country": "United States",
    "longitude": -97.71470248,
    "latitude": 30.3839295,
    "phone": "5122437054",
    "website_url": null,
    "state": "Texas",
    "street": "10420 Metric Blvd # 150"
  },
  {
    "id": "b3b08e37-95c0-4756-9ad5-2a6388705534",
    "name": "Oskar Blues Brewery - Brevard",
    "brewery_type": "regional",
    "address_1": "342 Mountain Industrial Dr",
    "address_2": null,
    "address_3": null,
    "city": "Brevard",
    "state_province": "North Carolina",
    "postal_code": "28712-5122",
    "country": "United States",
    "longitude": -82.7069595,
    "latitude": 35.2536956,
    "phone": "3037760724",
    "website_url": "http://www.oskarblues.com",
    "state": "North Carolina",
    "street": "342 Mountain Industrial Dr"
  },
  {
    "id": "57f68c2a-2520-4c6f-a595-570aadb38358",
    "name": "Oskar Blues Brewery - Lyons",
    "brewery_type": "brewpub",
    "address_1": "303 Main St",
    "address_2": null,
    "address_3": null,
    "city": "Lyons",
    "state_province": "Colorado",
    "postal_code": "80540",
    "country": "United States",
    "longitude": -105.2676934,
    "latitude": 40.22451332,
    "phone": "3038236685",
    "website_url": "http://www.oskarblues.com",
    "state": "Colorado",
    "street": "303 Main St"
  },
  {
    "id": "5a28cd92-6aeb-4cac-a24f-2260802b07b7",
    "name": "Oskar Blues Brewery & Tasty Weasel Tap Room",
    "brewery_type": "regional",
    "address_1": "1800 Pike Rd Unit B",
    "address_2": null,
    "address_3": null,
    "city": "Longmont",
    "state_province": "Colorado",
    "postal_code": "80501-6794",
    "country": "United States",
    "longitude": null,
    "latitude": null,
    "phone": "3037760724",
    "website_url": "http://www.oskarblues.com",
    "state": "Colorado",
    "street": "1800 Pike Rd Unit B"
  },
  {
    "id": "62ba2bf9-9efa-4a2d-a452-5871f84c0b3a",
    "name": "Osmo's Alehouse",
    "brewery_type": "micro",
    "address_1": "522 S Central Ave",
    "address_2": null,
    "address_3": null,
    "city": "Medford",
    "state_province": "Oregon",
    "postal_code": "97501-7246",
    "country": "United States",
    "longitude": -122.8683277,
    "latitude": 42.32230438,
    "phone": "5418420557",
    "website_url": null,
    "state": "Oregon",
    "street": "522 S Central Ave"
  },
  {
    "id": "c74b0536-3885-495d-b945-fb0b75d64cc8",
    "name": "Oswald Brewing Company",
    "brewery_type": "brewpub",
    "address_1": "110 S Main St",
    "address_2": null,
    "address_3": null,
    "city": "Blue Earth",
    "state_province": "Minnesota",
    "postal_code": "56013-2007",
    "country": "United States",
    "longitude": -94.2184542,
    "latitude": 44.10610449,
    "phone": "5075263101",
    "website_url": "http://www.oswaldbrewingcompany.com",
    "state": "Minnesota",
    "street": "110 S Main St"
  },
  {
    "id": "a5b37b60-e3c3-43b4-a6d7-16eba9218bed",
    "name": "Oswego Brewing Company",
    "brewery_type": "micro",
    "address_1": "61 Main St",
    "address_2": null,
    "address_3": null,
    "city": "Oswego",
    "state_province": "Illinois",
    "postal_code": "60543-8592",
    "country": "United States",
    "longitude": null,
    "latitude": null,
    "phone": "3319991991",
    "website_url": "http://www.oswegoBrewing.com",
    "state": "Illinois",
    "street": "61 Main St"
  },
  {
    "id": "ab943f7d-ad10-4f0b-8292-3f4c18e46ff9",
    "name": "Other Half Brewing Company",
    "brewery_type": "micro",
    "address_1": "195 Centre St",
    "address_2": null,
    "address_3": null,
    "city": "Brooklyn",
    "state_province": "New York",
    "postal_code": "11231-3907",
    "country": "United States",
    "longitude": -73.9991264,
    "latitude": 40.6737903,
    "phone": null,
    "website_url": null,
    "state": "New York",
    "street": "195 Centre St"
  },
  {
    "id": "51855a0c-1fcc-40d4-b1c8-d3e1be783068",
    "name": "Other Side of the Moon Brewery / Full Moon Oyster Bar",
    "brewery_type": "brewpub",
    "address_1": "1477 River Ridge Dr",
    "address_2": null,
    "address_3": null,
    "city": "Clemmons",
    "state_province": "North Carolina",
    "postal_code": "27012",
    "country": "United States",
    "longitude": -80.3912598,
    "latitude": 36.0738908,
    "phone": "3367128200",
    "website_url": "http://www.fullmoonoysterbar.com",
    "state": "North Carolina",
    "street": "1477 River Ridge Dr"
  },
  {
    "id": "1cbec9c9-522a-4d61-9848-34f8d9230a99",
    "name": "Otter Creek Brewing Co",
    "brewery_type": "regional",
    "address_1": "793 Exchange St",
    "address_2": null,
    "address_3": null,
    "city": "Middlebury",
    "state_province": "Vermont",
    "postal_code": "05753-1193",
    "country": "United States",
    "longitude": -73.17075772,
    "latitude": 44.03315644,
    "phone": "8023880727",
    "website_url": "http://www.ottercreekbrewing.com",
    "state": "Vermont",
    "street": "793 Exchange St"
  },
  {
    "id": "77e5ec06-4cc7-485b-b35c-201984baed5e",
    "name": "Ottos Pub & Brewery",
    "brewery_type": "brewpub",
    "address_1": "2235 N Atherton St",
    "address_2": null,
    "address_3": null,
    "city": "State College",
    "state_province": "Pennsylvania",
    "postal_code": "16803-1529",
    "country": "United States",
    "longitude": -77.8742944,
    "latitude": 40.7977695,
    "phone": "8144701394",
    "website_url": "http://www.ottospubandbrewery.com",
    "state": "Pennsylvania",
    "street": "2235 N Atherton St"
  },
  {
    "id": "597ab1af-dcc7-4df0-9c4d-018bfcec68ff",
    "name": "Ouachita Brewing Company",
    "brewery_type": "micro",
    "address_1": "95 McClendon Ave",
    "address_2": null,
    "address_3": null,
    "city": "West Monroe",
    "state_province": "Louisiana",
    "postal_code": "71291-3299",
    "country": "United States",
    "longitude": -92.1221749,
    "latitude": 32.49990448,
    "phone": "383879816",
    "website_url": "http://www.ouachitabrewing.com",
    "state": "Louisiana",
    "street": "95 McClendon Ave"
  },
  {
    "id": "8565cb64-f9be-4ba3-b845-e878cffb4f05",
    "name": "Our Brewing Co",
    "brewery_type": "micro",
    "address_1": "76 E 8th St",
    "address_2": null,
    "address_3": null,
    "city": "Holland",
    "state_province": "Michigan",
    "postal_code": "49423-3556",
    "country": "United States",
    "longitude": -86.1037537,
    "latitude": 42.7901898,
    "phone": "6169948417",
    "website_url": "http://www.ourbrewingcompany.com",
    "state": "Michigan",
    "street": "76 E 8th St"
  },
  {
    "id": "1f0405ff-3d96-47e7-90ee-a1bc5764149b",
    "name": "Our Mutual Friend Brewing",
    "brewery_type": "micro",
    "address_1": "2810 Larimer St",
    "address_2": null,
    "address_3": null,
    "city": "Denver",
    "state_province": "Colorado",
    "postal_code": "80205-2223",
    "country": "United States",
    "longitude": -104.9825596,
    "latitude": 39.7605777,
    "phone": "3032963441",
    "website_url": "http://www.omfbeer.com",
    "state": "Colorado",
    "street": "2810 Larimer St"
  },
  {
    "id": "b9da27a0-7c53-4aaf-9a85-fa453d97ebf3",
    "name": "Ouray Brewery",
    "brewery_type": "brewpub",
    "address_1": "607 Main St",
    "address_2": null,
    "address_3": null,
    "city": "Ouray",
    "state_province": "Colorado",
    "postal_code": "81427-",
    "country": "United States",
    "longitude": -107.6712878,
    "latitude": 38.0229071,
    "phone": "9703257388",
    "website_url": "http://www.ouraybrewery.com",
    "state": "Colorado",
    "street": "607 Main St"
  },
  {
    "id": "a6d1b092-de65-4af6-a543-b752f93979ce",
    "name": "Ourayle House Brewery",
    "brewery_type": "micro",
    "address_1": "703 Main St",
    "address_2": null,
    "address_3": null,
    "city": "Ouray",
    "state_province": "Colorado",
    "postal_code": "81427-0630",
    "country": "United States",
    "longitude": -107.6714048,
    "latitude": 38.02402041,
    "phone": "9709031824",
    "website_url": null,
    "state": "Colorado",
    "street": "703 Main St"
  },
  {
    "id": "f9009fe3-a89e-4635-8d8b-1a92df2ebe06",
    "name": "Out of Bounds Brewing Company",
    "brewery_type": "micro",
    "address_1": "4480 Yankee Hill Rd Ste 100",
    "address_2": null,
    "address_3": null,
    "city": "Rocklin",
    "state_province": "California",
    "postal_code": "95677-1633",
    "country": "United States",
    "longitude": -121.2289797,
    "latitude": 38.80045074,
    "phone": null,
    "website_url": null,
    "state": "California",
    "street": "4480 Yankee Hill Rd Ste 100"
  },
  {
    "id": "35901770-f2e3-424c-b462-1deb0fa2da06",
    "name": "Out World Brewing",
    "brewery_type": "planning",
    "address_1": null,
    "address_2": null,
    "address_3": null,
    "city": "Longmont",
    "state_province": "Colorado",
    "postal_code": "80503-7285",
    "country": "United States",
    "longitude": null,
    "latitude": null,
    "phone": null,
    "website_url": "http://www.outworld.beer",
    "state": "Colorado",
    "street": null
  },
  {
    "id": "74f4a6b0-9be8-401a-b320-7ad33254f2c3",
    "name": "Out.Haus Ales",
    "brewery_type": "closed",
    "address_1": "442 1st Nh Tpke Unit 2",
    "address_2": null,
    "address_3": null,
    "city": "Northwood",
    "state_province": "New Hampshire",
    "postal_code": "03261-3445",
    "country": "United States",
    "longitude": null,
    "latitude": null,
    "phone": "6035482151",
    "website_url": "http://www.outhausales.com",
    "state": "New Hampshire",
    "street": "442 1st Nh Tpke Unit 2"
  },
  {
    "id": "ab8a8e3a-f6e0-4869-a2f3-34ada12c7cff",
    "name": "Outbreak Brewing Co.",
    "brewery_type": "micro",
    "address_1": "640 Main St",
    "address_2": null,
    "address_3": null,
    "city": "Placerville",
    "state_province": "California",
    "postal_code": "95667-5704",
    "country": "United States",
    "longitude": -120.794212,
    "latitude": 38.7293661,
    "phone": "5307483258",
    "website_url": "http://www.outbreakbrewing.com",
    "state": "California",
    "street": "640 Main St"
  },
  {
    "id": "8151cea5-19ff-42c4-8f3e-e3dbbeb384c2",
    "name": "Outer Banks Brewing Station",
    "brewery_type": "brewpub",
    "address_1": "600 S Croatan Hwy",
    "address_2": null,
    "address_3": null,
    "city": "Kill Devil Hills",
    "state_province": "North Carolina",
    "postal_code": "27948",
    "country": "United States",
    "longitude": -75.65925231,
    "latitude": 36.00947755,
    "phone": "2524492739",
    "website_url": "http://www.obbrewing.com",
    "state": "North Carolina",
    "street": "600 S Croatan Hwy"
  },
  {
    "id": "664fde9d-7114-4ad3-bbad-33bc65a1d4c9",
    "name": "Outer Light Brewing Company",
    "brewery_type": "micro",
    "address_1": "266 Bridge St Ste 1",
    "address_2": null,
    "address_3": null,
    "city": "Groton",
    "state_province": "Connecticut",
    "postal_code": "06340-3739",
    "country": "United States",
    "longitude": null,
    "latitude": null,
    "phone": "4752019972",
    "website_url": "http://www.outerlightbrewing.com",
    "state": "Connecticut",
    "street": "266 Bridge St Ste 1"
  },
  {
    "id": "de23fb6c-55b7-4e7d-a27f-dca9ce7816f0",
    "name": "Outer Limits Brewing, LLC",
    "brewery_type": "planning",
    "address_1": null,
    "address_2": null,
    "address_3": null,
    "city": "Proctorsville",
    "state_province": "Vermont",
    "postal_code": "05153-9518",
    "country": "United States",
    "longitude": null,
    "latitude": null,
    "phone": "2072057076",
    "website_url": null,
    "state": "Vermont",
    "street": null
  },
  {
    "id": "8280e47c-4aed-4aa0-b20f-b3217d7478be",
    "name": "Outer Planet Craft Brewing",
    "brewery_type": "micro",
    "address_1": "1812 12th Ave",
    "address_2": null,
    "address_3": null,
    "city": "Seattle",
    "state_province": "Washington",
    "postal_code": "98122-8420",
    "country": "United States",
    "longitude": -122.3167381,
    "latitude": 47.6180009,
    "phone": "2067637000",
    "website_url": "http://www.outerplanetbrewing.com",
    "state": "Washington",
    "street": "1812 12th Ave"
  },
  {
    "id": "65b80308-dbfd-45c1-8c7a-a76e43ed006f",
    "name": "Outer Range Brewing Co",
    "brewery_type": "micro",
    "address_1": "182 Lusher Court #2",
    "address_2": null,
    "address_3": null,
    "city": "Frisco",
    "state_province": "Colorado",
    "postal_code": "80443-6601",
    "country": "United States",
    "longitude": -106.0989298,
    "latitude": 39.5892615,
    "phone": "9703683101",
    "website_url": "http://www.outerrange.com",
    "state": "Colorado",
    "street": "182 Lusher Court #2"
  },
  {
    "id": "cc5bec77-94df-470f-bcaf-c2d9a5d091a7",
    "name": "Outerbelt Brewing Company",
    "brewery_type": "planning",
    "address_1": null,
    "address_2": null,
    "address_3": null,
    "city": "Carroll",
    "state_province": "Ohio",
    "postal_code": "43112",
    "country": "United States",
    "longitude": null,
    "latitude": null,
    "phone": "6143096796",
    "website_url": "http://www.outerbeltbrewing.com",
    "state": "Ohio",
    "street": null
  },
  {
    "id": "b71e75ef-6458-4128-a39f-c3f6f0461e9d",
    "name": "Outland Brewing Company",
    "brewery_type": "planning",
    "address_1": null,
    "address_2": null,
    "address_3": null,
    "city": "Salem",
    "state_province": "New Hampshire",
    "postal_code": "03079-1867",
    "country": "United States",
    "longitude": null,
    "latitude": null,
    "phone": null,
    "website_url": null,
    "state": "New Hampshire",
    "street": null
  },
  {
    "id": "3000da0a-9704-41be-b9e2-dad825b50e56",
    "name": "Outland Farm Brewery",
    "brewery_type": "planning",
    "address_1": null,
    "address_2": null,
    "address_3": null,
    "city": "Pittsfield",
    "state_province": "Maine",
    "postal_code": "04967-5811",
    "country": "United States",
    "longitude": null,
    "latitude": null,
    "phone": "2076168125",
    "website_url": "http://www.outlandfarmbrewery.com",
    "state": "Maine",
    "street": null
  },
  {
    "id": "1f57f054-d4ec-473d-b2a6-12c4ac8ff5de",
    "name": "Outlander Brewery & Pub",
    "brewery_type": "brewpub",
    "address_1": "225 N 36th St",
    "address_2": null,
    "address_3": null,
    "city": "Seattle",
    "state_province": "Washington",
    "postal_code": "98103-8610",
    "country": "United States",
    "longitude": -122.3555596,
    "latitude": 47.6523014,
    "phone": "2064864088",
    "website_url": "http://www.outlanderbrewing.com",
    "state": "Washington",
    "street": "225 N 36th St"
  },
  {
    "id": "4763319d-b0fe-47b6-8549-47cca21ab91e",
    "name": "Outlaw Brewing Co",
    "brewery_type": "micro",
    "address_1": "2876 N 27th Ave",
    "address_2": null,
    "address_3": null,
    "city": "Bozeman",
    "state_province": "Montana",
    "postal_code": "59718-7168",
    "country": "United States",
    "longitude": -111.0725189,
    "latitude": 45.70878295,
    "phone": "4063889182",
    "website_url": "http://www.outlaw-brewing.com",
    "state": "Montana",
    "street": "2876 N 27th Ave"
  },
  {
    "id": "50e149c8-f205-4469-8f9c-27cc526fc78e",
    "name": "Outlaw Cigar / Gunslinger Saloon Brewing",
    "brewery_type": "planning",
    "address_1": null,
    "address_2": null,
    "address_3": null,
    "city": "Kansas City",
    "state_province": "Missouri",
    "postal_code": "64151-2026",
    "country": "United States",
    "longitude": null,
    "latitude": null,
    "phone": "8165052442",
    "website_url": "http://www.outlawcigar.com",
    "state": "Missouri",
    "street": null
  },
  {
    "id": "816eae14-e2ae-434e-8c7d-f24481dd4c9b",
    "name": "Outlook Farm Brewery",
    "brewery_type": "micro",
    "address_1": "136 Main Rd",
    "address_2": null,
    "address_3": null,
    "city": "Westhampton",
    "state_province": "Massachusetts",
    "postal_code": "01027-9673",
    "country": "United States",
    "longitude": -72.772262,
    "latitude": 42.285973,
    "phone": "4135299388",
    "website_url": "http://www.outlookfarm.com",
    "state": "Massachusetts",
    "street": "136 Main Rd"
  },
  {
    "id": "38ca2684-4b26-4e6b-9cf7-32a3e727adac",
    "name": "Outpost Brewing Co",
    "brewery_type": "micro",
    "address_1": "932 Stateline Ave",
    "address_2": null,
    "address_3": null,
    "city": "South Lake Tahoe",
    "state_province": "California",
    "postal_code": "96150-6913",
    "country": "United States",
    "longitude": -119.9450001,
    "latitude": 38.96097394,
    "phone": "5304949805",
    "website_url": null,
    "state": "California",
    "street": "932 Stateline Ave"
  },
  {
    "id": "cf838e5b-da1b-487b-aa7f-44af17e2e121",
    "name": "Outstate Brewing Company LLC",
    "brewery_type": "planning",
    "address_1": null,
    "address_2": null,
    "address_3": null,
    "city": "Fergus Falls",
    "state_province": "Minnesota",
    "postal_code": "56537",
    "country": "United States",
    "longitude": null,
    "latitude": null,
    "phone": "9702175026",
    "website_url": "http://www.oustatebrew.co",
    "state": "Minnesota",
    "street": null
  },
  {
    "id": "27605647-6c13-43a9-94aa-ed38ce1994f9",
    "name": "OVAL Craft Brewing",
    "brewery_type": "micro",
    "address_1": "111 Ohio Rd",
    "address_2": null,
    "address_3": null,
    "city": "Plattsburgh",
    "state_province": "New York",
    "postal_code": "12903-4403",
    "country": "United States",
    "longitude": null,
    "latitude": null,
    "phone": "5183242739",
    "website_url": "http://www.ovalcraftbrewing.com",
    "state": "New York",
    "street": "111 Ohio Rd"
  },
  {
    "id": "bdd9f11c-9b60-4d1b-9dc9-c81cb6ba9301",
    "name": "Over Yonder Brewing Company",
    "brewery_type": "planning",
    "address_1": null,
    "address_2": null,
    "address_3": null,
    "city": "Golden",
    "state_province": "Colorado",
    "postal_code": "80403-8590",
    "country": "United States",
    "longitude": null,
    "latitude": null,
    "phone": "7203638089",
    "website_url": null,
    "state": "Colorado",
    "street": null
  },
  {
    "id": "ecc8660b-2bf6-4e95-b4b1-a6659fc74c0f",
    "name": "Overflow Brewing Company",
    "brewery_type": "micro",
    "address_1": "770 1st Ave N",
    "address_2": null,
    "address_3": null,
    "city": "Saint Petersburg",
    "state_province": "Florida",
    "postal_code": "33701",
    "country": "United States",
    "longitude": -82.644494,
    "latitude": 27.77196743,
    "phone": null,
    "website_url": "http://www.overflowbrewingco.com",
    "state": "Florida",
    "street": "770 1st Ave N"
  },
  {
    "id": "fe1b7e7e-788f-492e-b69d-d7eb15497822",
    "name": "Overshores Brewing Co",
    "brewery_type": "micro",
    "address_1": "250 Bradley St",
    "address_2": null,
    "address_3": null,
    "city": "East Haven",
    "state_province": "Connecticut",
    "postal_code": "06512-",
    "country": "United States",
    "longitude": -72.87397563,
    "latitude": 41.29004301,
    "phone": "2039096224",
    "website_url": "http://www.overshores.com",
    "state": "Connecticut",
    "street": "250 Bradley St"
  }
]