[
  {
    "id": "e754c609-31df-4357-9d69-2751c57e4737",
    "name": "Rock Art Brewery",
    "brewery_type": "micro",
    "address_1": "632 Laporte Rd",
    "address_2": null,
    "address_3": null,
    "city": "Morrisville",
    "state_province": "Vermont",
    "postal_code": "05661-8322",
    "country": "United States",
    "longitude": null,
    "latitude": null,
    "phone": "8028889400",
    "website_url": "http://www.rockartbrewery.com",
    "state": "Vermont",
    "street": "632 Laporte Rd"
  },
  {
    "id": "b13f6378-84b6-40c6-b2a1-784aba2cfcc3",
    "name": "Rock Bottom Brewery",
    "brewery_type": "brewpub",
    "address_1": "1864 Victory Cir Bldg K",
    "address_2": null,
    "address_3": null,
    "city": "Daytona Beach",
    "state_province": "Florida",
    "postal_code": "32114",
    "country": "United States",
    "longitude": null,
    "latitude": null,
    "phone": "3865168322",
    "website_url": null,
    "state": "Florida",
    "street": "1864 Victory Cir Bldg K"
  },
  {
    "id": "3a26e910-305e-445b-8d44-2d2b4993bf01",
    "name": "Rock Bottom Brewery - Arrowhead",
    "brewery_type": "brewpub",
    "address_1": "7640 W Bell Rd",
    "address_2": null,
    "address_3": null,
    "city": "Glendale",
    "state_province": "Arizona",
    "postal_code": "85308-8619",
    "country": "United States",
    "longitude": null,
    "latitude": null,
    "phone": "6238788822",
    "website_url": "http://www.rockbottom.com",
    "state": "Arizona",
    "street": "7640 W Bell Rd"
  },
  {
    "id": "871fd4b2-cd72-4883-86d1-d9b99e632b29",
    "name": "Rock Bottom Brewery - Bethesda",
    "brewery_type": "brewpub",
    "address_1": "7900 Norfolk Ave",
    "address_2": null,
    "address_3": null,
    "city": "Bethesda",
    "state_province": "Maryland",
    "postal_code": "20814-2502",
    "country": "United States",
    "longitude": -77.0976716,
    "latitude": 38.9890033,
    "phone": "3016521311",
    "website_url": "http://www.rockbottom.com",
    "state": "Maryland",
    "street": "7900 Norfolk Ave"
  },
  {
    "id": "edd508e5-ef5e-4a5a-9724-9e41bbaedc23",
    "name": "Rock Bottom Brewery - Centerra Promenade",
    "brewery_type": "brewpub",
    "address_1": "6025 Sky Pond Dr",
    "address_2": null,
    "address_3": null,
    "city": "Loveland",
    "state_province": "Colorado",
    "postal_code": "80538-9013",
    "country": "United States",
    "longitude": -104.990385,
    "latitude": 40.418114,
    "phone": "9706222077",
    "website_url": "http://www.rockbottom.com",
    "state": "Colorado",
    "street": "6025 Sky Pond Dr"
  },
  {
    "id": "a9e63cc7-cc4e-4993-a3ed-2f5cb791666e",
    "name": "Rock Bottom Brewery - Chicago",
    "brewery_type": "brewpub",
    "address_1": "1 W Grand Ave",
    "address_2": null,
    "address_3": null,
    "city": "Chicago",
    "state_province": "Illinois",
    "postal_code": "60654-4806",
    "country": "United States",
    "longitude": -87.62839238,
    "latitude": 41.8913983,
    "phone": "3127559339",
    "website_url": "http://www.rockbottom.com",
    "state": "Illinois",
    "street": "1 W Grand Ave"
  },
  {
    "id": "ef644d34-4eef-4ab0-8b2f-92ce400e2eb0",
    "name": "Rock Bottom Brewery - Cincinnati",
    "brewery_type": "brewpub",
    "address_1": "10 Fountain Square Plz",
    "address_2": null,
    "address_3": null,
    "city": "Cincinnati",
    "state_province": "Ohio",
    "postal_code": "45202-3102",
    "country": "United States",
    "longitude": null,
    "latitude": null,
    "phone": "5136211588",
    "website_url": "http://www.rockbottom.com",
    "state": "Ohio",
    "street": "10 Fountain Square Plz"
  },
  {
    "id": "a68d7446-e2e5-4e6c-a4f9-6dc0fd8e3205",
    "name": "Rock Bottom Brewery - Colorado Springs",
    "brewery_type": "brewpub",
    "address_1": "3316 Cinema Point Dr",
    "address_2": null,
    "address_3": null,
    "city": "Colorado Springs",
    "state_province": "Colorado",
    "postal_code": "80922",
    "country": "United States",
    "longitude": -104.718194,
    "latitude": 38.8811909,
    "phone": "7195503586",
    "website_url": "http://www.rockbottom.com",
    "state": "Colorado",
    "street": "3316 Cinema Point Dr"
  },
  {
    "id": "24e86b2b-be63-4abc-ba2b-f1ec7bcb827a",
    "name": "Rock Bottom Brewery - Denver",
    "brewery_type": "brewpub",
    "address_1": "1001 16th St Ste 100",
    "address_2": null,
    "address_3": null,
    "city": "Denver",
    "state_province": "Colorado",
    "postal_code": "80265-0100",
    "country": "United States",
    "longitude": null,
    "latitude": null,
    "phone": "3035347616",
    "website_url": "http://www.rockbottom.com",
    "state": "Colorado",
    "street": "1001 16th St Ste 100"
  },
  {
    "id": "ce9dbd76-619c-4474-ba27-7ca4e37c2cbe",
    "name": "Rock Bottom Brewery - Englewood",
    "brewery_type": "brewpub",
    "address_1": "9627 E County Line Rd",
    "address_2": null,
    "address_3": null,
    "city": "Englewood",
    "state_province": "Colorado",
    "postal_code": "80112-3502",
    "country": "United States",
    "longitude": null,
    "latitude": null,
    "phone": "3037929090",
    "website_url": "http://www.rockbottom.com",
    "state": "Colorado",
    "street": "9627 E County Line Rd"
  },
  {
    "id": "ef8e2e3a-4c8d-40f7-a33d-4659d0fa45d9",
    "name": "Rock Bottom Brewery - Highlands Ranch",
    "brewery_type": "brewpub",
    "address_1": "1505 Park Central Dr",
    "address_2": null,
    "address_3": null,
    "city": "Highlands Ranch",
    "state_province": "Colorado",
    "postal_code": "80129-6686",
    "country": "United States",
    "longitude": null,
    "latitude": null,
    "phone": null,
    "website_url": null,
    "state": "Colorado",
    "street": "1505 Park Central Dr"
  },
  {
    "id": "ac70c288-4edc-400f-8f52-42cc3ba4fff9",
    "name": "Rock Bottom Brewery - Indianapolis",
    "brewery_type": "brewpub",
    "address_1": "10 W Washington St",
    "address_2": null,
    "address_3": null,
    "city": "Indianapolis",
    "state_province": "Indiana",
    "postal_code": "46204-3402",
    "country": "United States",
    "longitude": -86.1584705,
    "latitude": 39.76717025,
    "phone": "3176818180",
    "website_url": "http://www.rockbottom.com",
    "state": "Indiana",
    "street": "10 W Washington St"
  },
  {
    "id": "a6426255-23dc-405e-80b4-5e1a9e6dcfba",
    "name": "Rock Bottom Brewery - La Jolla",
    "brewery_type": "brewpub",
    "address_1": "8980 Villa La Jolla Dr",
    "address_2": null,
    "address_3": null,
    "city": "La Jolla",
    "state_province": "California",
    "postal_code": "92037-1701",
    "country": "United States",
    "longitude": -117.23519,
    "latitude": 32.870929,
    "phone": "8584509277",
    "website_url": "http://www.rockbottom.com",
    "state": "California",
    "street": "8980 Villa La Jolla Dr"
  },
  {
    "id": "1ec80be3-149d-4e9f-b1c1-d419463f745e",
    "name": "Rock Bottom Brewery - Long Beach",
    "brewery_type": "brewpub",
    "address_1": "1 Pine Ave",
    "address_2": null,
    "address_3": null,
    "city": "Long Beach",
    "state_province": "California",
    "postal_code": "90802-4759",
    "country": "United States",
    "longitude": -118.192482,
    "latitude": 33.767797,
    "phone": "5623082255",
    "website_url": "http://www.rockbottom.com",
    "state": "California",
    "street": "1 Pine Ave"
  },
  {
    "id": "862e1ac8-fd6a-4d8f-9f12-4938206da0cc",
    "name": "Rock Bottom Brewery - Milwaukee",
    "brewery_type": "brewpub",
    "address_1": "740 N Plankinton Ave Fl 1",
    "address_2": null,
    "address_3": null,
    "city": "Milwaukee",
    "state_province": "Wisconsin",
    "postal_code": "53203-2403",
    "country": "United States",
    "longitude": null,
    "latitude": null,
    "phone": "4142763030",
    "website_url": "http://www.rockbottom.com",
    "state": "Wisconsin",
    "street": "740 N Plankinton Ave Fl 1"
  },
  {
    "id": "db07e9cc-5c84-419e-aa9a-149b068b945f",
    "name": "Rock Bottom Brewery - Minneapolis",
    "brewery_type": "brewpub",
    "address_1": "800 Lasalle Ave",
    "address_2": null,
    "address_3": null,
    "city": "Minneapolis",
    "state_province": "Minnesota",
    "postal_code": "55402-2006",
    "country": "United States",
    "longitude": -93.274687,
    "latitude": 44.976427,
    "phone": "6123322739",
    "website_url": "http://www.rockbottom.com",
    "state": "Minnesota",
    "street": "800 Lasalle Ave"
  },
  {
    "id": "d80c64ff-d17f-4dc8-9c80-0f1414167132",
    "name": "Rock Bottom Brewery - Nashville",
    "brewery_type": "brewpub",
    "address_1": "111 Broadway",
    "address_2": null,
    "address_3": null,
    "city": "Nashville",
    "state_province": "Tennessee",
    "postal_code": "37201-2117",
    "country": "United States",
    "longitude": null,
    "latitude": null,
    "phone": "6152514677",
    "website_url": "http://www.bigrivergrille.com",
    "state": "Tennessee",
    "street": "111 Broadway"
  },
  {
    "id": "a4f2d628-e1bf-45d0-b887-c2547fef25ec",
    "name": "Rock Bottom Brewery - Orchard Cntr",
    "brewery_type": "brewpub",
    "address_1": "14694 Orchard Pkwy Unit 400",
    "address_2": null,
    "address_3": null,
    "city": "Westminster",
    "state_province": "Colorado",
    "postal_code": "80023-9198",
    "country": "United States",
    "longitude": null,
    "latitude": null,
    "phone": "3032551625",
    "website_url": "http://www.rockbottom.com",
    "state": "Colorado",
    "street": "14694 Orchard Pkwy Unit 400"
  },
  {
    "id": "e5417f6a-b6a4-48ee-9bca-99a58cea0bb7",
    "name": "Rock Bottom Brewery - Orland Park",
    "brewery_type": "brewpub",
    "address_1": "16156 S La Grange Rd",
    "address_2": null,
    "address_3": null,
    "city": "Orland Park",
    "state_province": "Illinois",
    "postal_code": "60467-5614",
    "country": "United States",
    "longitude": -87.85275979,
    "latitude": 41.59402293,
    "phone": "7082260021",
    "website_url": "http://www.rockbottom.com",
    "state": "Illinois",
    "street": "16156 S La Grange Rd"
  },
  {
    "id": "d87d4744-0108-4647-8c84-b33cabf736d3",
    "name": "Rock Bottom Brewery - Pittsburgh",
    "brewery_type": "brewpub",
    "address_1": "171 E Bridge St",
    "address_2": null,
    "address_3": null,
    "city": "Homestead",
    "state_province": "Pennsylvania",
    "postal_code": "15120",
    "country": "United States",
    "longitude": -79.9149542,
    "latitude": 40.4093329,
    "phone": "4124622739",
    "website_url": "http://www.rockbottom.com",
    "state": "Pennsylvania",
    "street": "171 E Bridge St"
  },
  {
    "id": "4e405356-a2d1-4bb2-aeb5-6fd64e1a04a5",
    "name": "Rock Bottom Brewery - Portland",
    "brewery_type": "brewpub",
    "address_1": "206 SW Morrison St",
    "address_2": null,
    "address_3": null,
    "city": "Portland",
    "state_province": "Oregon",
    "postal_code": "97204-3107",
    "country": "United States",
    "longitude": -122.6749783,
    "latitude": 45.5178662,
    "phone": "5037962739",
    "website_url": "http://www.rockbottom.com",
    "state": "Oregon",
    "street": "206 SW Morrison St"
  },
  {
    "id": "d99212a5-95f0-45eb-8e95-ddf1828ac86e",
    "name": "Rock Bottom Brewery - San Jose",
    "brewery_type": "brewpub",
    "address_1": "1875 S Bascom Ave Ste 700",
    "address_2": null,
    "address_3": null,
    "city": "Campbell",
    "state_province": "California",
    "postal_code": "95008-2310",
    "country": "United States",
    "longitude": -121.9342507,
    "latitude": 37.28907802,
    "phone": "4083770707",
    "website_url": "http://www.rockbottom.com",
    "state": "California",
    "street": "1875 S Bascom Ave Ste 700"
  },
  {
    "id": "c217bb0b-a315-4ac5-a2ed-bba6ca87e5fe",
    "name": "Rock Bottom Brewery - Warrenville",
    "brewery_type": "brewpub",
    "address_1": "28256 Diehl Rd",
    "address_2": null,
    "address_3": null,
    "city": "Warrenville",
    "state_province": "Illinois",
    "postal_code": "60555-3835",
    "country": "United States",
    "longitude": null,
    "latitude": null,
    "phone": "6308361380",
    "website_url": "http://www.rockbottom.com",
    "state": "Illinois",
    "street": "28256 Diehl Rd"
  },
  {
    "id": "e98fe064-5731-4f25-a970-b9621e3b5de5",
    "name": "Rock Bottom Brewery - Westminster",
    "brewery_type": "brewpub",
    "address_1": "10633 Westminster Blvd Unit 900",
    "address_2": null,
    "address_3": null,
    "city": "Westminster",
    "state_province": "Colorado",
    "postal_code": "80020-4176",
    "country": "United States",
    "longitude": null,
    "latitude": null,
    "phone": "7205660198",
    "website_url": "http://www.rockbottom.com",
    "state": "Colorado",
    "street": "10633 Westminster Blvd Unit 900"
  },
  {
    "id": "4f278d3a-4792-453e-82b8-03304f61d6a4",
    "name": "Rock Bottom Brewery - Yorktown",
    "brewery_type": "brewpub",
    "address_1": "94 Yorktown Ctr",
    "address_2": null,
    "address_3": null,
    "city": "Lombard",
    "state_province": "Illinois",
    "postal_code": "60148-5529",
    "country": "United States",
    "longitude": null,
    "latitude": null,
    "phone": "6304241550",
    "website_url": "http://www.rockbottom.com",
    "state": "Illinois",
    "street": "94 Yorktown Ctr"
  },
  {
    "id": "fcff8513-53a1-4550-91a4-cb71fc0a4753",
    "name": "Rock Bottom Brewery -Short Pump",
    "brewery_type": "brewpub",
    "address_1": "11800 W Broad St Ste 2098",
    "address_2": null,
    "address_3": null,
    "city": "Richmond",
    "state_province": "Virginia",
    "postal_code": "23233-7909",
    "country": "United States",
    "longitude": null,
    "latitude": null,
    "phone": "8042371684",
    "website_url": "https://rockbottom.com/locations/richmond/",
    "state": "Virginia",
    "street": "11800 W Broad St Ste 2098"
  },
  {
    "id": "4cdbfe24-ad60-4972-b9c0-9808b3dcb2ec",
    "name": "Rock Bottom Brewery- Charlotte",
    "brewery_type": "brewpub",
    "address_1": "401 N Tryon St Ste 100",
    "address_2": null,
    "address_3": null,
    "city": "Charlotte",
    "state_province": "North Carolina",
    "postal_code": "28202-2108",
    "country": "United States",
    "longitude": null,
    "latitude": null,
    "phone": "7043342739",
    "website_url": null,
    "state": "North Carolina",
    "street": "401 N Tryon St Ste 100"
  },
  {
    "id": "44077c53-4222-4274-920b-67acc073a101",
    "name": "Rock County Brewing Company",
    "brewery_type": "micro",
    "address_1": "10 N Parker Dr",
    "address_2": null,
    "address_3": null,
    "city": "Janesville",
    "state_province": "Wisconsin",
    "postal_code": "53545-",
    "country": "United States",
    "longitude": -89.02177314,
    "latitude": 42.68354565,
    "phone": "6085318120",
    "website_url": "http://www.rockcounty.beer",
    "state": "Wisconsin",
    "street": "10 N Parker Dr"
  },
  {
    "id": "6f35def1-f9b1-4712-9510-1c0b5b172b76",
    "name": "Rock Cut Brewing Company",
    "brewery_type": "micro",
    "address_1": "390 W Riverside Dr",
    "address_2": null,
    "address_3": null,
    "city": "Estes Park",
    "state_province": "Colorado",
    "postal_code": "80517",
    "country": "United States",
    "longitude": -105.5232105,
    "latitude": 40.37237825,
    "phone": "9705867300",
    "website_url": "http://www.rockcutbrewing.com",
    "state": "Colorado",
    "street": "390 W Riverside Dr"
  },
  {
    "id": "32ea9e78-433e-44ee-9be2-9ce878cb1a23",
    "name": "Rock God Brewing Company",
    "brewery_type": "micro",
    "address_1": "459 Rooney Ave",
    "address_2": null,
    "address_3": null,
    "city": "Danville",
    "state_province": "Pennsylvania",
    "postal_code": "17821-1897",
    "country": "United States",
    "longitude": -76.618447,
    "latitude": 40.962031,
    "phone": "5702844096",
    "website_url": "http://rockgodbeer.com",
    "state": "Pennsylvania",
    "street": "459 Rooney Ave"
  },
  {
    "id": "213a3276-bfc0-4b98-a47a-c46ce1584545",
    "name": "Rock Harbor Brewing Co.",
    "brewery_type": "micro",
    "address_1": "5 Payne Ave",
    "address_2": null,
    "address_3": null,
    "city": "Rockland",
    "state_province": "Maine",
    "postal_code": "04841",
    "country": "United States",
    "longitude": -69.127326,
    "latitude": 44.100544,
    "phone": "2077017811",
    "website_url": "http://www.rockharborbrewing.com",
    "state": "Maine",
    "street": "5 Payne Ave"
  },
  {
    "id": "b5dc01f5-90a9-414f-97a0-a6fd189da07b",
    "name": "Rock Harbor Pub & Brewery",
    "brewery_type": "brewpub",
    "address_1": "416 Main St",
    "address_2": null,
    "address_3": null,
    "city": "Rockland",
    "state_province": "Maine",
    "postal_code": "04841-3345",
    "country": "United States",
    "longitude": -69.10907557,
    "latitude": 44.1049557,
    "phone": "2075937488",
    "website_url": null,
    "state": "Maine",
    "street": "416 Main St"
  },
  {
    "id": "84fb6c47-0080-4500-8b15-a4fa2e33dd31",
    "name": "Rock House Brewing",
    "brewery_type": "micro",
    "address_1": "119 Luigart Ct",
    "address_2": null,
    "address_3": null,
    "city": "Lexington",
    "state_province": "Kentucky",
    "postal_code": "40508-1686",
    "country": "United States",
    "longitude": -84.48229841,
    "latitude": 38.05652337,
    "phone": "8593687064",
    "website_url": "http://www.rockhousebrewing.com",
    "state": "Kentucky",
    "street": "119 Luigart Ct"
  },
  {
    "id": "2e2e99bd-649c-48f9-aacf-5cf98b61c44f",
    "name": "Rock Wood Fired Pizza / Keep Rockin' LLC",
    "brewery_type": "contract",
    "address_1": "14209 29th St E Ste 102",
    "address_2": null,
    "address_3": null,
    "city": "Sumner",
    "state_province": "Washington",
    "postal_code": "98390-9689",
    "country": "United States",
    "longitude": null,
    "latitude": null,
    "phone": "2539875479",
    "website_url": null,
    "state": "Washington",
    "street": "14209 29th St E Ste 102"
  },
  {
    "id": "27fb789b-d906-4472-9632-92be3bb4f3ad",
    "name": "Rock Wood Fired Pizza & Brewery - Auburn",
    "brewery_type": "contract",
    "address_1": "1408 Lake Tapps Pkwy SE # E",
    "address_2": null,
    "address_3": null,
    "city": "Auburn",
    "state_province": "Washington",
    "postal_code": "98092-8158",
    "country": "United States",
    "longitude": -122.2095415,
    "latitude": 47.2448314,
    "phone": "2538337887",
    "website_url": "http://www.therockwfp.com",
    "state": "Washington",
    "street": "1408 Lake Tapps Pkwy SE # E"
  },
  {
    "id": "db570962-38c9-42b5-a055-f1cd30bd1359",
    "name": "Rock Wood Fired Pizza and Brewery - Lynnwood",
    "brewery_type": "contract",
    "address_1": "4010 196th St SW",
    "address_2": null,
    "address_3": null,
    "city": "Lynnwood",
    "state_province": "Washington",
    "postal_code": "98036-6715",
    "country": "United States",
    "longitude": -122.2876416,
    "latitude": 47.82048455,
    "phone": "4256976007",
    "website_url": "http://www.therockwfp.com",
    "state": "Washington",
    "street": "4010 196th St SW"
  },
  {
    "id": "56ef5319-3298-4ad2-9a3a-fb8b4fe3d0c5",
    "name": "Rock Wood Fired Pizza and Brewery - Tacoma",
    "brewery_type": "contract",
    "address_1": "1920 Jefferson Ave",
    "address_2": null,
    "address_3": null,
    "city": "Tacoma",
    "state_province": "Washington",
    "postal_code": "98402-1608",
    "country": "United States",
    "longitude": -122.4392853,
    "latitude": 47.24409495,
    "phone": "2532721221",
    "website_url": "http://www.therockwfp.com",
    "state": "Washington",
    "street": "1920 Jefferson Ave"
  },
  {
    "id": "82e2e95c-e46d-4f70-a656-deb90413d906",
    "name": "Rockaway Brewing Company",
    "brewery_type": "planning",
    "address_1": null,
    "address_2": null,
    "address_3": null,
    "city": "Arverne",
    "state_province": "New York",
    "postal_code": "11692-1044",
    "country": "United States",
    "longitude": null,
    "latitude": null,
    "phone": "7184826528",
    "website_url": "http://www.rockawaybrewco.com",
    "state": "New York",
    "street": null
  },
  {
    "id": "fefaf311-800c-46e3-b48e-d27b73ff4151",
    "name": "Rockaway Brewing Company",
    "brewery_type": "micro",
    "address_1": "4601 5th St",
    "address_2": null,
    "address_3": null,
    "city": "Long Island City",
    "state_province": "New York",
    "postal_code": "11101-5369",
    "country": "United States",
    "longitude": -73.9573397,
    "latitude": 40.7404088,
    "phone": "7184826528",
    "website_url": "http://www.rockawaybrewco.com",
    "state": "New York",
    "street": "4601 5th St"
  },
  {
    "id": "47780fac-1e74-42f8-ba32-bcba2efe0b48",
    "name": "Rocket Frog Brewing Company",
    "brewery_type": "micro",
    "address_1": "22560 Glenn Dr Ste 103",
    "address_2": null,
    "address_3": null,
    "city": "Sterling",
    "state_province": "Virginia",
    "postal_code": "20164-7143",
    "country": "United States",
    "longitude": -77.4292242,
    "latitude": 38.9992947,
    "phone": "7032445711",
    "website_url": "http://www.rocketfrogbeer.com",
    "state": "Virginia",
    "street": "22560 Glenn Dr Ste 103"
  },
  {
    "id": "7ea9525f-94f5-4e6e-99f9-70b9a35659e0",
    "name": "Rocket Republic Brewing Company",
    "brewery_type": "micro",
    "address_1": "289 Production Ave",
    "address_2": null,
    "address_3": null,
    "city": "Madison",
    "state_province": "Alabama",
    "postal_code": "35758-8991",
    "country": "United States",
    "longitude": -86.77401733,
    "latitude": 34.6728014,
    "phone": "2563254677",
    "website_url": "http://www.rocketrepublicbrewing.com",
    "state": "Alabama",
    "street": "289 Production Ave"
  },
  {
    "id": "94de03d1-716f-4c18-a2f4-9fff96851648",
    "name": "Rockford Brewing Company",
    "brewery_type": "brewpub",
    "address_1": "12 E Bridge St",
    "address_2": null,
    "address_3": null,
    "city": "Rockford",
    "state_province": "Michigan",
    "postal_code": "49341-1265",
    "country": "United States",
    "longitude": null,
    "latitude": null,
    "phone": "6169514677",
    "website_url": "http://www.RockfordBrewing.com",
    "state": "Michigan",
    "street": "12 E Bridge St"
  },
  {
    "id": "978b9a41-bade-4d32-9944-b05894afffde",
    "name": "Rockhound Brewing Co",
    "brewery_type": "brewpub",
    "address_1": "444 S Park St",
    "address_2": null,
    "address_3": null,
    "city": "Madison",
    "state_province": "Wisconsin",
    "postal_code": "53715-1618",
    "country": "United States",
    "longitude": -89.40064641,
    "latitude": 43.06238355,
    "phone": "6082859023",
    "website_url": "http://www.rockhoundbrewing.com",
    "state": "Wisconsin",
    "street": "444 S Park St"
  },
  {
    "id": "61cdc5d9-7649-48e7-b3df-c5a78bd42756",
    "name": "Rockingham Brewing Company",
    "brewery_type": "brewpub",
    "address_1": "1 Corporate Park Dr Unit 1",
    "address_2": null,
    "address_3": null,
    "city": "Derry",
    "state_province": "New Hampshire",
    "postal_code": "03038-2276",
    "country": "United States",
    "longitude": null,
    "latitude": null,
    "phone": "6032162324",
    "website_url": "http://www.rockinghambrewing.com",
    "state": "New Hampshire",
    "street": "1 Corporate Park Dr Unit 1"
  },
  {
    "id": "059fb0da-8330-4660-aeba-aa9a1c41288c",
    "name": "Rockmill Brewing Co",
    "brewery_type": "micro",
    "address_1": "5705 Lithopolis Rd NW",
    "address_2": null,
    "address_3": null,
    "city": "Lancaster",
    "state_province": "Ohio",
    "postal_code": "43130-9515",
    "country": "United States",
    "longitude": null,
    "latitude": null,
    "phone": "7402058076",
    "website_url": "http://www.rockmillbrewery.com",
    "state": "Ohio",
    "street": "5705 Lithopolis Rd NW"
  },
  {
    "id": "c6b4c5c8-5a02-4a51-84a2-29bb0e70930e",
    "name": "RockPit Brewing",
    "brewery_type": "micro",
    "address_1": "10 West Illiana St",
    "address_2": null,
    "address_3": null,
    "city": "Orlando",
    "state_province": "Florida",
    "postal_code": "32806",
    "country": "United States",
    "longitude": -81.37882592,
    "latitude": 28.51101657,
    "phone": "4076906612",
    "website_url": "http://www.rockpitbrewing.com",
    "state": "Florida",
    "street": "10 West Illiana St"
  },
  {
    "id": "9e585fa0-aaba-46cb-b291-a4d4b273f975",
    "name": "Rockslide Brewing Co",
    "brewery_type": "brewpub",
    "address_1": "401 Main St",
    "address_2": null,
    "address_3": null,
    "city": "Grand Junction",
    "state_province": "Colorado",
    "postal_code": "81501-2511",
    "country": "United States",
    "longitude": -108.5659153,
    "latitude": 39.0670106,
    "phone": "9702419311",
    "website_url": "http://www.rockslidebrewpub.com",
    "state": "Colorado",
    "street": "401 Main St"
  },
  {
    "id": "1d3d77bb-f54c-43cf-81cd-e5a763db1d3b",
    "name": "Rocksteady Brewing Co.",
    "brewery_type": "brewpub",
    "address_1": "611 Escobar St",
    "address_2": null,
    "address_3": null,
    "city": "Martinez",
    "state_province": "California",
    "postal_code": "94553-1111",
    "country": "United States",
    "longitude": -122.1378119,
    "latitude": 38.0177998,
    "phone": "9252288787",
    "website_url": "http://www.creekmonkey.com",
    "state": "California",
    "street": "611 Escobar St"
  },
  {
    "id": "c4099a64-9be0-4e03-9f24-218c35acd747",
    "name": "Rockwell Beer Company",
    "brewery_type": "regional",
    "address_1": "1320 S Vandeventer Ave",
    "address_2": null,
    "address_3": null,
    "city": "Saint Louis",
    "state_province": "Missouri",
    "postal_code": "63110",
    "country": "United States",
    "longitude": -90.251576,
    "latitude": 38.625572,
    "phone": "3142561657",
    "website_url": "http://www.rockwellbeer.com",
    "state": "Missouri",
    "street": "1320 S Vandeventer Ave"
  },
  {
    "id": "a97cece8-723b-47c3-8962-dd9b9cfe57e0",
    "name": "Rockwell Brewery",
    "brewery_type": "micro",
    "address_1": "880 N East St Unit 201",
    "address_2": null,
    "address_3": null,
    "city": "Frederick",
    "state_province": "Maryland",
    "postal_code": "21701-5045",
    "country": "United States",
    "longitude": null,
    "latitude": null,
    "phone": "3017324880",
    "website_url": "http://www.rockwellbrewery.com",
    "state": "Maryland",
    "street": "880 N East St Unit 201"
  }
]