[
  {
    "id": "15b37ef1-84bf-4c80-ba2e-74123482d2a1",
    "name": "Toolbox Brewing Company",
    "brewery_type": "micro",
    "address_1": "1495 Poinsettia Ave Ste 148",
    "address_2": null,
    "address_3": null,
    "city": "Vista",
    "state_province": "California",
    "postal_code": "92081-8539",
    "country": "United States",
    "longitude": -117.2239733,
    "latitude": 33.13599334,
    "phone": "7605981477",
    "website_url": "http://Toolboxbrewing.Com",
    "state": "California",
    "street": "1495 Poinsettia Ave Ste 148"
  },
  {
    "id": "84c1e0e9-5adc-423b-a1db-08bc1d946412",
    "name": "Tootsie's Brewery / Lone Oak Vineyard",
    "brewery_type": "brewpub",
    "address_1": "8400 Ann Arbor Rd",
    "address_2": null,
    "address_3": null,
    "city": "Grass Lake",
    "state_province": "Michigan",
    "postal_code": "49240-9586",
    "country": "United States",
    "longitude": null,
    "latitude": null,
    "phone": "5175228167",
    "website_url": "http://www.tootsiesbrewery.com",
    "state": "Michigan",
    "street": "8400 Ann Arbor Rd"
  },
  {
    "id": "cfee19cf-73ea-4a7e-9037-1105b4dbecd8",
    "name": "Top Frog Brewery",
    "brewery_type": "micro",
    "address_1": "221 Vista Dr",
    "address_2": null,
    "address_3": null,
    "city": "Newport",
    "state_province": "Washington",
    "postal_code": "99156-7014",
    "country": "United States",
    "longitude": -117.16077576379,
    "latitude": 48.313106841941,
    "phone": "5096712884",
    "website_url": null,
    "state": "Washington",
    "street": "221 Vista Dr"
  },
  {
    "id": "e498ccee-c405-451c-b27d-1426970983dc",
    "name": "Top Of The Hill Restaurant and Brewery",
    "brewery_type": "brewpub",
    "address_1": "100 E Franklin St Ste F",
    "address_2": null,
    "address_3": null,
    "city": "Chapel Hill",
    "state_province": "North Carolina",
    "postal_code": "27514-3629",
    "country": "United States",
    "longitude": null,
    "latitude": null,
    "phone": "9199298676",
    "website_url": "http://www.thetopofthehill.com",
    "state": "North Carolina",
    "street": "100 E Franklin St Ste F"
  },
  {
    "id": "3288ac09-54e4-46bb-bb90-89a6276a206e",
    "name": "Top Rung Brewing Company",
    "brewery_type": "micro",
    "address_1": "8343 Hogum Bay Ln NE Ste E",
    "address_2": null,
    "address_3": null,
    "city": "Lacey",
    "state_province": "Washington",
    "postal_code": "98516-3135",
    "country": "United States",
    "longitude": -122.76341099215,
    "latitude": 47.075904804273,
    "phone": "3609158766",
    "website_url": "http://www.toprungbrewing.com",
    "state": "Washington",
    "street": "8343 Hogum Bay Ln NE Ste E"
  },
  {
    "id": "781b62b5-1009-4bd0-97af-7287c2a69627",
    "name": "Topa Topa Brewing Co",
    "brewery_type": "micro",
    "address_1": "104 E Thompson Blvd",
    "address_2": null,
    "address_3": null,
    "city": "Ventura",
    "state_province": "California",
    "postal_code": "93001-2723",
    "country": "United States",
    "longitude": -119.2994446,
    "latitude": 34.2781592,
    "phone": "8056289255",
    "website_url": "http://www.topatopabrewingco.com",
    "state": "California",
    "street": "104 E Thompson Blvd"
  },
  {
    "id": "8ef9610b-bda9-4703-8205-34bcbac4cedf",
    "name": "Toppling Goliath Brewing Co",
    "brewery_type": "micro",
    "address_1": "1600 Prosperity Rd",
    "address_2": null,
    "address_3": null,
    "city": "Decorah",
    "state_province": "Iowa",
    "postal_code": "52101-7892",
    "country": "United States",
    "longitude": -91.7250841,
    "latitude": 43.2727293,
    "phone": "5633826198",
    "website_url": "http://www.tgbrews.com",
    "state": "Iowa",
    "street": "1600 Prosperity Rd"
  },
  {
    "id": "4497e1be-0cb7-4778-90ff-a910b56659e3",
    "name": "Topsy Turvy",
    "brewery_type": "planning",
    "address_1": null,
    "address_2": null,
    "address_3": null,
    "city": "Hampshire",
    "state_province": "Illinois",
    "postal_code": "60140-9449",
    "country": "United States",
    "longitude": null,
    "latitude": null,
    "phone": "8477787070",
    "website_url": null,
    "state": "Illinois",
    "street": null
  },
  {
    "id": "d13d0b82-f800-4d2c-b631-f614e314d910",
    "name": "Topsy's",
    "brewery_type": "brewpub",
    "address_1": "260 Kearny St",
    "address_2": null,
    "address_3": null,
    "city": "San Francisco",
    "state_province": "California",
    "postal_code": "94108-4538",
    "country": "United States",
    "longitude": -122.4038779,
    "latitude": 37.79052614,
    "phone": "4157570290",
    "website_url": "http://www.topsyssf.com",
    "state": "California",
    "street": "260 Kearny St"
  },
  {
    "id": "0cd8d2ab-c637-4f3f-b135-5d510fae588d",
    "name": "Torc Brewing",
    "brewery_type": "micro",
    "address_1": "JD Industrial Park",
    "address_2": "Scart",
    "address_3": null,
    "city": "Killarney",
    "state_province": "Kerry",
    "postal_code": "V93 H761",
    "country": "Ireland",
    "longitude": -9.5564852,
    "latitude": 52.1402528,
    "phone": "353876595858",
    "website_url": "http://www.torcbrewing.ie/",
    "state": "Kerry",
    "street": "JD Industrial Park"
  },
  {
    "id": "d9c48be3-cc34-4624-b4c9-f5dfc04bb240",
    "name": "Torched Hop Brewing Company",
    "brewery_type": "brewpub",
    "address_1": "249 Ponce de Leon Ave NE",
    "address_2": null,
    "address_3": null,
    "city": "Atlanta",
    "state_province": "Georgia",
    "postal_code": "30308-1937",
    "country": "United States",
    "longitude": -84.37929776,
    "latitude": 33.77232605,
    "phone": "4048352040",
    "website_url": "http://www.Torchedhopbrewing.com",
    "state": "Georgia",
    "street": "249 Ponce de Leon Ave NE"
  },
  {
    "id": "93271344-d85f-41c0-89f1-f57daf704d4c",
    "name": "Torg Brewery",
    "brewery_type": "planning",
    "address_1": null,
    "address_2": null,
    "address_3": null,
    "city": "Minneapolis",
    "state_province": "Minnesota",
    "postal_code": "55432",
    "country": "United States",
    "longitude": null,
    "latitude": null,
    "phone": "7636390539",
    "website_url": "http://www.torgbrewery.com",
    "state": "Minnesota",
    "street": null
  },
  {
    "id": "be539c44-e3bf-4344-af13-7d3daf10a539",
    "name": "Torn Label Brewing Company",
    "brewery_type": "micro",
    "address_1": "1708 Campbell St",
    "address_2": null,
    "address_3": null,
    "city": "Kansas City",
    "state_province": "Missouri",
    "postal_code": "64108-1524",
    "country": "United States",
    "longitude": -94.5731695,
    "latitude": 39.0926934,
    "phone": "8166565459",
    "website_url": "http://www.tornlabel.com",
    "state": "Missouri",
    "street": "1708 Campbell St"
  },
  {
    "id": "53beda27-334d-46d5-8cb5-7336cc42f7b7",
    "name": "Toro Creek Brewing Co",
    "brewery_type": "micro",
    "address_1": "1111 Riverside Ave, Ste 103",
    "address_2": null,
    "address_3": null,
    "city": "Paso Robles",
    "state_province": "California",
    "postal_code": "93446",
    "country": "United States",
    "longitude": -120.6872603,
    "latitude": 35.6262455,
    "phone": "8055507007",
    "website_url": "http://www.torocreekbrewingcompany.com",
    "state": "California",
    "street": "1111 Riverside Ave, Ste 103"
  },
  {
    "id": "542910b2-3af4-4b62-b5d4-d8edf440cd1a",
    "name": "Torrent Brewing Co",
    "brewery_type": "micro",
    "address_1": "504 Burnett Ave",
    "address_2": null,
    "address_3": null,
    "city": "Ames",
    "state_province": "Iowa",
    "postal_code": "50010-6178",
    "country": "United States",
    "longitude": -93.61526616,
    "latitude": 42.02605341,
    "phone": "5152333155",
    "website_url": "http://www.torrentbrewingco.com",
    "state": "Iowa",
    "street": "504 Burnett Ave"
  },
  {
    "id": "543f9be5-b99f-4537-a641-67ecc55ca1a8",
    "name": "Tortugo Brewing Company",
    "brewery_type": "planning",
    "address_1": null,
    "address_2": null,
    "address_3": null,
    "city": "Inglewood",
    "state_province": "California",
    "postal_code": "90302-3308",
    "country": "United States",
    "longitude": -118.3550377,
    "latitude": 33.96185,
    "phone": null,
    "website_url": null,
    "state": "California",
    "street": null
  },
  {
    "id": "8ee26476-e33e-4940-95f9-75bb761d5324",
    "name": "Touchstone Brewing Company",
    "brewery_type": "planning",
    "address_1": null,
    "address_2": null,
    "address_3": null,
    "city": "Sacramento",
    "state_province": "California",
    "postal_code": "95811-0618",
    "country": "United States",
    "longitude": -121.4943996,
    "latitude": 38.5815719,
    "phone": "4155701391",
    "website_url": null,
    "state": "California",
    "street": null
  },
  {
    "id": "8768b214-ee24-40b3-b4cb-1b03862eabb8",
    "name": "Tower Brewing Co",
    "brewery_type": "micro",
    "address_1": "1210 66th St Unit B",
    "address_2": null,
    "address_3": null,
    "city": "Sacramento",
    "state_province": "California",
    "postal_code": "95819-4327",
    "country": "United States",
    "longitude": -121.4266488,
    "latitude": 38.55493463,
    "phone": "9162724472",
    "website_url": "http://towerbrewingcompany.com",
    "state": "California",
    "street": "1210 66th St Unit B"
  },
  {
    "id": "594a7d7b-1885-4697-863e-5d60203b8a8a",
    "name": "Towerhill Brewery",
    "brewery_type": "brewpub",
    "address_1": "237 W Butler Ave",
    "address_2": null,
    "address_3": null,
    "city": "Chalfont",
    "state_province": "Pennsylvania",
    "postal_code": "18914-3020",
    "country": "United States",
    "longitude": -75.21378231,
    "latitude": 40.27984378,
    "phone": "2158228788",
    "website_url": "http://www.towerhillbrewery.com",
    "state": "Pennsylvania",
    "street": "237 W Butler Ave"
  },
  {
    "id": "16260ec1-907c-4e9b-bbac-ed70973e1ed2",
    "name": "Town Branch Distillery",
    "brewery_type": "micro",
    "address_1": "401 Cross St",
    "address_2": null,
    "address_3": null,
    "city": "Lexington",
    "state_province": "Kentucky",
    "postal_code": "40508",
    "country": "United States",
    "longitude": -84.50889213,
    "latitude": 38.04997369,
    "phone": "8592552337",
    "website_url": null,
    "state": "Kentucky",
    "street": "401 Cross St"
  },
  {
    "id": "24a7dd60-ad86-43d3-84ae-1e51aaf6d7f9",
    "name": "Town In City Brewing Co, LLC",
    "brewery_type": "micro",
    "address_1": "1125 W Cavalcade St",
    "address_2": null,
    "address_3": null,
    "city": "Houston",
    "state_province": "Texas",
    "postal_code": "77009-2907",
    "country": "United States",
    "longitude": -95.3870438,
    "latitude": 29.8036158,
    "phone": "8328347151",
    "website_url": "http://townincitybrewing.com",
    "state": "Texas",
    "street": "1125 W Cavalcade St"
  },
  {
    "id": "82f645a5-0677-4e18-af76-30c25e84ad88",
    "name": "Towne Park Brew Co",
    "brewery_type": "closed",
    "address_1": "19191 Lawrence Cyn",
    "address_2": null,
    "address_3": null,
    "city": "Silverado",
    "state_province": "California",
    "postal_code": "92676-9731",
    "country": "United States",
    "longitude": -117.6243323,
    "latitude": 33.68926191,
    "phone": "9496473562",
    "website_url": "http://www.towneparkbrew.com",
    "state": "California",
    "street": "19191 Lawrence Cyn"
  },
  {
    "id": "8e300f8a-fce3-446f-bbb4-aac35ff1a08e",
    "name": "Townies Brewery",
    "brewery_type": "brewpub",
    "address_1": "2350 W Liberty Rd",
    "address_2": null,
    "address_3": null,
    "city": "Ann Arbor",
    "state_province": "Michigan",
    "postal_code": "48103",
    "country": "United States",
    "longitude": -83.7891745,
    "latitude": 42.2730356,
    "phone": null,
    "website_url": null,
    "state": "Michigan",
    "street": "2350 W Liberty Rd"
  },
  {
    "id": "5929b669-4b2a-4369-bbbd-fff26a936c19",
    "name": "Township 7 Brewing Co. LLC",
    "brewery_type": "micro",
    "address_1": "303 State Route 11b",
    "address_2": null,
    "address_3": null,
    "city": "Dickinson Center",
    "state_province": "New York",
    "postal_code": "12930-2008",
    "country": "United States",
    "longitude": null,
    "latitude": null,
    "phone": "5186519532",
    "website_url": "http://www.township7brewing.com",
    "state": "New York",
    "street": "303 State Route 11b"
  },
  {
    "id": "094745e6-3b1e-4549-a2db-76bf222e4561",
    "name": "Tox Brewing Company",
    "brewery_type": "micro",
    "address_1": "635 Broad St",
    "address_2": null,
    "address_3": null,
    "city": "New London",
    "state_province": "Connecticut",
    "postal_code": "06320-2543",
    "country": "United States",
    "longitude": null,
    "latitude": null,
    "phone": null,
    "website_url": "https://www.toxbrewing.com",
    "state": "Connecticut",
    "street": "635 Broad St"
  },
  {
    "id": "f1f9309d-bf1e-4b7a-95b8-ea3505cad878",
    "name": "Toxic Brew Company",
    "brewery_type": "brewpub",
    "address_1": "431 E 5th St",
    "address_2": null,
    "address_3": null,
    "city": "Dayton",
    "state_province": "Ohio",
    "postal_code": "45402-2911",
    "country": "United States",
    "longitude": -84.1843655,
    "latitude": 39.75724887,
    "phone": "9379853618",
    "website_url": "http://www.toxicbrewcompany.com",
    "state": "Ohio",
    "street": "431 E 5th St"
  },
  {
    "id": "9c82613b-d6ae-43bf-bd12-c00b05058fde",
    "name": "Toy Soldier",
    "brewery_type": "brewpub",
    "address_1": "52 Belden Pl",
    "address_2": null,
    "address_3": null,
    "city": "San Francisco",
    "state_province": "California",
    "postal_code": "94104",
    "country": "United States",
    "longitude": -122.403671,
    "latitude": 37.79129781,
    "phone": "4159069048",
    "website_url": "http://www.toysoldiersf.com",
    "state": "California",
    "street": "52 Belden Pl"
  },
  {
    "id": "9c55c622-8dbc-40ff-bfda-02e71952c2fc",
    "name": "Trace Brewing",
    "brewery_type": "planning",
    "address_1": null,
    "address_2": null,
    "address_3": null,
    "city": "Nashville",
    "state_province": "Tennessee",
    "postal_code": "37221-3967",
    "country": "United States",
    "longitude": null,
    "latitude": null,
    "phone": null,
    "website_url": null,
    "state": "Tennessee",
    "street": null
  },
  {
    "id": "34596a5d-9c0a-4b73-943d-e50b5cf07dbf",
    "name": "Track 7 Brewing Co - Curtis Park",
    "brewery_type": "micro",
    "address_1": "3747 W Pacific Ave Ste F",
    "address_2": null,
    "address_3": null,
    "city": "Sacramento",
    "state_province": "California",
    "postal_code": "95820-1000",
    "country": "United States",
    "longitude": -121.4819794,
    "latitude": 38.53890682,
    "phone": "9165204677",
    "website_url": "http://www.track7brewing.com",
    "state": "California",
    "street": "3747 W Pacific Ave Ste F"
  },
  {
    "id": "e2b7686b-885a-4114-b895-681557275183",
    "name": "Track 7 Brewing Co - Natomas",
    "brewery_type": "micro",
    "address_1": "826 Professor Ln Ste 100",
    "address_2": null,
    "address_3": null,
    "city": "Sacramento",
    "state_province": "California",
    "postal_code": "95834-7743",
    "country": "United States",
    "longitude": -121.4908802,
    "latitude": 38.6543681,
    "phone": "9165204677",
    "website_url": null,
    "state": "California",
    "street": "826 Professor Ln Ste 100"
  },
  {
    "id": "373559ad-c964-477c-a443-f0531e3f78b0",
    "name": "Tractor Brewing Co",
    "brewery_type": "micro",
    "address_1": "1800 4th St NW",
    "address_2": null,
    "address_3": null,
    "city": "Albuquerque",
    "state_province": "New Mexico",
    "postal_code": "87102-1426",
    "country": "United States",
    "longitude": -106.6478962,
    "latitude": 35.1022749,
    "phone": "5052436752",
    "website_url": "http://www.getplowed.com",
    "state": "New Mexico",
    "street": "1800 4th St NW"
  },
  {
    "id": "2f9d7258-dbf0-44b0-bb2f-9b0cd5ad590d",
    "name": "TractorLift Brewery",
    "brewery_type": "micro",
    "address_1": "708 Sumner Ave",
    "address_2": null,
    "address_3": null,
    "city": "Humboldt",
    "state_province": "Iowa",
    "postal_code": "50548-1763",
    "country": "United States",
    "longitude": -94.21895665,
    "latitude": 42.72094547,
    "phone": "5158909484",
    "website_url": null,
    "state": "Iowa",
    "street": "708 Sumner Ave"
  },
  {
    "id": "53f445a3-9f37-4357-a421-899ee1a1b99a",
    "name": "Trade Brewing",
    "brewery_type": "micro",
    "address_1": "731 1st St",
    "address_2": null,
    "address_3": null,
    "city": "Napa",
    "state_province": "California",
    "postal_code": "94559-2624",
    "country": "United States",
    "longitude": -122.2821838,
    "latitude": 38.30073396,
    "phone": "7074928223",
    "website_url": "http://www.tradebrewing.com",
    "state": "California",
    "street": "731 1st St"
  },
  {
    "id": "d98dcb64-5f67-4815-84c0-5bb77228fd57",
    "name": "Trader Joes - West Coast Office",
    "brewery_type": "contract",
    "address_1": "800 S. Shamrock Ave",
    "address_2": null,
    "address_3": null,
    "city": "Monrovia",
    "state_province": "California",
    "postal_code": "91016",
    "country": "United States",
    "longitude": null,
    "latitude": null,
    "phone": "6265993700",
    "website_url": null,
    "state": "California",
    "street": "800 S. Shamrock Ave"
  },
  {
    "id": "4e2d1963-f8b7-4680-b972-97de485bbbf9",
    "name": "Traders Brewing Company",
    "brewery_type": "micro",
    "address_1": "8587  ZIONSVILLE ROAD",
    "address_2": null,
    "address_3": null,
    "city": "INDIANAPOLIS",
    "state_province": "Indiana",
    "postal_code": "46268",
    "country": "United States",
    "longitude": null,
    "latitude": null,
    "phone": "3172807505",
    "website_url": "http://www.tradersbrewingcompany.com",
    "state": "Indiana",
    "street": "8587  ZIONSVILLE ROAD"
  },
  {
    "id": "f441dad2-da0b-43b0-86e6-5fc1cc720c2d",
    "name": "Tradesman Brewing Company",
    "brewery_type": "micro",
    "address_1": "1639 Tatum St",
    "address_2": null,
    "address_3": null,
    "city": "Charleston",
    "state_province": "South Carolina",
    "postal_code": "29412-2646",
    "country": "United States",
    "longitude": -79.97321382,
    "latitude": 32.76013923,
    "phone": "8434101315",
    "website_url": "http://www.tradesmanbrewing.com",
    "state": "South Carolina",
    "street": "1639 Tatum St"
  },
  {
    "id": "c05a5aeb-acfe-454b-8596-b04edddf1bc5",
    "name": "Tradition Brewing Company",
    "brewery_type": "micro",
    "address_1": "700 Thimble Shoals Blvd Ste 103",
    "address_2": null,
    "address_3": null,
    "city": "Newport News",
    "state_province": "Virginia",
    "postal_code": "23606-4532",
    "country": "United States",
    "longitude": -76.4770317,
    "latitude": 37.0845471,
    "phone": "7575929393",
    "website_url": "http://www.traditionbrewing.com",
    "state": "Virginia",
    "street": "700 Thimble Shoals Blvd Ste 103"
  },
  {
    "id": "9a256c21-3a8b-480b-9cb5-fc52084fedca",
    "name": "Traffic Jam and Snug",
    "brewery_type": "brewpub",
    "address_1": "4268 2nd Ave",
    "address_2": null,
    "address_3": null,
    "city": "Detroit",
    "state_province": "Michigan",
    "postal_code": "48201-1706",
    "country": "United States",
    "longitude": -83.086546,
    "latitude": 42.384371,
    "phone": "3138319470",
    "website_url": "http://www.trafficjamdetroit.com",
    "state": "Michigan",
    "street": "4268 2nd Ave"
  },
  {
    "id": "0f1ed8ab-a282-40c9-8a58-1dfc03e7ce6f",
    "name": "Trail Crest Brewing Company",
    "brewery_type": "brewpub",
    "address_1": "1800 S Milton Rd Ste 11",
    "address_2": null,
    "address_3": null,
    "city": "Flagstaff",
    "state_province": "Arizona",
    "postal_code": "86001",
    "country": "United States",
    "longitude": null,
    "latitude": null,
    "phone": "9284405085",
    "website_url": "http://www.trailcrestbrewing.com",
    "state": "Arizona",
    "street": "1800 S Milton Rd Ste 11"
  },
  {
    "id": "abcd1ceb-8283-4d5f-aeb9-bda3778067c7",
    "name": "Trail Dog Brewing Co.",
    "brewery_type": "planning",
    "address_1": null,
    "address_2": null,
    "address_3": null,
    "city": "Novato",
    "state_province": "California",
    "postal_code": "94945-3318",
    "country": "United States",
    "longitude": -122.5681191,
    "latitude": 38.1061979,
    "phone": "4157580411",
    "website_url": "http://traildogbrewing.com",
    "state": "California",
    "street": null
  },
  {
    "id": "4ed098f5-5ff6-40b9-b238-538961222e90",
    "name": "Trail Point Brewing Co.",
    "brewery_type": "micro",
    "address_1": "6035 Lake Michigan Dr",
    "address_2": null,
    "address_3": null,
    "city": "Allendale",
    "state_province": "Michigan",
    "postal_code": "49401-9101",
    "country": "United States",
    "longitude": -85.93541536,
    "latitude": 42.97207782,
    "phone": "6168952739",
    "website_url": "http://www.trailpointbrewing.com",
    "state": "Michigan",
    "street": "6035 Lake Michigan Dr"
  },
  {
    "id": "64e8e735-2d18-48d8-8dbd-f6729513da71",
    "name": "Trailhead Brewing Co",
    "brewery_type": "closed",
    "address_1": "921 S Riverside Dr",
    "address_2": null,
    "address_3": null,
    "city": "Saint Charles",
    "state_province": "Missouri",
    "postal_code": "63301-3489",
    "country": "United States",
    "longitude": -90.48424843,
    "latitude": 38.77419057,
    "phone": "6369462739",
    "website_url": "http://www.trailheadbrewing.com",
    "state": "Missouri",
    "street": "921 S Riverside Dr"
  },
  {
    "id": "c9f36d18-efb4-419c-8acf-b4598bbf2326",
    "name": "Transient Artisan Ales",
    "brewery_type": "micro",
    "address_1": "4229 Lake St",
    "address_2": null,
    "address_3": null,
    "city": "Bridgman",
    "state_province": "Michigan",
    "postal_code": "49106-9109",
    "country": "United States",
    "longitude": -86.55570937,
    "latitude": 41.94299804,
    "phone": null,
    "website_url": null,
    "state": "Michigan",
    "street": "4229 Lake St"
  },
  {
    "id": "477bfcda-4e96-4f41-a17b-3b1d0407eae0",
    "name": "Transmission Brewing Company",
    "brewery_type": "planning",
    "address_1": null,
    "address_2": null,
    "address_3": null,
    "city": "Oxnard",
    "state_province": "California",
    "postal_code": "93030-8231",
    "country": "United States",
    "longitude": -119.1803818,
    "latitude": 34.1976308,
    "phone": "8054076133",
    "website_url": "http://jonkercarey@gmail.com",
    "state": "California",
    "street": null
  },
  {
    "id": "145e08e2-df7d-4dfb-a67d-d4f342e9aa6d",
    "name": "Transmitter Brewing",
    "brewery_type": "micro",
    "address_1": "5302 11th St",
    "address_2": null,
    "address_3": null,
    "city": "Long Island City",
    "state_province": "New York",
    "postal_code": "11101-5917",
    "country": "United States",
    "longitude": -73.9511062,
    "latitude": 40.7431826,
    "phone": "6463788529",
    "website_url": "http://www.transmitterbrew.com",
    "state": "New York",
    "street": "5302 11th St"
  },
  {
    "id": "1fd4733e-3c00-46a6-a358-36877f23cc09",
    "name": "Transparent Brewing Company",
    "brewery_type": "micro",
    "address_1": "14501 White Ave",
    "address_2": null,
    "address_3": null,
    "city": "Grandview",
    "state_province": "Missouri",
    "postal_code": "64030",
    "country": "United States",
    "longitude": -94.525651,
    "latitude": 38.893126,
    "phone": "8164998888",
    "website_url": "http://www.transparentbrewingcompany.com",
    "state": "Missouri",
    "street": "14501 White Ave"
  },
  {
    "id": "dcc8e5fc-a531-4bed-be1f-c5ae640053e0",
    "name": "Transplants Brewing Company",
    "brewery_type": "micro",
    "address_1": "40242 La Quinta Ln Ste 101",
    "address_2": null,
    "address_3": null,
    "city": "Palmdale",
    "state_province": "California",
    "postal_code": "93551-3630",
    "country": "United States",
    "longitude": -118.1397352,
    "latitude": 34.61452922,
    "phone": "6612667911",
    "website_url": "http://www.transplantsbrewing.com",
    "state": "California",
    "street": "40242 La Quinta Ln Ste 101"
  },
  {
    "id": "1a25fc20-de4d-4e06-aed5-0013bc2446ee",
    "name": "Transport Brewery",
    "brewery_type": "planning",
    "address_1": null,
    "address_2": null,
    "address_3": null,
    "city": "Shawnee",
    "state_province": "Kansas",
    "postal_code": "66203-2749",
    "country": "United States",
    "longitude": null,
    "latitude": null,
    "phone": null,
    "website_url": "http://www.transportbrewery.com",
    "state": "Kansas",
    "street": null
  },
  {
    "id": "0bbdd47a-69a9-4e92-b688-b1afa2031390",
    "name": "Trap Door Brewing",
    "brewery_type": "micro",
    "address_1": "2315 Main St",
    "address_2": null,
    "address_3": null,
    "city": "Vancouver",
    "state_province": "Washington",
    "postal_code": "98660-2641",
    "country": "United States",
    "longitude": -122.6713099,
    "latitude": 45.63904644,
    "phone": "5037582569",
    "website_url": "http://www.trapdoorbrewing.com",
    "state": "Washington",
    "street": "2315 Main St"
  },
  {
    "id": "e41000c2-f355-4cad-ab5c-bd1b96185861",
    "name": "Trap Rock Brewing Co.",
    "brewery_type": "planning",
    "address_1": null,
    "address_2": null,
    "address_3": null,
    "city": "Saint Croix Falls",
    "state_province": "Wisconsin",
    "postal_code": "54024",
    "country": "United States",
    "longitude": null,
    "latitude": null,
    "phone": null,
    "website_url": "http://traprockbrewing.com",
    "state": "Wisconsin",
    "street": null
  }
]