[
  {
    "id": "9140eb7f-d86d-4fee-981e-4f7527d91a22",
    "name": "Commerce Street Brewery Hotel",
    "brewery_type": "brewpub",
    "address_1": "23 Commerce St",
    "address_2": null,
    "address_3": null,
    "city": "Mineral Point",
    "state_province": "Wisconsin",
    "postal_code": "53565-1368",
    "country": "United States",
    "longitude": -90.17712179,
    "latitude": 42.85729962,
    "phone": "6089873298",
    "website_url": "http://www.commercehotel.com",
    "state": "Wisconsin",
    "street": "23 Commerce St"
  },
  {
    "id": "1b88bddd-2c59-40db-b4de-91da36b0db0f",
    "name": "Common Block Brewing Company",
    "brewery_type": "contract",
    "address_1": "315 E 5th Street",
    "address_2": null,
    "address_3": null,
    "city": "Medford",
    "state_province": "Oregon",
    "postal_code": "97501",
    "country": "United States",
    "longitude": -122.872489,
    "latitude": 42.32896155,
    "phone": "5413262277",
    "website_url": "http://www.commonblockbrewing.com",
    "state": "Oregon",
    "street": "315 E 5th Street"
  },
  {
    "id": "2b4c2853-9c07-49c6-a9bc-4953a248a6e3",
    "name": "Common Bond Brewers, LLC",
    "brewery_type": "micro",
    "address_1": "424 Bibb Street Suite 150",
    "address_2": null,
    "address_3": null,
    "city": "Montgomery",
    "state_province": "Alabama",
    "postal_code": "36104",
    "country": "United States",
    "longitude": null,
    "latitude": null,
    "phone": "3346762292",
    "website_url": "http://www.commonbondbrewers.com",
    "state": "Alabama",
    "street": "424 Bibb Street Suite 150"
  },
  {
    "id": "ea4549e2-a9e1-42db-a431-2e6299712c50",
    "name": "Common John Brewing Co",
    "brewery_type": "planning",
    "address_1": null,
    "address_2": null,
    "address_3": null,
    "city": "Manchester",
    "state_province": "Tennessee",
    "postal_code": "37355-6064",
    "country": "United States",
    "longitude": null,
    "latitude": null,
    "phone": "9314090630",
    "website_url": "http://www.commonjohnbc.com",
    "state": "Tennessee",
    "street": null
  },
  {
    "id": "27deece5-5ab9-4506-9b46-33f0a44fc8b4",
    "name": "Common Roots Brewing Company",
    "brewery_type": "micro",
    "address_1": "58 Saratoga Ave",
    "address_2": null,
    "address_3": null,
    "city": "South Glens Falls",
    "state_province": "New York",
    "postal_code": "12803-4837",
    "country": "United States",
    "longitude": null,
    "latitude": null,
    "phone": "5184098248",
    "website_url": "http://www.commonrootsbrewing.com",
    "state": "New York",
    "street": "58 Saratoga Ave"
  },
  {
    "id": "986f0534-cf91-42e9-ac9c-7a481baf74e1",
    "name": "Common Sense Brewing",
    "brewery_type": "micro",
    "address_1": "102 Farnsworth Ave",
    "address_2": null,
    "address_3": null,
    "city": "Bordentown",
    "state_province": "New Jersey",
    "postal_code": "08505-1308",
    "country": "United States",
    "longitude": -74.71372844,
    "latitude": 40.14847167,
    "phone": "6095268651",
    "website_url": "http://www.commonsensebrewing.com",
    "state": "New Jersey",
    "street": "102 Farnsworth Ave"
  },
  {
    "id": "be75d031-fb04-4805-9de2-962ea65fe830",
    "name": "Common Space Brewery",
    "brewery_type": "micro",
    "address_1": "3411 W El Segundo Blvd",
    "address_2": null,
    "address_3": null,
    "city": "Hawthorne",
    "state_province": "California",
    "postal_code": "90250-4816",
    "country": "United States",
    "longitude": -118.3328574,
    "latitude": 33.91653119,
    "phone": "3106662825",
    "website_url": "http://www.commonspace.la",
    "state": "California",
    "street": "3411 W El Segundo Blvd"
  },
  {
    "id": "e99f22dd-9f82-4a46-9666-dbf81cec179f",
    "name": "Commoners Brewing Company",
    "brewery_type": "micro",
    "address_1": "1048 Copperfield Blvd Ste 101",
    "address_2": null,
    "address_3": null,
    "city": "Concord",
    "state_province": "North Carolina",
    "postal_code": "28025",
    "country": "United States",
    "longitude": null,
    "latitude": null,
    "phone": "7048866002",
    "website_url": "http://www.commonersbrewingcompany.com",
    "state": "North Carolina",
    "street": "1048 Copperfield Blvd Ste 101"
  },
  {
    "id": "ef9f8a53-3e7e-4d5b-acb1-82692306aa19",
    "name": "Commonhouse Ales",
    "brewery_type": "micro",
    "address_1": "535 Short St",
    "address_2": null,
    "address_3": null,
    "city": "Columbus",
    "state_province": "Ohio",
    "postal_code": "43215-5614",
    "country": "United States",
    "longitude": -83.00367741,
    "latitude": 39.95045334,
    "phone": "6142530272",
    "website_url": "http://www.commonhouseales.com",
    "state": "Ohio",
    "street": "535 Short St"
  },
  {
    "id": "8566eecd-9030-4cd7-9b06-5202a6b4e7c2",
    "name": "Commonhouse Aleworks",
    "brewery_type": "micro",
    "address_1": "4831 Ohear Ave",
    "address_2": null,
    "address_3": null,
    "city": "North Charleston",
    "state_province": "South Carolina",
    "postal_code": "29405-4925",
    "country": "United States",
    "longitude": -79.9755638,
    "latitude": 32.88299711,
    "phone": "8436081331",
    "website_url": "http://www.commonhousealeworks.com",
    "state": "South Carolina",
    "street": "4831 Ohear Ave"
  },
  {
    "id": "99a4ae42-941c-455f-a6c7-f37276961d4e",
    "name": "Commonwealth Brewing Co.",
    "brewery_type": "micro",
    "address_1": "2444 Pleasure House Rd",
    "address_2": null,
    "address_3": null,
    "city": "Virginia Beach",
    "state_province": "Virginia",
    "postal_code": "23455-1348",
    "country": "United States",
    "longitude": -76.1318655,
    "latitude": 36.9135253,
    "phone": "7573059652",
    "website_url": "http://www.commonwealthbrewco.com",
    "state": "Virginia",
    "street": "2444 Pleasure House Rd"
  },
  {
    "id": "ff07eef9-fd76-4909-9f8b-e3d690dab516",
    "name": "Community Beer Co",
    "brewery_type": "regional",
    "address_1": "1530 Inspiration Dr # 200",
    "address_2": null,
    "address_3": null,
    "city": "Dallas",
    "state_province": "Texas",
    "postal_code": "75207-3703",
    "country": "United States",
    "longitude": -96.81658792,
    "latitude": 32.79177896,
    "phone": null,
    "website_url": null,
    "state": "Texas",
    "street": "1530 Inspiration Dr # 200"
  },
  {
    "id": "9d79e9ce-34c7-4232-b9b6-f218a0fdfde6",
    "name": "Community Beer Works",
    "brewery_type": "micro",
    "address_1": "15 Lafayette Ave",
    "address_2": null,
    "address_3": null,
    "city": "Buffalo",
    "state_province": "New York",
    "postal_code": "14213-1344",
    "country": "United States",
    "longitude": -78.8980697,
    "latitude": 42.9198446,
    "phone": "7167594677",
    "website_url": "http://www.communitybeerworks.com",
    "state": "New York",
    "street": "15 Lafayette Ave"
  },
  {
    "id": "5eaaf2e2-d018-49d9-96fb-b9792b7f0576",
    "name": "Compadre Brewing",
    "brewery_type": "planning",
    "address_1": null,
    "address_2": null,
    "address_3": null,
    "city": "Aound Rock",
    "state_province": "Texas",
    "postal_code": "78660",
    "country": "United States",
    "longitude": null,
    "latitude": null,
    "phone": "3615103472",
    "website_url": "http://www.compadrebrewing.com",
    "state": "Texas",
    "street": null
  },
  {
    "id": "15a2144f-9a86-48fd-9fc4-5c450fd828fd",
    "name": "Company Brewing Co",
    "brewery_type": "brewpub",
    "address_1": "735 E Center St",
    "address_2": null,
    "address_3": null,
    "city": "Milwaukee",
    "state_province": "Wisconsin",
    "postal_code": "53212-2944",
    "country": "United States",
    "longitude": -87.90182086,
    "latitude": 43.0672919,
    "phone": "4149300909",
    "website_url": "https://www.companybrewing.com",
    "state": "Wisconsin",
    "street": "735 E Center St"
  },
  {
    "id": "07e76f00-bcbc-4134-a322-679dbcc0b8ec",
    "name": "Compass Rose",
    "brewery_type": "micro",
    "address_1": "3201 Northside Dr, Ste. 101",
    "address_2": null,
    "address_3": null,
    "city": "Raleigh",
    "state_province": "North Carolina",
    "postal_code": "27615-4126",
    "country": "United States",
    "longitude": -78.582171,
    "latitude": 35.883411,
    "phone": "9198755683",
    "website_url": "http://www.compassrosebrewery.com",
    "state": "North Carolina",
    "street": "3201 Northside Dr, Ste. 101"
  },
  {
    "id": "e0b5cb85-eab8-400f-85b7-95a600e7740b",
    "name": "Component Brewing Co",
    "brewery_type": "micro",
    "address_1": "2018 S 1st St Ste 207",
    "address_2": null,
    "address_3": null,
    "city": "Milwaukee",
    "state_province": "Wisconsin",
    "postal_code": "53207",
    "country": "United States",
    "longitude": -87.910782559756,
    "latitude": 43.006897276507,
    "phone": "4149791088",
    "website_url": "http://www.componentbrewing.com",
    "state": "Wisconsin",
    "street": "2018 S 1st St Ste 207"
  },
  {
    "id": "828523e3-2c37-43f8-bcda-31932e088de0",
    "name": "Comrade Brewing Company",
    "brewery_type": "micro",
    "address_1": "7667 E Iliff Ave Ste F",
    "address_2": null,
    "address_3": null,
    "city": "Denver",
    "state_province": "Colorado",
    "postal_code": "80231-5361",
    "country": "United States",
    "longitude": null,
    "latitude": null,
    "phone": "7207480700",
    "website_url": "http://comradebrewing.com",
    "state": "Colorado",
    "street": "7667 E Iliff Ave Ste F"
  },
  {
    "id": "6c091b85-b347-4bdf-994a-6f1bdd0d9461",
    "name": "Conclave Brewing",
    "brewery_type": "micro",
    "address_1": "15 Minneakoning Rd Ste 202",
    "address_2": null,
    "address_3": null,
    "city": "Flemington",
    "state_province": "New Jersey",
    "postal_code": "08822-5750",
    "country": "United States",
    "longitude": -74.842079,
    "latitude": 40.53132933,
    "phone": "9083920893",
    "website_url": "http://www.conclavebrewing.com",
    "state": "New Jersey",
    "street": "15 Minneakoning Rd Ste 202"
  },
  {
    "id": "fecd5791-19fe-43ae-b618-3ddf1e3d9761",
    "name": "Concord Craft Brewery",
    "brewery_type": "micro",
    "address_1": "117 Storrs St",
    "address_2": null,
    "address_3": null,
    "city": "Concord",
    "state_province": "New Hampshire",
    "postal_code": "03301-4839",
    "country": "United States",
    "longitude": -71.534205,
    "latitude": 43.204108,
    "phone": "6038567625",
    "website_url": "http://www.concordcraftbrewing.com",
    "state": "New Hampshire",
    "street": "117 Storrs St"
  },
  {
    "id": "048b7e46-aa54-4397-8f42-93b9fd2cd93c",
    "name": "Concrete Beach Brewery",
    "brewery_type": "micro",
    "address_1": "325 NW 24th St",
    "address_2": null,
    "address_3": null,
    "city": "Miami",
    "state_province": "Florida",
    "postal_code": "33127-4325",
    "country": "United States",
    "longitude": -80.20091709,
    "latitude": 25.800254,
    "phone": "3057962727",
    "website_url": "http://www.concretebeachbrewery.com/",
    "state": "Florida",
    "street": "325 NW 24th St"
  },
  {
    "id": "260ec59d-2c3d-4fb1-957b-ec0a6d2cee5a",
    "name": "Coney Island Beer",
    "brewery_type": "micro",
    "address_1": "1904 Surf Ave",
    "address_2": null,
    "address_3": null,
    "city": "Brooklyn",
    "state_province": "New York",
    "postal_code": "11224-2410",
    "country": "United States",
    "longitude": -73.98572367,
    "latitude": 40.57502661,
    "phone": "8184518452",
    "website_url": "http://www.coneyislandbeer.com",
    "state": "New York",
    "street": "1904 Surf Ave"
  },
  {
    "id": "5447d888-e88c-4480-9258-a649dbd94cdd",
    "name": "Confluence Brewing Co",
    "brewery_type": "micro",
    "address_1": "1235 Thomas Beck Rd Ste A",
    "address_2": null,
    "address_3": null,
    "city": "Des Moines",
    "state_province": "Iowa",
    "postal_code": "50315-1055",
    "country": "United States",
    "longitude": -93.6324853,
    "latitude": 41.5681381,
    "phone": "5152859005",
    "website_url": "http://www.confluencebrewing.com",
    "state": "Iowa",
    "street": "1235 Thomas Beck Rd Ste A"
  },
  {
    "id": "4ee8dcea-2193-4a19-bd89-15e6e5591ca4",
    "name": "Conflux Brewing",
    "brewery_type": "planning",
    "address_1": null,
    "address_2": null,
    "address_3": null,
    "city": "Missoula",
    "state_province": "Montana",
    "postal_code": "59802-4418",
    "country": "United States",
    "longitude": null,
    "latitude": null,
    "phone": null,
    "website_url": null,
    "state": "Montana",
    "street": null
  },
  {
    "id": "4f1c4d66-e46d-46bf-97e9-ed62f2355058",
    "name": "ConfluxCity Brewing Company",
    "brewery_type": "micro",
    "address_1": "110 N Water St",
    "address_2": null,
    "address_3": null,
    "city": "Portland",
    "state_province": "Michigan",
    "postal_code": "48875",
    "country": "United States",
    "longitude": -84.90321484,
    "latitude": 42.87142429,
    "phone": "5175269091",
    "website_url": "http://www.confluxcitybrew.com",
    "state": "Michigan",
    "street": "110 N Water St"
  },
  {
    "id": "e75b5599-7133-4cb8-ab49-0048d0f4443a",
    "name": "Congregation Brewery & Cocina - Azusa",
    "brewery_type": "brewpub",
    "address_1": "619 N Azusa Ave",
    "address_2": null,
    "address_3": null,
    "city": "Azusa",
    "state_province": "California",
    "postal_code": "91702-2910",
    "country": "United States",
    "longitude": -117.90714661424,
    "latitude": 34.13253856095,
    "phone": "6263342337",
    "website_url": "https://congregationbreweryandcocina.com/",
    "state": "California",
    "street": "619 N Azusa Ave"
  },
  {
    "id": "9e73dde9-85f0-4bef-bcd9-9ddbd2eee3bf",
    "name": "Congregation Brewery & Cocina - Pasadena",
    "brewery_type": "brewpub",
    "address_1": "300 S Raymond Ave",
    "address_2": null,
    "address_3": null,
    "city": "Pasadena",
    "state_province": "California",
    "postal_code": "91105",
    "country": "United States",
    "longitude": -118.14557859162,
    "latitude": 34.141383597502,
    "phone": "6264032337",
    "website_url": "https://congregationbreweryandcocina.com/",
    "state": "California",
    "street": "300 S Raymond Ave"
  },
  {
    "id": "34f16f3a-223b-4c32-9729-634f90e7275f",
    "name": "Connecticut Valley Brewing Company",
    "brewery_type": "micro",
    "address_1": "765 Sullivan Ave",
    "address_2": null,
    "address_3": null,
    "city": "South Windsor",
    "state_province": "Connecticut",
    "postal_code": "06074-1945",
    "country": "United States",
    "longitude": -72.57147904,
    "latitude": 41.84872829,
    "phone": "8606442707",
    "website_url": "http://www.ctvalleybrewing.com",
    "state": "Connecticut",
    "street": "765 Sullivan Ave"
  },
  {
    "id": "dc8fb319-acd5-4342-a3f1-bfaeddd2107e",
    "name": "Conner Fields Brewing",
    "brewery_type": "brewpub",
    "address_1": "121 SW H St",
    "address_2": null,
    "address_3": null,
    "city": "Grants Pass",
    "state_province": "Oregon",
    "postal_code": "97526-2505",
    "country": "United States",
    "longitude": -123.3284921,
    "latitude": 42.43842401,
    "phone": "5415082337",
    "website_url": "http://www.connerfields.com",
    "state": "Oregon",
    "street": "121 SW H St"
  },
  {
    "id": "469a31a8-89e0-49be-9bde-62b45673e040",
    "name": "Conny Creek Brewing Co",
    "brewery_type": "micro",
    "address_1": "4323 Shearsburg Rd",
    "address_2": null,
    "address_3": null,
    "city": "New Kensington",
    "state_province": "Pennsylvania",
    "postal_code": "15068-6845",
    "country": "United States",
    "longitude": null,
    "latitude": null,
    "phone": null,
    "website_url": "http://www.facebook.com/ConnyCreekBrewing/",
    "state": "Pennsylvania",
    "street": "4323 Shearsburg Rd"
  },
  {
    "id": "a05beba6-5429-43ed-8bd2-df1075116219",
    "name": "Conquest Brewing Co.",
    "brewery_type": "micro",
    "address_1": "947 S Stadium Rd",
    "address_2": null,
    "address_3": null,
    "city": "Columbia",
    "state_province": "South Carolina",
    "postal_code": "29201-4724",
    "country": "United States",
    "longitude": -81.02382212,
    "latitude": 33.97100882,
    "phone": "8037123063",
    "website_url": "http://www.conquestbrewing.com",
    "state": "South Carolina",
    "street": "947 S Stadium Rd"
  },
  {
    "id": "ff77cd4b-5573-4fce-a1af-bd454e814fd4",
    "name": "Conshohocken Brewing - Bridgeport",
    "brewery_type": "brewpub",
    "address_1": "3 DeKalb St",
    "address_2": null,
    "address_3": null,
    "city": "Bridgeport",
    "state_province": "Pennsylvania",
    "postal_code": "19405-1074",
    "country": "United States",
    "longitude": -75.3467908,
    "latitude": 40.1057904,
    "phone": null,
    "website_url": "http://www.conshohockenbrewing.com",
    "state": "Pennsylvania",
    "street": "3 DeKalb St"
  },
  {
    "id": "4aa64271-2075-4f5c-8c6b-4e9982852d1a",
    "name": "Conshohocken Brewing Co.",
    "brewery_type": "brewpub",
    "address_1": "739 E Elm St Ste B",
    "address_2": null,
    "address_3": null,
    "city": "Conshohocken",
    "state_province": "Pennsylvania",
    "postal_code": "19428-2301",
    "country": "United States",
    "longitude": null,
    "latitude": null,
    "phone": "6108978962",
    "website_url": "http://www.conshohockenbrewing.com",
    "state": "Pennsylvania",
    "street": "739 E Elm St Ste B"
  },
  {
    "id": "9c2b12cc-2909-47a2-8d5e-39fc21ba51d4",
    "name": "Constantine Brewing Co",
    "brewery_type": "brewpub",
    "address_1": "145 S Washington St",
    "address_2": null,
    "address_3": null,
    "city": "Constantine",
    "state_province": "Michigan",
    "postal_code": "49042-1047",
    "country": "United States",
    "longitude": -85.66859588,
    "latitude": 41.84164216,
    "phone": "2694351230",
    "website_url": "http://www.constantinebrewingco.com",
    "state": "Michigan",
    "street": "145 S Washington St"
  },
  {
    "id": "9e9d2ed9-ee58-44ce-8694-374196db165e",
    "name": "Constellation Brands",
    "brewery_type": "closed",
    "address_1": "9045 Caroll Way",
    "address_2": null,
    "address_3": null,
    "city": "San Diego",
    "state_province": "California",
    "postal_code": "92121",
    "country": "United States",
    "longitude": -117.1578979,
    "latitude": 32.88808261,
    "phone": null,
    "website_url": null,
    "state": "California",
    "street": "9045 Caroll Way"
  },
  {
    "id": "342cfb9f-a0bf-4a4b-a50c-4d66174ed767",
    "name": "Contrary Brewing Co",
    "brewery_type": "micro",
    "address_1": "411 W Mississippi Dr",
    "address_2": null,
    "address_3": null,
    "city": "Muscatine",
    "state_province": "Iowa",
    "postal_code": "52761-3150",
    "country": "United States",
    "longitude": -91.05121455,
    "latitude": 41.41700522,
    "phone": "5632997894",
    "website_url": "http://www.contrarybrewing.com",
    "state": "Iowa",
    "street": "411 W Mississippi Dr"
  },
  {
    "id": "9df45ed5-3546-43e7-a1dd-3311c0c1176b",
    "name": "Converge Brewing Company",
    "brewery_type": "planning",
    "address_1": null,
    "address_2": null,
    "address_3": null,
    "city": "Paso Robles",
    "state_province": "California",
    "postal_code": "93446-8360",
    "country": "United States",
    "longitude": -120.6912456,
    "latitude": 35.6267654,
    "phone": "3076908538",
    "website_url": null,
    "state": "California",
    "street": null
  },
  {
    "id": "ed8d31a5-35b4-48fb-b2df-971d9951e915",
    "name": "Conversations Brewing",
    "brewery_type": "closed",
    "address_1": null,
    "address_2": null,
    "address_3": null,
    "city": "Battle Ground",
    "state_province": "Washington",
    "postal_code": "98604",
    "country": "United States",
    "longitude": null,
    "latitude": null,
    "phone": null,
    "website_url": null,
    "state": "Washington",
    "street": null
  },
  {
    "id": "bd4d649c-04c2-480a-b08a-1f7b77599a6e",
    "name": "Conversion Brewing",
    "brewery_type": "brewpub",
    "address_1": "833 S Main St",
    "address_2": null,
    "address_3": null,
    "city": "Lebanon",
    "state_province": "Oregon",
    "postal_code": "97355-3211",
    "country": "United States",
    "longitude": -122.9070824,
    "latitude": 44.5247777,
    "phone": "5412592337",
    "website_url": "http://www.conversionbrewingcompany.com",
    "state": "Oregon",
    "street": "833 S Main St"
  },
  {
    "id": "7526c8dc-2807-49a7-a518-96fc77c78f8a",
    "name": "Conyngham Brewing Company",
    "brewery_type": "micro",
    "address_1": "309 Main St",
    "address_2": null,
    "address_3": null,
    "city": "Conyngham",
    "state_province": "Pennsylvania",
    "postal_code": "18219-0910",
    "country": "United States",
    "longitude": -76.0585835,
    "latitude": 40.9922807,
    "phone": "5707105752",
    "website_url": "http://www.conynghambrewing.com",
    "state": "Pennsylvania",
    "street": "309 Main St"
  },
  {
    "id": "2e6814a0-f256-4825-8f63-edad88ba3736",
    "name": "Cool Beerwerks",
    "brewery_type": "brewpub",
    "address_1": "5020 Ellinghouse Dr",
    "address_2": null,
    "address_3": null,
    "city": "Cool",
    "state_province": "California",
    "postal_code": "95614-9569",
    "country": "United States",
    "longitude": -121.0145495,
    "latitude": 38.88649696,
    "phone": "5308855866",
    "website_url": "http://www.cbwbeer.com",
    "state": "California",
    "street": "5020 Ellinghouse Dr"
  },
  {
    "id": "468d04c3-f53d-44da-b79e-534193126c0b",
    "name": "Cool City Brewing Company",
    "brewery_type": "micro",
    "address_1": "1718 W Park St",
    "address_2": null,
    "address_3": null,
    "city": "Two Rivers",
    "state_province": "Wisconsin",
    "postal_code": "54241-3060",
    "country": "United States",
    "longitude": -87.569031644378,
    "latitude": 44.149609038574,
    "phone": "9206571325",
    "website_url": "http://www.coolcitybrewing.com",
    "state": "Wisconsin",
    "street": "1718 W Park St"
  },
  {
    "id": "6e971ebb-6b06-41a0-befc-d67e9d0a16d7",
    "name": "Cool Springs Brewery",
    "brewery_type": "brewpub",
    "address_1": "600A Frazier Dr Ste 135",
    "address_2": null,
    "address_3": null,
    "city": "Franklin",
    "state_province": "Tennessee",
    "postal_code": "37067-4677",
    "country": "United States",
    "longitude": -86.820912,
    "latitude": 35.944623,
    "phone": "6155039626",
    "website_url": "http://www.coolspringsbrewery.com",
    "state": "Tennessee",
    "street": "600A Frazier Dr Ste 135"
  },
  {
    "id": "c8a69d07-794b-45fc-8269-14cafaadde50",
    "name": "Cooling Pond Brewery",
    "brewery_type": "planning",
    "address_1": null,
    "address_2": null,
    "address_3": null,
    "city": "Mineral",
    "state_province": "Virginia",
    "postal_code": "23117",
    "country": "United States",
    "longitude": null,
    "latitude": null,
    "phone": "5409055430",
    "website_url": null,
    "state": "Virginia",
    "street": null
  },
  {
    "id": "84b769ca-926a-4fc5-a1dc-f7cdce4eea06",
    "name": "COOP Ale Works",
    "brewery_type": "micro",
    "address_1": "4745 Council Heights Rd",
    "address_2": null,
    "address_3": null,
    "city": "Oklahoma City",
    "state_province": "Oklahoma",
    "postal_code": "73179-4600",
    "country": "United States",
    "longitude": -97.65776203,
    "latitude": 35.4185472,
    "phone": "4058422667",
    "website_url": "http://www.coopaleworks.com",
    "state": "Oklahoma",
    "street": "4745 Council Heights Rd"
  },
  {
    "id": "3ef69ed1-3521-4034-902c-878887461a33",
    "name": "Cooper House Project",
    "brewery_type": "nano",
    "address_1": "906 S. Cooper Street",
    "address_2": null,
    "address_3": null,
    "city": "Memphis",
    "state_province": "Tennessee",
    "postal_code": "38104",
    "country": "United States",
    "longitude": -89.990736,
    "latitude": 35.12097,
    "phone": null,
    "website_url": "https://www.cooperhouseproject.com/",
    "state": "Tennessee",
    "street": "906 S. Cooper Street"
  },
  {
    "id": "bd647651-c56e-42ad-a5f8-51f1767bb362",
    "name": "Cooper Landing Brewing Company",
    "brewery_type": "micro",
    "address_1": "21879 Sterling Hwy",
    "address_2": null,
    "address_3": null,
    "city": "Cooper Landing",
    "state_province": "Alaska",
    "postal_code": "99572",
    "country": "United States",
    "longitude": -149.8478495,
    "latitude": 60.4952185,
    "phone": "9075952522",
    "website_url": "http://www.cooperlandingbrewing.com",
    "state": "Alaska",
    "street": "21879 Sterling Hwy"
  },
  {
    "id": "df6e1686-5503-432e-8604-bc3546bc6374",
    "name": "Cooper Mountain Ale Works",
    "brewery_type": "micro",
    "address_1": "15855 SW Kestrel Ct",
    "address_2": null,
    "address_3": null,
    "city": "Beaverton",
    "state_province": "Oregon",
    "postal_code": "97007-9200",
    "country": "United States",
    "longitude": -122.8400333,
    "latitude": 45.4314259,
    "phone": "5035807175",
    "website_url": "http://www.coopermountainaleworks.com",
    "state": "Oregon",
    "street": "15855 SW Kestrel Ct"
  },
  {
    "id": "beb63dd2-5dc8-4774-a77a-5d6819782627",
    "name": "Cooper River Brewing Company",
    "brewery_type": "micro",
    "address_1": "2201-B Mechanic St",
    "address_2": null,
    "address_3": null,
    "city": "Charleston",
    "state_province": "South Carolina",
    "postal_code": "29405",
    "country": "United States",
    "longitude": -79.954817,
    "latitude": 32.817102,
    "phone": "8434057979",
    "website_url": "http://www.cooperriverbrewing.com",
    "state": "South Carolina",
    "street": "2201-B Mechanic St"
  },
  {
    "id": "62418a35-3a11-48f5-8b17-69f7cf65de0e",
    "name": "Cooperage Brewing Co.",
    "brewery_type": "micro",
    "address_1": "981 Airway Ct Ste G",
    "address_2": null,
    "address_3": null,
    "city": "Santa Rosa",
    "state_province": "California",
    "postal_code": "95403-2049",
    "country": "United States",
    "longitude": -122.7359139,
    "latitude": 38.47534267,
    "phone": "7072939787",
    "website_url": "http://www.cooperagebrewing.com",
    "state": "California",
    "street": "981 Airway Ct Ste G"
  }
]