[
  {
    "id": "b54b16e1-ac3b-4bff-a11f-f7ae9ddc27e0",
    "name": "MadTree Brewing 2.0",
    "brewery_type": "regional",
    "address_1": "5164 Kennedy Ave",
    "address_2": null,
    "address_3": null,
    "city": "Cincinnati",
    "state_province": "Ohio",
    "postal_code": "45213",
    "country": "United States",
    "longitude": -84.4137736,
    "latitude": 39.1885752,
    "phone": "5138368733",
    "website_url": "http://www.madtreebrewing.com",
    "state": "Ohio",
    "street": "5164 Kennedy Ave"
  },
  {
    "id": "6bbea081-baec-4db3-9647-5a8aeee3e72c",
    "name": "Maelstrom Brewing Company",
    "brewery_type": "micro",
    "address_1": "11014 120th Ave NE",
    "address_2": null,
    "address_3": null,
    "city": "Kirkland",
    "state_province": "Washington",
    "postal_code": "98033-5022",
    "country": "United States",
    "longitude": -122.180943,
    "latitude": 47.6991435,
    "phone": "2068416071",
    "website_url": "http://www.maelstrombrewing.com",
    "state": "Washington",
    "street": "11014 120th Ave NE"
  },
  {
    "id": "7f5b3890-2faf-428f-8855-cd1d3c458b4e",
    "name": "Magic City Brewing Company",
    "brewery_type": "micro",
    "address_1": "161 2nd St NW",
    "address_2": null,
    "address_3": null,
    "city": "Barberton",
    "state_province": "Ohio",
    "postal_code": "44203",
    "country": "United States",
    "longitude": -81.60738829,
    "latitude": 41.01444672,
    "phone": "3307039806",
    "website_url": "http://Www.magiccitybrewingcompany.com",
    "state": "Ohio",
    "street": "161 2nd St NW"
  },
  {
    "id": "f781db23-6391-4db3-a70e-885517e9a6d8",
    "name": "Magic Hat Brewing Co/ North American Breweries",
    "brewery_type": "regional",
    "address_1": "5 Bartlett Bay Rd",
    "address_2": null,
    "address_3": null,
    "city": "South Burlington",
    "state_province": "Vermont",
    "postal_code": "05403-7727",
    "country": "United States",
    "longitude": -73.21616773,
    "latitude": 44.42808692,
    "phone": "8026582739",
    "website_url": null,
    "state": "Vermont",
    "street": "5 Bartlett Bay Rd"
  },
  {
    "id": "a2fb1f14-334a-4195-b2a5-9c816c5196af",
    "name": "Magic Valley Brewing",
    "brewery_type": "brewpub",
    "address_1": "208 Broadway Ave N",
    "address_2": null,
    "address_3": null,
    "city": "Buhl",
    "state_province": "Idaho",
    "postal_code": "83316-1625",
    "country": "United States",
    "longitude": -114.7610528,
    "latitude": 42.60009514,
    "phone": "2085952679",
    "website_url": "https://magicvalleybrewing.com",
    "state": "Idaho",
    "street": "208 Broadway Ave N"
  },
  {
    "id": "74cf30d7-f450-444c-a50e-fa6a8aa43c49",
    "name": "Magnify Brewing Company",
    "brewery_type": "micro",
    "address_1": "1275 Bloomfield Ave Ste 7 Unit 40C",
    "address_2": null,
    "address_3": null,
    "city": "Fairfield",
    "state_province": "New Jersey",
    "postal_code": "07004-2736",
    "country": "United States",
    "longitude": null,
    "latitude": null,
    "phone": "9732876099",
    "website_url": "http://www.magnifybrewing.com",
    "state": "New Jersey",
    "street": "1275 Bloomfield Ave Ste 7 Unit 40C"
  },
  {
    "id": "7e32b8ba-f0d6-4e22-9b07-0e6cfe279235",
    "name": "Magnolia Brewing Company",
    "brewery_type": "brewpub",
    "address_1": "1398 Haight St",
    "address_2": null,
    "address_3": null,
    "city": "San Francisco",
    "state_province": "California",
    "postal_code": "94117-2909",
    "country": "United States",
    "longitude": -122.4452044,
    "latitude": 37.7703537,
    "phone": null,
    "website_url": null,
    "state": "California",
    "street": "1398 Haight St"
  },
  {
    "id": "a42086a7-b358-498a-ad7e-44948cc75ed0",
    "name": "Magnolia Dogpatch",
    "brewery_type": "micro",
    "address_1": "2505 3rd St",
    "address_2": null,
    "address_3": null,
    "city": "San Francisco",
    "state_province": "California",
    "postal_code": "94107-3112",
    "country": "United States",
    "longitude": -122.3880818,
    "latitude": 37.7577437,
    "phone": "4158647468",
    "website_url": "http://www.magnoliasmokestack.com",
    "state": "California",
    "street": "2505 3rd St"
  },
  {
    "id": "959be3f8-4cc7-4342-b430-9111b5a3d036",
    "name": "Magnuson Cafe and Brewery",
    "brewery_type": "brewpub",
    "address_1": "7801 62nd Ave NE",
    "address_2": null,
    "address_3": null,
    "city": "Seattle",
    "state_province": "Washington",
    "postal_code": "98115",
    "country": "United States",
    "longitude": -122.2647516,
    "latitude": 47.68882925,
    "phone": "2065250669",
    "website_url": "https://magnusonbrewery.com",
    "state": "Washington",
    "street": "7801 62nd Ave NE"
  },
  {
    "id": "5d702444-3683-463e-abfe-1f587d63a7bc",
    "name": "Mahogany Ridge Brewery & Grill",
    "brewery_type": "brewpub",
    "address_1": "435 Lincoln Ave",
    "address_2": null,
    "address_3": null,
    "city": "Steamboat Springs",
    "state_province": "Colorado",
    "postal_code": "80477-5084",
    "country": "United States",
    "longitude": -106.8306883,
    "latitude": 40.48389236,
    "phone": "9708793773",
    "website_url": null,
    "state": "Colorado",
    "street": "435 Lincoln Ave"
  },
  {
    "id": "bad259d6-ce30-4252-8b30-30e2a74934fb",
    "name": "Maiden City Brewing Company, LLC",
    "brewery_type": "micro",
    "address_1": "123 E Pike St",
    "address_2": null,
    "address_3": null,
    "city": "Cynthiana",
    "state_province": "Kentucky",
    "postal_code": "41031-1527",
    "country": "United States",
    "longitude": -84.288072,
    "latitude": 38.388396,
    "phone": "8599545151",
    "website_url": "http://www.maidencitybrewing.com",
    "state": "Kentucky",
    "street": "123 E Pike St"
  },
  {
    "id": "b7825867-5c07-4e12-a1f2-dbf533deb48b",
    "name": "Maidens Brewery",
    "brewery_type": "brewpub",
    "address_1": "209 North Wabash Avenue of Flags",
    "address_2": null,
    "address_3": null,
    "city": "Evansville",
    "state_province": "Indiana",
    "postal_code": "47712",
    "country": "United States",
    "longitude": null,
    "latitude": null,
    "phone": "8124312836",
    "website_url": "http://www.maidensbrewery.com",
    "state": "Indiana",
    "street": "209 North Wabash Avenue of Flags"
  },
  {
    "id": "19800ec6-9709-45e5-a934-cd0b322a0649",
    "name": "Main & Six Brewing Company",
    "brewery_type": "micro",
    "address_1": "1636 N Main St",
    "address_2": null,
    "address_3": null,
    "city": "Jacksonville",
    "state_province": "Florida",
    "postal_code": "32206-4402",
    "country": "United States",
    "longitude": null,
    "latitude": null,
    "phone": "9046730144",
    "website_url": null,
    "state": "Florida",
    "street": "1636 N Main St"
  },
  {
    "id": "70ff7200-901e-4279-afa4-41f0ae57fdd2",
    "name": "Main And Mill Brewing Company",
    "brewery_type": "brewpub",
    "address_1": "240 E Main St",
    "address_2": null,
    "address_3": null,
    "city": "Festus",
    "state_province": "Missouri",
    "postal_code": "63028-1907",
    "country": "United States",
    "longitude": -90.39265217,
    "latitude": 38.21974885,
    "phone": "6365433031",
    "website_url": "http://www.mainandmill.com",
    "state": "Missouri",
    "street": "240 E Main St"
  },
  {
    "id": "9ac5be0c-c048-4566-b831-7fb7e8d76b0f",
    "name": "Main Channel Brewing Company",
    "brewery_type": "micro",
    "address_1": "2090 Gunter Ave",
    "address_2": null,
    "address_3": null,
    "city": "Guntersville",
    "state_province": "Alabama",
    "postal_code": "35976-2113",
    "country": "United States",
    "longitude": -86.31216035,
    "latitude": 34.33873684,
    "phone": "2569605070",
    "website_url": "http://www.mainchannelbeer.com",
    "state": "Alabama",
    "street": "2090 Gunter Ave"
  },
  {
    "id": "80d50e64-d6ac-4056-a170-42144fa4f9cd",
    "name": "Main Line Brewery",
    "brewery_type": "micro",
    "address_1": "1603 Ownby Ln",
    "address_2": null,
    "address_3": null,
    "city": "Richmond",
    "state_province": "Virginia",
    "postal_code": "23220",
    "country": "United States",
    "longitude": null,
    "latitude": null,
    "phone": "8043879670",
    "website_url": "https://mainlinerva.com/",
    "state": "Virginia",
    "street": "1603 Ownby Ln"
  },
  {
    "id": "bc35bec8-bdb0-405a-be1f-6c19a3d805a6",
    "name": "Main Sail Brewery / Atwood Yacht Club",
    "brewery_type": "micro",
    "address_1": "2637 Lodge Rd SW",
    "address_2": null,
    "address_3": null,
    "city": "Sherrodsville",
    "state_province": "Ohio",
    "postal_code": "44675-9719",
    "country": "United States",
    "longitude": null,
    "latitude": null,
    "phone": "3307352135",
    "website_url": "http://www.atwoodyachtclub.com",
    "state": "Ohio",
    "street": "2637 Lodge Rd SW"
  },
  {
    "id": "c979cb39-7e7f-4bdf-89ef-f45bebd906d7",
    "name": "Main St Brewery",
    "brewery_type": "brewpub",
    "address_1": "830 Main St Frnt",
    "address_2": null,
    "address_3": null,
    "city": "Pleasanton",
    "state_province": "California",
    "postal_code": "94566-6652",
    "country": "United States",
    "longitude": -121.8738245,
    "latitude": 37.66475013,
    "phone": "9254628218",
    "website_url": "http://www.mainstbrewery.com",
    "state": "California",
    "street": "830 Main St Frnt"
  },
  {
    "id": "02dcafad-191a-47ed-82d6-d1a7a4ee8ccc",
    "name": "Main Street Brewery",
    "brewery_type": "brewpub",
    "address_1": "493 N Main St",
    "address_2": null,
    "address_3": null,
    "city": "Corona",
    "state_province": "California",
    "postal_code": "92880-2042",
    "country": "United States",
    "longitude": -117.5636924,
    "latitude": 33.8925168,
    "phone": "9513711471",
    "website_url": "http://www.mainstreetbrewery.com",
    "state": "California",
    "street": "493 N Main St"
  },
  {
    "id": "269ae6fe-0f4b-4b1e-bac1-1eedc1332929",
    "name": "Main Street Brewery/Four Corners",
    "brewery_type": "brewpub",
    "address_1": "21 E Main St",
    "address_2": null,
    "address_3": null,
    "city": "Cortez",
    "state_province": "Colorado",
    "postal_code": "81321-3240",
    "country": "United States",
    "longitude": -108.5846644,
    "latitude": 37.3484244,
    "phone": "9705649112",
    "website_url": null,
    "state": "Colorado",
    "street": "21 E Main St"
  },
  {
    "id": "d8ebbd1e-ee4b-4230-89df-9d40c208e013",
    "name": "Main Street Brewing Inc/Turonis Pizza",
    "brewery_type": "brewpub",
    "address_1": "408 N Main St",
    "address_2": null,
    "address_3": null,
    "city": "Evansville",
    "state_province": "Indiana",
    "postal_code": "47711-5418",
    "country": "United States",
    "longitude": -87.56399527,
    "latitude": 37.98122094,
    "phone": "8124249871",
    "website_url": null,
    "state": "Indiana",
    "street": "408 N Main St"
  },
  {
    "id": "85e606f3-cfcc-44de-b8e5-9c29c873c532",
    "name": "Maine Beer Co",
    "brewery_type": "micro",
    "address_1": "525 US Route 1",
    "address_2": null,
    "address_3": null,
    "city": "Freeport",
    "state_province": "Maine",
    "postal_code": "04032-7009",
    "country": "United States",
    "longitude": null,
    "latitude": null,
    "phone": "2072215711",
    "website_url": "http://www.mainebeercompany.com",
    "state": "Maine",
    "street": "525 US Route 1"
  },
  {
    "id": "532b6171-7a1e-4caa-9e28-75cc148ce369",
    "name": "Mainely Brews Restaurant and Brewhouse",
    "brewery_type": "contract",
    "address_1": "1 Post Office Sq Ste 302",
    "address_2": null,
    "address_3": null,
    "city": "Waterville",
    "state_province": "Maine",
    "postal_code": "04901-6651",
    "country": "United States",
    "longitude": null,
    "latitude": null,
    "phone": "2078732457",
    "website_url": "http://www.mainelybrews.com",
    "state": "Maine",
    "street": "1 Post Office Sq Ste 302"
  },
  {
    "id": "4dcaeb97-edb6-4930-bf22-b27d434900f2",
    "name": "Mainstreet Brewing Company",
    "brewery_type": "micro",
    "address_1": "4204 W Main St",
    "address_2": null,
    "address_3": null,
    "city": "Belleville",
    "state_province": "Illinois",
    "postal_code": "62226",
    "country": "United States",
    "longitude": -90.02053343,
    "latitude": 38.53796122,
    "phone": "6184167261",
    "website_url": "http://www.mainstreetbrewingco.com",
    "state": "Illinois",
    "street": "4204 W Main St"
  },
  {
    "id": "b35ddbfe-490e-4eaf-aeca-fb041e06c7aa",
    "name": "Maize Valley Craft Brewery",
    "brewery_type": "brewpub",
    "address_1": "6193 Edison St NE",
    "address_2": null,
    "address_3": null,
    "city": "Hartville",
    "state_province": "Ohio",
    "postal_code": "44632-9326",
    "country": "United States",
    "longitude": -81.27813638,
    "latitude": 40.95340888,
    "phone": "3308778344",
    "website_url": "http://www.maizevalley.com",
    "state": "Ohio",
    "street": "6193 Edison St NE"
  },
  {
    "id": "686b5441-1a16-4bef-abc2-889de7800102",
    "name": "Makai Brewing Company",
    "brewery_type": "micro",
    "address_1": "5850 Ocean Hwy W",
    "address_2": null,
    "address_3": null,
    "city": "Ocean Isle Beach",
    "state_province": "North Carolina",
    "postal_code": "28469-3510",
    "country": "United States",
    "longitude": null,
    "latitude": null,
    "phone": "9105792739",
    "website_url": "http://www.MakaiBrewingCompany.com",
    "state": "North Carolina",
    "street": "5850 Ocean Hwy W"
  },
  {
    "id": "f01c6462-20da-4cb6-ac2b-40996eb27016",
    "name": "Makers Craft Brewery",
    "brewery_type": "planning",
    "address_1": null,
    "address_2": null,
    "address_3": null,
    "city": "Norfolk",
    "state_province": "Virginia",
    "postal_code": "23504-1905",
    "country": "United States",
    "longitude": null,
    "latitude": null,
    "phone": "7576249024",
    "website_url": "http://www.makers.beer",
    "state": "Virginia",
    "street": null
  },
  {
    "id": "dce22bec-12d1-4aa6-a355-5780190abffe",
    "name": "Malai Fort Worth",
    "brewery_type": "brewpub",
    "address_1": "5289 Monahans Ave",
    "address_2": null,
    "address_3": null,
    "city": "Fort Worth",
    "state_province": "Texas",
    "postal_code": "76109",
    "country": "United States",
    "longitude": null,
    "latitude": null,
    "phone": "6827073959",
    "website_url": null,
    "state": "Texas",
    "street": "5289 Monahans Ave"
  },
  {
    "id": "90b5b8ad-037c-4372-96f4-5566dec973a2",
    "name": "Mallory Brewing",
    "brewery_type": "planning",
    "address_1": null,
    "address_2": null,
    "address_3": null,
    "city": "Houston",
    "state_province": "Texas",
    "postal_code": "77018",
    "country": "United States",
    "longitude": null,
    "latitude": null,
    "phone": null,
    "website_url": "https://www.facebook.com/profile.php?id=100063450295613",
    "state": "Texas",
    "street": null
  },
  {
    "id": "6e1689d8-3fde-4cfc-b8ca-2054c8fa20b5",
    "name": "Malt House",
    "brewery_type": "brewpub",
    "address_1": "685 East Coast Road",
    "address_2": null,
    "address_3": null,
    "city": "Singapore",
    "state_province": "Singapore",
    "postal_code": "459054",
    "country": "Singapore",
    "longitude": 1.3120254191508,
    "latitude": 103.9216266,
    "phone": "+65 6636 4436",
    "website_url": "https://www.malthouse.sg/",
    "state": "Singapore",
    "street": "685 East Coast Road"
  },
  {
    "id": "67b9f26e-f7f1-4744-b44c-f04c776d5063",
    "name": "Maltese Brewing Company",
    "brewery_type": "micro",
    "address_1": "11047 Pierson Dr Ste B",
    "address_2": null,
    "address_3": null,
    "city": "Fredericksburg",
    "state_province": "Virginia",
    "postal_code": "22408-2062",
    "country": "United States",
    "longitude": null,
    "latitude": null,
    "phone": "5406424512",
    "website_url": "http://www.maltesebrewing.com",
    "state": "Virginia",
    "street": "11047 Pierson Dr Ste B"
  },
  {
    "id": "b6e3b8af-2f93-4520-8daa-5c0c9dc4e3c1",
    "name": "Mammoth Brewing Company",
    "brewery_type": "micro",
    "address_1": "18 Lake Mary Rd",
    "address_2": null,
    "address_3": null,
    "city": "Mammoth Lakes",
    "state_province": "California",
    "postal_code": "93546",
    "country": "United States",
    "longitude": -118.9835694,
    "latitude": 37.64888165,
    "phone": "7609347141",
    "website_url": "http://www.mammothbrewingco.com",
    "state": "California",
    "street": "18 Lake Mary Rd"
  },
  {
    "id": "ecd253a8-292a-4233-908f-4141491d0d32",
    "name": "Man Skirt Brewing",
    "brewery_type": "micro",
    "address_1": "144 Main St",
    "address_2": null,
    "address_3": null,
    "city": "Hackettstown",
    "state_province": "New Jersey",
    "postal_code": "07840-1930",
    "country": "United States",
    "longitude": -74.8299453,
    "latitude": 40.85378205,
    "phone": "9089890286",
    "website_url": "http://www.manskirtbrewing.com",
    "state": "New Jersey",
    "street": "144 Main St"
  },
  {
    "id": "a9c4d58a-f01d-4bec-9ebf-4ad61e8a6bcd",
    "name": "ManaFirkin",
    "brewery_type": "micro",
    "address_1": "450 East Bay Ave Ste 2",
    "address_2": null,
    "address_3": null,
    "city": "Manahawkin",
    "state_province": "New Jersey",
    "postal_code": "08050",
    "country": "United States",
    "longitude": null,
    "latitude": null,
    "phone": "6097564798",
    "website_url": null,
    "state": "New Jersey",
    "street": "450 East Bay Ave Ste 2"
  },
  {
    "id": "38040138-55a0-4f87-9601-0a5744186600",
    "name": "Manayunk Brewing Co & Restaurant",
    "brewery_type": "brewpub",
    "address_1": "4120 Main St",
    "address_2": null,
    "address_3": null,
    "city": "Philadelphia",
    "state_province": "Pennsylvania",
    "postal_code": "19127-1618",
    "country": "United States",
    "longitude": -75.2189308,
    "latitude": 40.0223235,
    "phone": "2154828220",
    "website_url": "http://www.manayunkbrewery.com",
    "state": "Pennsylvania",
    "street": "4120 Main St"
  },
  {
    "id": "274b3acf-4f2c-40f0-8ac7-29506f2e8f5c",
    "name": "Mancos Brewing Company",
    "brewery_type": "brewpub",
    "address_1": "484 E. Frontage Rd",
    "address_2": null,
    "address_3": null,
    "city": "Mancos",
    "state_province": "Colorado",
    "postal_code": "81328-9079",
    "country": "United States",
    "longitude": null,
    "latitude": null,
    "phone": "9705339761",
    "website_url": "http://www.mancosbrewingcompany.com",
    "state": "Colorado",
    "street": "484 E. Frontage Rd"
  },
  {
    "id": "7d87f747-3b19-4648-9f34-6c0f2ff07b34",
    "name": "Mandatory Fun Brewing",
    "brewery_type": "planning",
    "address_1": null,
    "address_2": null,
    "address_3": null,
    "city": "Marietta",
    "state_province": "Georgia",
    "postal_code": "30064",
    "country": "United States",
    "longitude": null,
    "latitude": null,
    "phone": "9517955337",
    "website_url": "http://www.vikingalchemist.com",
    "state": "Georgia",
    "street": null
  },
  {
    "id": "29f8aa88-0252-488b-9c6d-3bdfafbbf455",
    "name": "Manfish Brewing",
    "brewery_type": "micro",
    "address_1": "19611 276th Ave SE",
    "address_2": null,
    "address_3": null,
    "city": "Issaquah",
    "state_province": "Washington",
    "postal_code": "98027-8292",
    "country": "United States",
    "longitude": -121.9732919,
    "latitude": 47.42561663,
    "phone": "4255847264",
    "website_url": "http://www.manfishbrewing.com",
    "state": "Washington",
    "street": "19611 276th Ave SE"
  },
  {
    "id": "1bd5d598-c751-4438-bc01-7a7adf6cdb92",
    "name": "Manifest Beer Company",
    "brewery_type": "micro",
    "address_1": "740 Willamette St",
    "address_2": null,
    "address_3": null,
    "city": "Eugene",
    "state_province": "Oregon",
    "postal_code": "97401-2934",
    "country": "United States",
    "longitude": -123.0928507,
    "latitude": 44.05174833,
    "phone": "5412067232",
    "website_url": "http://www.manifestbeer.com",
    "state": "Oregon",
    "street": "740 Willamette St"
  },
  {
    "id": "b8af95f3-2057-40d5-ac94-c388f2f639e6",
    "name": "Manitou Brewing Company",
    "brewery_type": "brewpub",
    "address_1": "725 Manitou Ave",
    "address_2": null,
    "address_3": null,
    "city": "Manitou Springs",
    "state_province": "Colorado",
    "postal_code": "80829-1809",
    "country": "United States",
    "longitude": -104.9157413,
    "latitude": 38.8569869,
    "phone": "7192827709",
    "website_url": "http://www.manitou-brewing.com",
    "state": "Colorado",
    "street": "725 Manitou Ave"
  },
  {
    "id": "03f6dd60-d50e-4053-94db-1e83d087333f",
    "name": "Mankato Brewery",
    "brewery_type": "micro",
    "address_1": "1119 Center St",
    "address_2": null,
    "address_3": null,
    "city": "North Mankato",
    "state_province": "Minnesota",
    "postal_code": "56003-2108",
    "country": "United States",
    "longitude": -94.013784,
    "latitude": 44.18144279,
    "phone": "5073862337",
    "website_url": "http://www.mankatobrewery.com",
    "state": "Minnesota",
    "street": "1119 Center St"
  },
  {
    "id": "7167267a-7a89-448d-8586-9caad8d72bdb",
    "name": "Manor Hill Brewing",
    "brewery_type": "micro",
    "address_1": "4411 Manor Ln",
    "address_2": null,
    "address_3": null,
    "city": "Ellicott City",
    "state_province": "Maryland",
    "postal_code": "21042-6111",
    "country": "United States",
    "longitude": null,
    "latitude": null,
    "phone": "4109977771",
    "website_url": "http://www.manorhillbrewing.com",
    "state": "Maryland",
    "street": "4411 Manor Ln"
  },
  {
    "id": "2b21af13-3882-4ded-9acd-340b81cb5a70",
    "name": "ManRock Brewing",
    "brewery_type": "brewpub",
    "address_1": "1750 El Camino Real Ste A",
    "address_2": null,
    "address_3": null,
    "city": "Grover Beach",
    "state_province": "California",
    "postal_code": "93433-1416",
    "country": "United States",
    "longitude": -120.6082797,
    "latitude": 35.12963742,
    "phone": "7022172826",
    "website_url": "http://www.manrockbrewing.com",
    "state": "California",
    "street": "1750 El Camino Real Ste A"
  },
  {
    "id": "129dfd95-492b-443d-af67-dd03bef8a157",
    "name": "Mantorville Brewing Co LLC",
    "brewery_type": "contract",
    "address_1": "101 5th St E",
    "address_2": null,
    "address_3": null,
    "city": "Mantorville",
    "state_province": "Minnesota",
    "postal_code": "55955-8087",
    "country": "United States",
    "longitude": -92.753035,
    "latitude": 44.067031,
    "phone": "6513870708",
    "website_url": "http://www.mantorvillebeer.com",
    "state": "Minnesota",
    "street": "101 5th St E"
  },
  {
    "id": "8f13ef71-9339-4aec-9bc7-b9e8e2d5d806",
    "name": "Mantra Artisan Ales",
    "brewery_type": "micro",
    "address_1": "216 Noah Dr Ste 140",
    "address_2": null,
    "address_3": null,
    "city": "Franklin",
    "state_province": "Tennessee",
    "postal_code": "37064-4024",
    "country": "United States",
    "longitude": -86.866949,
    "latitude": 35.893554,
    "phone": "6156288776",
    "website_url": "http://www.mantrabrewing.com",
    "state": "Tennessee",
    "street": "216 Noah Dr Ste 140"
  },
  {
    "id": "a0637ba4-fc85-4dd3-b1f2-e23e5ad5c862",
    "name": "Manufaktura Piwowarska Z\u0142ota Woda",
    "brewery_type": "micro",
    "address_1": "Sudecka",
    "address_2": null,
    "address_3": null,
    "city": "\u0141omnica",
    "state_province": "dolno\u015bl\u0105skie",
    "postal_code": "58-340",
    "country": "Poland",
    "longitude": 16.3447144,
    "latitude": 50.6793293,
    "phone": null,
    "website_url": null,
    "state": "dolno\u015bl\u0105skie",
    "street": "Sudecka"
  },
  {
    "id": "fc9e541f-a40c-4e2c-bc42-561194e654d7",
    "name": "MAP Brewing Company",
    "brewery_type": "brewpub",
    "address_1": "510 Manley Rd",
    "address_2": null,
    "address_3": null,
    "city": "Bozeman",
    "state_province": "Montana",
    "postal_code": "59715-8784",
    "country": "United States",
    "longitude": -111.0400807,
    "latitude": 45.7033199,
    "phone": "4065874070",
    "website_url": "http://www.mapbrewing.com",
    "state": "Montana",
    "street": "510 Manley Rd"
  },
  {
    "id": "d140a6a7-8618-4302-b7ca-d55880904a84",
    "name": "Maple Branch Craft Brewery",
    "brewery_type": "planning",
    "address_1": null,
    "address_2": null,
    "address_3": null,
    "city": "Fort Worth",
    "state_province": "Texas",
    "postal_code": "76133-1226",
    "country": "United States",
    "longitude": null,
    "latitude": null,
    "phone": "3149108854",
    "website_url": "https://www.maplebranchbrew.com/",
    "state": "Texas",
    "street": null
  },
  {
    "id": "c806e91b-2179-46f1-ab2c-390291ed7cba",
    "name": "Maple Island Brewing",
    "brewery_type": "micro",
    "address_1": "225 Main St N",
    "address_2": null,
    "address_3": null,
    "city": "Stillwater",
    "state_province": "Minnesota",
    "postal_code": "55082-5021",
    "country": "United States",
    "longitude": -92.80653912,
    "latitude": 45.0577993,
    "phone": "6514300044",
    "website_url": "http://www.mapleislandbrewing.com",
    "state": "Minnesota",
    "street": "225 Main St N"
  },
  {
    "id": "2b99e526-9f10-4e4d-bbfc-5890c7e4e69c",
    "name": "Maple Lawn Brewery",
    "brewery_type": "micro",
    "address_1": "110 Mulberry Ave",
    "address_2": null,
    "address_3": null,
    "city": "Pomeroy",
    "state_province": "Ohio",
    "postal_code": "45769-1004",
    "country": "United States",
    "longitude": -82.034268,
    "latitude": 39.027513,
    "phone": "7406915018",
    "website_url": "http://www.maplelawnbrew.com",
    "state": "Ohio",
    "street": "110 Mulberry Ave"
  }
]