[
  {
    "id": "4c87f178-be2b-4bda-91c0-f70da145716a",
    "name": "Golden Block Brewery",
    "brewery_type": "brewpub",
    "address_1": "1227 Greene St",
    "address_2": null,
    "address_3": null,
    "city": "Silverton",
    "state_province": "Colorado",
    "postal_code": "81433",
    "country": "United States",
    "longitude": -107.6642307,
    "latitude": 37.81194434,
    "phone": "9703875962",
    "website_url": "http://www.goldenblockbrewery.com",
    "state": "Colorado",
    "street": "1227 Greene St"
  },
  {
    "id": "0336591f-e7d4-4d3d-b523-eda9bb5e5ec3",
    "name": "Golden City Brewery",
    "brewery_type": "brewpub",
    "address_1": "920 1/2 12th St",
    "address_2": null,
    "address_3": null,
    "city": "Golden",
    "state_province": "Colorado",
    "postal_code": "80401-1181",
    "country": "United States",
    "longitude": -105.2227813,
    "latitude": 39.75471167,
    "phone": "3032798092",
    "website_url": null,
    "state": "Colorado",
    "street": "920 1/2 12th St"
  },
  {
    "id": "c95ca449-14d0-4188-8f74-8540a64305bf",
    "name": "Golden Fox Brewing, LLC",
    "brewery_type": "micro",
    "address_1": "523 W Matilda St",
    "address_2": null,
    "address_3": null,
    "city": "Illiopolis",
    "state_province": "Illinois",
    "postal_code": "62539-3607",
    "country": "United States",
    "longitude": -89.25359479,
    "latitude": 39.850216,
    "phone": null,
    "website_url": "http://www.GoldenFoxBrew.com",
    "state": "Illinois",
    "street": "523 W Matilda St"
  },
  {
    "id": "045fb2d4-698c-4d1a-a8ca-ecf225871dd3",
    "name": "Golden Handle Project",
    "brewery_type": "micro",
    "address_1": "111 S Cedar St",
    "address_2": null,
    "address_3": null,
    "city": "Spokane",
    "state_province": "Washington",
    "postal_code": "99201",
    "country": "United States",
    "longitude": -117.4326605,
    "latitude": 47.65656661,
    "phone": "5098680264",
    "website_url": "https://www.goldenhandle.org",
    "state": "Washington",
    "street": "111 S Cedar St"
  },
  {
    "id": "745d91d0-9ae1-47d4-a2e1-92cbefe1bed2",
    "name": "Golden Road Brewing",
    "brewery_type": "large",
    "address_1": "2210 E Orangewood Ave",
    "address_2": null,
    "address_3": null,
    "city": "Anaheim",
    "state_province": "California",
    "postal_code": "92806",
    "country": "United States",
    "longitude": -117.885189,
    "latitude": 33.79565792,
    "phone": "7149124015",
    "website_url": null,
    "state": "California",
    "street": "2210 E Orangewood Ave"
  },
  {
    "id": "cbf3abb3-0bea-4d9c-ae71-d6e0022c49ce",
    "name": "Golden Road Brewing",
    "brewery_type": "large",
    "address_1": "5430 W San Fernando Rd",
    "address_2": null,
    "address_3": null,
    "city": "Los Angeles",
    "state_province": "California",
    "postal_code": "90039-1015",
    "country": "United States",
    "longitude": -118.2744781,
    "latitude": 34.15049571,
    "phone": "2135426039",
    "website_url": "http://www.goldenroad.la",
    "state": "California",
    "street": "5430 W San Fernando Rd"
  },
  {
    "id": "a92d1f36-efdc-49eb-bde8-a2435cb4ab08",
    "name": "Golden Road Brewing Co",
    "brewery_type": "planning",
    "address_1": null,
    "address_2": null,
    "address_3": null,
    "city": "Sacramento",
    "state_province": "California",
    "postal_code": "95811",
    "country": "United States",
    "longitude": -121.4943996,
    "latitude": 38.5815719,
    "phone": "9163829445",
    "website_url": null,
    "state": "California",
    "street": null
  },
  {
    "id": "647b33a1-30ea-457c-99bf-77c402b48293",
    "name": "Golden State Brew and Grill",
    "brewery_type": "brewpub",
    "address_1": "7560 Monterey Rd Ste 100",
    "address_2": null,
    "address_3": null,
    "city": "Gilroy",
    "state_province": "California",
    "postal_code": "95020",
    "country": "United States",
    "longitude": -121.5695839,
    "latitude": 37.0088398,
    "phone": "4088467070",
    "website_url": null,
    "state": "California",
    "street": "7560 Monterey Rd Ste 100"
  },
  {
    "id": "4e6a4f7f-2527-4511-8231-03f80b1d74b8",
    "name": "Golden State Brewery",
    "brewery_type": "micro",
    "address_1": "1252 Memorex Dr",
    "address_2": null,
    "address_3": null,
    "city": "Santa Clara",
    "state_province": "California",
    "postal_code": "95050-2812",
    "country": "United States",
    "longitude": -121.9503168,
    "latitude": 37.36253839,
    "phone": "4087272337",
    "website_url": "http://www.goldenstate.beer",
    "state": "California",
    "street": "1252 Memorex Dr"
  },
  {
    "id": "474774f5-f9dc-42eb-9487-4bdf5a9533bf",
    "name": "Golden Valley Brewery and Pub",
    "brewery_type": "brewpub",
    "address_1": "980 NE 4th St",
    "address_2": null,
    "address_3": null,
    "city": "McMinnville",
    "state_province": "Oregon",
    "postal_code": "97128-4308",
    "country": "United States",
    "longitude": -123.1894925,
    "latitude": 45.21065713,
    "phone": null,
    "website_url": null,
    "state": "Oregon",
    "street": "980 NE 4th St"
  },
  {
    "id": "113ef241-1d07-45a6-a9e5-7a528f441063",
    "name": "Goldhorn Brewery",
    "brewery_type": "brewpub",
    "address_1": "1361 E 55th St",
    "address_2": null,
    "address_3": null,
    "city": "Cleveland",
    "state_province": "Ohio",
    "postal_code": "44103-1301",
    "country": "United States",
    "longitude": -81.6516143,
    "latitude": 41.5214479,
    "phone": null,
    "website_url": null,
    "state": "Ohio",
    "street": "1361 E 55th St"
  },
  {
    "id": "f75b8bf1-6fc4-467b-ba8e-cdb09b515042",
    "name": "Goldmark Craft Beers LTd",
    "brewery_type": "taproom",
    "address_1": "The Vinery",
    "address_2": null,
    "address_3": null,
    "city": "Arundel",
    "state_province": "West Sussex",
    "postal_code": "BN18 9PY",
    "country": "England",
    "longitude": -0.507102,
    "latitude": 50.84058,
    "phone": "1903297838",
    "website_url": "https://goldmarkbeers.co.uk/?v=79cba1185463",
    "state": "West Sussex",
    "street": "The Vinery"
  },
  {
    "id": "5667d9d2-8053-4a56-a246-2c5845ca4c74",
    "name": "Goldspot Brewing Co",
    "brewery_type": "micro",
    "address_1": "4970 Lowell Blvd",
    "address_2": null,
    "address_3": null,
    "city": "Denver",
    "state_province": "Colorado",
    "postal_code": "80221-1028",
    "country": "United States",
    "longitude": -105.0343545,
    "latitude": 39.7868924,
    "phone": "3039555657",
    "website_url": "http://www.goldspotbrewing.com",
    "state": "Colorado",
    "street": "4970 Lowell Blvd"
  },
  {
    "id": "1a2ef664-c118-4079-9513-9f374aef67cd",
    "name": "Goldwater Brewing Co",
    "brewery_type": "micro",
    "address_1": "3608 N Scottsdale Rd",
    "address_2": null,
    "address_3": null,
    "city": "Scottsdale",
    "state_province": "Arizona",
    "postal_code": "85251-5612",
    "country": "United States",
    "longitude": -111.9254955,
    "latitude": 33.658427,
    "phone": "4803507305",
    "website_url": "http://www.goldwaterbrewing.com",
    "state": "Arizona",
    "street": "3608 N Scottsdale Rd"
  },
  {
    "id": "b3128b43-31c0-420c-b2c0-5638c97aea95",
    "name": "Golgatha Biergarten",
    "brewery_type": "beergarden",
    "address_1": "Katzbachstra\u00dfe &  Monumentenstra\u00dfe",
    "address_2": null,
    "address_3": null,
    "city": "Berlin",
    "state_province": "Berlin",
    "postal_code": "10965",
    "country": "Germany",
    "longitude": 52.4868139,
    "latitude": 13.3791632,
    "phone": null,
    "website_url": "http://www.golgatha-berlin.de/",
    "state": "Berlin",
    "street": "Katzbachstra\u00dfe &  Monumentenstra\u00dfe"
  },
  {
    "id": "87b3024f-7071-4399-ace2-a0a6713271f4",
    "name": "Goliad Brewing Company",
    "brewery_type": "micro",
    "address_1": "252 Metting Rd",
    "address_2": null,
    "address_3": null,
    "city": "Goliad",
    "state_province": "Texas",
    "postal_code": "77963-3966",
    "country": "United States",
    "longitude": -97.39806345,
    "latitude": 28.69079583,
    "phone": "2817827860",
    "website_url": "http://www.goliadbrewing.com",
    "state": "Texas",
    "street": "252 Metting Rd"
  },
  {
    "id": "4c381866-9fca-4612-91e9-bb8294374386",
    "name": "Gonzo's BigDogg Brewery",
    "brewery_type": "brewpub",
    "address_1": "140 S Westnedge Ave",
    "address_2": null,
    "address_3": null,
    "city": "Kalamazoo",
    "state_province": "Michigan",
    "postal_code": "49007-4600",
    "country": "United States",
    "longitude": -85.59008261,
    "latitude": 42.2908852,
    "phone": "2693822739",
    "website_url": "http://www.gonzosbiggdoggbrewing.com",
    "state": "Michigan",
    "street": "140 S Westnedge Ave"
  },
  {
    "id": "67640d3f-1f88-4f7e-b603-4c52cac5aa1b",
    "name": "Good Bad Ugly Brewing Co. @ Tavern+Bowl Westgate",
    "brewery_type": "brewpub",
    "address_1": "6770 N Sunrise Blvd Ste G100",
    "address_2": null,
    "address_3": null,
    "city": "Glendale",
    "state_province": "Arizona",
    "postal_code": "85305-3224",
    "country": "United States",
    "longitude": null,
    "latitude": null,
    "phone": "9282088376",
    "website_url": "http://www.tavernbowlwestgate.com",
    "state": "Arizona",
    "street": "6770 N Sunrise Blvd Ste G100"
  },
  {
    "id": "4fc2ac9a-57df-4cf2-80c6-ba63dd3d8340",
    "name": "Good Brewing Company",
    "brewery_type": "micro",
    "address_1": "16104 125th Pl NE",
    "address_2": null,
    "address_3": null,
    "city": "Woodinville",
    "state_province": "Washington",
    "postal_code": "98072-7983",
    "country": "United States",
    "longitude": -122.1717877,
    "latitude": 47.74469959,
    "phone": "4252473245",
    "website_url": "http://www.globalbeercompany.com",
    "state": "Washington",
    "street": "16104 125th Pl NE"
  },
  {
    "id": "a20eb612-f3de-4e44-aef5-5a8d0c3548c6",
    "name": "Good City Brewing Company",
    "brewery_type": "brewpub",
    "address_1": "2108 N Farwell Ave",
    "address_2": null,
    "address_3": null,
    "city": "Milwaukee",
    "state_province": "Wisconsin",
    "postal_code": "53202-1115",
    "country": "United States",
    "longitude": -87.8889038,
    "latitude": 43.0565468,
    "phone": "4145394173",
    "website_url": "http://www.goodcitybrewing.com",
    "state": "Wisconsin",
    "street": "2108 N Farwell Ave"
  },
  {
    "id": "81a767f3-9342-4102-84b9-ffcb09726574",
    "name": "Good Earth Brewing",
    "brewery_type": "planning",
    "address_1": null,
    "address_2": null,
    "address_3": null,
    "city": "Terrebonne",
    "state_province": "Oregon",
    "postal_code": "97760-9709",
    "country": "United States",
    "longitude": null,
    "latitude": null,
    "phone": "5598609998",
    "website_url": "http://www.goodearthbrewing.com",
    "state": "Oregon",
    "street": null
  },
  {
    "id": "52559e7e-39e4-418e-bb43-368a74e38f1e",
    "name": "Good Hops Brewing LLC",
    "brewery_type": "micro",
    "address_1": "811 Harper Ave",
    "address_2": null,
    "address_3": null,
    "city": "Carolina Beach",
    "state_province": "North Carolina",
    "postal_code": "28428-4202",
    "country": "United States",
    "longitude": -77.9038204,
    "latitude": 34.04080721,
    "phone": "7067131594",
    "website_url": "http://www.goodhopsbrewing.com",
    "state": "North Carolina",
    "street": "811 Harper Ave"
  },
  {
    "id": "1df544e7-9d2b-4bc8-a9a0-a57d1baf058d",
    "name": "Good Liquid Brewing Company",
    "brewery_type": "micro",
    "address_1": "4824 14th St W",
    "address_2": null,
    "address_3": null,
    "city": "Bradenton",
    "state_province": "Florida",
    "postal_code": "34207-2017",
    "country": "United States",
    "longitude": -82.575274,
    "latitude": 27.470805,
    "phone": "9418966381",
    "website_url": "http://www.thegoodliquidbrewing.com",
    "state": "Florida",
    "street": "4824 14th St W"
  },
  {
    "id": "e9231b48-c709-4934-b6eb-0a79117523da",
    "name": "Good Measure Brewing Co",
    "brewery_type": "micro",
    "address_1": "17 East St",
    "address_2": null,
    "address_3": null,
    "city": "Northfield",
    "state_province": "Vermont",
    "postal_code": "05663-6719",
    "country": "United States",
    "longitude": -72.6556223,
    "latitude": 44.1487966,
    "phone": null,
    "website_url": "http://www.goodmeasurebrewing.com",
    "state": "Vermont",
    "street": "17 East St"
  },
  {
    "id": "6bba0c8b-6d21-4105-841d-bb24e3e49c5a",
    "name": "Good Nature Farm Brewery",
    "brewery_type": "micro",
    "address_1": "1727 State Route 12b",
    "address_2": null,
    "address_3": null,
    "city": "Hamilton",
    "state_province": "New York",
    "postal_code": "13346-2268",
    "country": "United States",
    "longitude": -75.54560551,
    "latitude": 42.807293,
    "phone": "3158242337",
    "website_url": "http://goodnaturebrewing.com",
    "state": "New York",
    "street": "1727 State Route 12b"
  },
  {
    "id": "a2f7f1df-4a8e-49a2-8272-7804ae685e97",
    "name": "Good Neighbor Brews",
    "brewery_type": "micro",
    "address_1": "211 Regency Dr",
    "address_2": null,
    "address_3": null,
    "city": "Wylie",
    "state_province": "Texas",
    "postal_code": "75098-7089",
    "country": "United States",
    "longitude": -96.58583347,
    "latitude": 33.00449384,
    "phone": "4694714287",
    "website_url": "http://www.goodneighborbrews.com",
    "state": "Texas",
    "street": "211 Regency Dr"
  },
  {
    "id": "e9d98f63-620d-4282-95bc-e6cc8240cdd2",
    "name": "Good News Brewing Company",
    "brewery_type": "brewpub",
    "address_1": "330 Sonderen St",
    "address_2": null,
    "address_3": null,
    "city": "O Fallon",
    "state_province": "Missouri",
    "postal_code": "63366-2629",
    "country": "United States",
    "longitude": -90.694613,
    "latitude": 38.807136,
    "phone": "6362946593",
    "website_url": "http://goodnewsbrewing.com",
    "state": "Missouri",
    "street": "330 Sonderen St"
  },
  {
    "id": "9bdcf023-7ca4-4cb2-95f1-8f03d7262810",
    "name": "Good People Brewing Co",
    "brewery_type": "micro",
    "address_1": "114 14th St S",
    "address_2": null,
    "address_3": null,
    "city": "Birmingham",
    "state_province": "Alabama",
    "postal_code": "35233-1415",
    "country": "United States",
    "longitude": -86.81217995,
    "latitude": 33.50759461,
    "phone": "6154984165",
    "website_url": "http://www.goodpeoplebrewing.com",
    "state": "Alabama",
    "street": "114 14th St S"
  },
  {
    "id": "36785f2c-ba97-48ed-8bcf-2b45c3a4a0d0",
    "name": "Good River Beer Company",
    "brewery_type": "contract",
    "address_1": "1790 S Bannock St.",
    "address_2": null,
    "address_3": null,
    "city": "Denver",
    "state_province": "Colorado",
    "postal_code": "80223",
    "country": "United States",
    "longitude": -104.9898169,
    "latitude": 39.68421218,
    "phone": "6023697442",
    "website_url": "http://www.grbeerco.com",
    "state": "Colorado",
    "street": "1790 S Bannock St."
  },
  {
    "id": "0a7e88a9-f4c1-4977-af19-9b5b18431889",
    "name": "Good Things Brewing Co Ltd",
    "brewery_type": "micro",
    "address_1": "Sandhill Lane",
    "address_2": null,
    "address_3": null,
    "city": "Tunbridge Wells",
    "state_province": "East Sussex",
    "postal_code": "TN3 9LP",
    "country": "England",
    "longitude": 0.204763,
    "latitude": 51.075834,
    "phone": "1892249012",
    "website_url": "https://goodthingsbrewing.co/",
    "state": "East Sussex",
    "street": "Sandhill Lane"
  },
  {
    "id": "b90cc90a-da50-4d39-9c27-67b32e299e57",
    "name": "Good Times Brewing",
    "brewery_type": "brewpub",
    "address_1": "237 Maxwell Ave",
    "address_2": null,
    "address_3": null,
    "city": "Greenwood",
    "state_province": "South Carolina",
    "postal_code": "29646-2616",
    "country": "United States",
    "longitude": -82.16363224,
    "latitude": 34.18989245,
    "phone": "8649937302",
    "website_url": "http://www.goodtimesbrewing.beer",
    "state": "South Carolina",
    "street": "237 Maxwell Ave"
  },
  {
    "id": "649e9b90-6572-4b02-9652-90d4ffec7a92",
    "name": "Good Word Brewing & Public House",
    "brewery_type": "brewpub",
    "address_1": "3085 Main St Ste 520",
    "address_2": null,
    "address_3": null,
    "city": "Duluth",
    "state_province": "Georgia",
    "postal_code": "30096-3261",
    "country": "United States",
    "longitude": null,
    "latitude": null,
    "phone": "4049732077",
    "website_url": "http://www.goodwordbrewing.com",
    "state": "Georgia",
    "street": "3085 Main St Ste 520"
  },
  {
    "id": "1c372c46-860d-40a6-9a33-8b1c491d6090",
    "name": "Goodfire Brewing Company",
    "brewery_type": "micro",
    "address_1": "219 Anderson St Ste 6",
    "address_2": null,
    "address_3": null,
    "city": "Portland",
    "state_province": "Maine",
    "postal_code": "04101-1401",
    "country": "United States",
    "longitude": null,
    "latitude": null,
    "phone": "2078088910",
    "website_url": "http://www.goodfirebrewing.com",
    "state": "Maine",
    "street": "219 Anderson St Ste 6"
  },
  {
    "id": "26b96041-d01d-4ec8-95a2-d0bb1d050455",
    "name": "GoodLife Brewing Company",
    "brewery_type": "regional",
    "address_1": "70 SW Century Ave 100-464",
    "address_2": null,
    "address_3": null,
    "city": "Bend",
    "state_province": "Oregon",
    "postal_code": "97701",
    "country": "United States",
    "longitude": -121.3302942,
    "latitude": 44.05138311,
    "phone": "5417280749",
    "website_url": "http://www.goodlifebrewing.com",
    "state": "Oregon",
    "street": "70 SW Century Ave 100-464"
  },
  {
    "id": "df996aa0-8e03-48af-9143-080e58b236cb",
    "name": "GoodWater Brewery",
    "brewery_type": "micro",
    "address_1": "740 Marshall Ave",
    "address_2": null,
    "address_3": null,
    "city": "Williston",
    "state_province": "Vermont",
    "postal_code": "05495-8978",
    "country": "United States",
    "longitude": null,
    "latitude": null,
    "phone": "8029997396",
    "website_url": "http://www.goodwaterbreweryvt.com",
    "state": "Vermont",
    "street": "740 Marshall Ave"
  },
  {
    "id": "0eba6b3c-8158-4610-a120-c0a90e5922c9",
    "name": "Goodwood Brewery",
    "brewery_type": "micro",
    "address_1": "Goodwood Farm",
    "address_2": null,
    "address_3": null,
    "city": "Chichester",
    "state_province": "West Sussex",
    "postal_code": "PO18 0QF",
    "country": "England",
    "longitude": -0.721936,
    "latitude": 50.871619,
    "phone": "1243755154",
    "website_url": "https://www.goodwood.com/",
    "state": "West Sussex",
    "street": "Goodwood Farm"
  },
  {
    "id": "af71f073-98d7-4791-afe1-6d6c29637ad3",
    "name": "Goodwood Brewing Co",
    "brewery_type": "micro",
    "address_1": "636 E Main St",
    "address_2": null,
    "address_3": null,
    "city": "Louisville",
    "state_province": "Kentucky",
    "postal_code": "40202-1004",
    "country": "United States",
    "longitude": -85.7400684,
    "latitude": 38.254635,
    "phone": "5025842739",
    "website_url": "http://www.goodwood.beer",
    "state": "Kentucky",
    "street": "636 E Main St"
  },
  {
    "id": "c77a6112-2b38-4e69-ae8e-53077c8f2307",
    "name": "Goose And The Monkey Brew House, LLC",
    "brewery_type": "planning",
    "address_1": null,
    "address_2": null,
    "address_3": null,
    "city": "Lexington",
    "state_province": "North Carolina",
    "postal_code": "27292",
    "country": "United States",
    "longitude": null,
    "latitude": null,
    "phone": "3362405310",
    "website_url": "http://www.gooseandthemonkeybrewhouse.com",
    "state": "North Carolina",
    "street": null
  },
  {
    "id": "8e309724-11ae-4fc0-8d18-3ae64eeaa84a",
    "name": "Goose Island Beer Co / Fulton St",
    "brewery_type": "large",
    "address_1": "1800 W Fulton St",
    "address_2": null,
    "address_3": null,
    "city": "Chicago",
    "state_province": "Illinois",
    "postal_code": "60612-2512",
    "country": "United States",
    "longitude": -87.6722122,
    "latitude": 41.8870058,
    "phone": "3122261119",
    "website_url": "http://www.gooseisland.com",
    "state": "Illinois",
    "street": "1800 W Fulton St"
  },
  {
    "id": "4cc60614-30c4-406a-9fec-c5dc01b22863",
    "name": "Goose Island Brewhouse Seoul",
    "brewery_type": "brewpub",
    "address_1": "118, Yeoksam-ro",
    "address_2": null,
    "address_3": null,
    "city": "Gangnam-gu",
    "state_province": "Seoul",
    "postal_code": "06251",
    "country": "South Korea",
    "longitude": 127.0323206,
    "latitude": 37.49360307,
    "phone": "02-6205-1785",
    "website_url": "https://gooseisland.kr",
    "state": "Seoul",
    "street": "118, Yeoksam-ro"
  },
  {
    "id": "8ef0b76f-0cd8-4c9d-ad65-61627c7276d7",
    "name": "Goose Island Brewpub",
    "brewery_type": "large",
    "address_1": "1800 N Clybourn Ave Ste B",
    "address_2": null,
    "address_3": null,
    "city": "Chicago",
    "state_province": "Illinois",
    "postal_code": "60614-4895",
    "country": "United States",
    "longitude": null,
    "latitude": null,
    "phone": "3129150071",
    "website_url": "http://www.gooseisland.com",
    "state": "Illinois",
    "street": "1800 N Clybourn Ave Ste B"
  },
  {
    "id": "c395ff94-7641-4115-804b-5eec844b6fdb",
    "name": "Goose Island Philadelphia",
    "brewery_type": "brewpub",
    "address_1": "1002 Canal St",
    "address_2": null,
    "address_3": null,
    "city": "Philadelphia",
    "state_province": "Pennsylvania",
    "postal_code": "19123",
    "country": "United States",
    "longitude": -75.13506341,
    "latitude": 39.9648491,
    "phone": null,
    "website_url": null,
    "state": "Pennsylvania",
    "street": "1002 Canal St"
  },
  {
    "id": "9a0a767e-4958-40b0-8ed1-74bd5e719cc2",
    "name": "Gordon Biersch Brewery Restaurant - Annapolis",
    "brewery_type": "brewpub",
    "address_1": "1906 Towne Centre Blvd Ste 155",
    "address_2": null,
    "address_3": null,
    "city": "Annapolis",
    "state_province": "Maryland",
    "postal_code": "21401-3681",
    "country": "United States",
    "longitude": null,
    "latitude": null,
    "phone": "4102665965",
    "website_url": "http://www.craftworksrestaurants.com",
    "state": "Maryland",
    "street": "1906 Towne Centre Blvd Ste 155"
  },
  {
    "id": "a638f91d-b523-4965-875b-2c2580e990f2",
    "name": "Gordon Biersch Brewery Restaurant - Atlanta",
    "brewery_type": "brewpub",
    "address_1": "3242 Peachtree Rd NE",
    "address_2": null,
    "address_3": null,
    "city": "Atlanta",
    "state_province": "Georgia",
    "postal_code": "30305-2425",
    "country": "United States",
    "longitude": -84.3620936,
    "latitude": 33.8503143,
    "phone": "4042640253",
    "website_url": "http://www.craftworksrestaurants.com",
    "state": "Georgia",
    "street": "3242 Peachtree Rd NE"
  },
  {
    "id": "f7086ed0-8048-47ae-81a9-6de88b8ee3e5",
    "name": "Gordon Biersch Brewery Restaurant - Baltimore",
    "brewery_type": "brewpub",
    "address_1": "1000 Lancaster St Ste B",
    "address_2": null,
    "address_3": null,
    "city": "Baltimore",
    "state_province": "Maryland",
    "postal_code": "21202-4631",
    "country": "United States",
    "longitude": null,
    "latitude": null,
    "phone": "4102309501",
    "website_url": "http://www.craftworksrestaurants.com",
    "state": "Maryland",
    "street": "1000 Lancaster St Ste B"
  },
  {
    "id": "7cc2bf9e-f8fa-4c55-a414-e3061e288af8",
    "name": "Gordon Biersch Brewery Restaurant - Bolingbrook",
    "brewery_type": "brewpub",
    "address_1": "639 E Boughton Rd Ste 100",
    "address_2": null,
    "address_3": null,
    "city": "Bolingbrook",
    "state_province": "Illinois",
    "postal_code": "60440-3126",
    "country": "United States",
    "longitude": -88.042356,
    "latitude": 41.721179,
    "phone": "6307396036",
    "website_url": "http://www.craftworksrestaurants.com",
    "state": "Illinois",
    "street": "639 E Boughton Rd Ste 100"
  },
  {
    "id": "022a19bf-eacd-4b5d-a3f3-e65fcebd0576",
    "name": "Gordon Biersch Brewery Restaurant - Broomfield",
    "brewery_type": "brewpub",
    "address_1": "1 W Flatiron Crossing Dr Ste 428",
    "address_2": null,
    "address_3": null,
    "city": "Broomfield",
    "state_province": "Colorado",
    "postal_code": "80021-8214",
    "country": "United States",
    "longitude": null,
    "latitude": null,
    "phone": "7208872991",
    "website_url": "http://www.gordonbiersch.com/restaurant",
    "state": "Colorado",
    "street": "1 W Flatiron Crossing Dr Ste 428"
  },
  {
    "id": "08b8bac1-e93f-48cf-9b2d-8a216d721f46",
    "name": "Gordon Biersch Brewery Restaurant - Buffalo",
    "brewery_type": "brewpub",
    "address_1": "Store P102 Galleria Dr",
    "address_2": null,
    "address_3": null,
    "city": "Cheektowaga",
    "state_province": "New York",
    "postal_code": "14225-5408",
    "country": "United States",
    "longitude": null,
    "latitude": null,
    "phone": "7166830050",
    "website_url": "http://www.craftworksrestaurants.com",
    "state": "New York",
    "street": "Store P102 Galleria Dr"
  },
  {
    "id": "f075e848-4ad0-428d-9471-4fb577506554",
    "name": "Gordon Biersch Brewery Restaurant - Burbank",
    "brewery_type": "brewpub",
    "address_1": "145 S San Fernando Blvd",
    "address_2": null,
    "address_3": null,
    "city": "Burbank",
    "state_province": "California",
    "postal_code": "91502-1322",
    "country": "United States",
    "longitude": -118.3083397,
    "latitude": 34.18041759,
    "phone": "8185695240",
    "website_url": "http://www.gordonbiersch.com/restaurant",
    "state": "California",
    "street": "145 S San Fernando Blvd"
  },
  {
    "id": "961d74ed-dc8a-4894-8283-b979b6e547af",
    "name": "Gordon Biersch Brewery Restaurant - Columbus",
    "brewery_type": "closed",
    "address_1": "401 N Front St Ste 120",
    "address_2": null,
    "address_3": null,
    "city": "Columbus",
    "state_province": "Ohio",
    "postal_code": "43215-8200",
    "country": "United States",
    "longitude": -83.0040735,
    "latitude": 39.9703677,
    "phone": "6142462900",
    "website_url": "http://www.gordonbiersch.com/restaurant",
    "state": "Ohio",
    "street": "401 N Front St Ste 120"
  }
]