[
  {
    "id": "914c6a0a-cc97-4db2-9956-cee2505194c7",
    "name": "Sports Brewpub",
    "brewery_type": "brewpub",
    "address_1": "166 Maple St",
    "address_2": null,
    "address_3": null,
    "city": "Wyandotte",
    "state_province": "Michigan",
    "postal_code": "48192-5928",
    "country": "United States",
    "longitude": -83.15132628,
    "latitude": 42.20229805,
    "phone": "7342855060",
    "website_url": null,
    "state": "Michigan",
    "street": "166 Maple St"
  },
  {
    "id": "1e01a465-adc4-4d87-affc-be9648ac0dbd",
    "name": "SportsBreweries",
    "brewery_type": "contract",
    "address_1": "Private Rd 5128",
    "address_2": null,
    "address_3": null,
    "city": "Frisco",
    "state_province": "Texas",
    "postal_code": "75034",
    "country": "United States",
    "longitude": -96.7687762,
    "latitude": 33.1787931,
    "phone": "9726038647",
    "website_url": "http://www.sportsbreweries.com",
    "state": "Texas",
    "street": "Private Rd 5128"
  },
  {
    "id": "f8c5522b-6ccf-44ff-86b4-92498df8a9a5",
    "name": "Spotted Dog Brewery",
    "brewery_type": "brewpub",
    "address_1": "2920 Avenida De Mesilla",
    "address_2": null,
    "address_3": null,
    "city": "Las Cruces",
    "state_province": "New Mexico",
    "postal_code": "88005",
    "country": "United States",
    "longitude": -106.7852399,
    "latitude": 32.2938747,
    "phone": "5756502729",
    "website_url": "http://www.spotteddogbrewery.com",
    "state": "New Mexico",
    "street": "2920 Avenida De Mesilla"
  },
  {
    "id": "e2d456b2-1c64-488b-9c11-8c9f3e7e06e0",
    "name": "Sprague Farm and Brew Works",
    "brewery_type": "brewpub",
    "address_1": "22043 US Highway 6 and 19",
    "address_2": null,
    "address_3": null,
    "city": "Venango",
    "state_province": "Pennsylvania",
    "postal_code": "16440-2507",
    "country": "United States",
    "longitude": null,
    "latitude": null,
    "phone": "8143982885",
    "website_url": "http://www.sleepingchainsaw.com",
    "state": "Pennsylvania",
    "street": "22043 US Highway 6 and 19"
  },
  {
    "id": "79572eef-8de1-40ed-a2d2-19e8ecb77f6f",
    "name": "Sprecher Brewing Co / Chameleon Brewing",
    "brewery_type": "micro",
    "address_1": "701 W Glendale Ave",
    "address_2": null,
    "address_3": null,
    "city": "Glendale",
    "state_province": "Wisconsin",
    "postal_code": "53209-6509",
    "country": "United States",
    "longitude": -87.91969511,
    "latitude": 43.09929865,
    "phone": "4149647837",
    "website_url": "http://www.sprecherbrewery.com",
    "state": "Wisconsin",
    "street": "701 W Glendale Ave"
  },
  {
    "id": "46d4fd81-7f86-4a5e-82fd-4aa41d6039f7",
    "name": "Spring Gate Brewery",
    "brewery_type": "micro",
    "address_1": "5790 Devonshire Rd",
    "address_2": null,
    "address_3": null,
    "city": "Harrisburg",
    "state_province": "Pennsylvania",
    "postal_code": "17112-3508",
    "country": "United States",
    "longitude": null,
    "latitude": null,
    "phone": "7174800066",
    "website_url": "http://www.springgatebrewery.com",
    "state": "Pennsylvania",
    "street": "5790 Devonshire Rd"
  },
  {
    "id": "f09b40bb-4707-4988-9d36-3335dd8ca12a",
    "name": "Spring House Brewery",
    "brewery_type": "micro",
    "address_1": "209 Hazel St",
    "address_2": null,
    "address_3": null,
    "city": "Lancaster",
    "state_province": "Pennsylvania",
    "postal_code": "17603-5629",
    "country": "United States",
    "longitude": -76.30710904,
    "latitude": 40.02936738,
    "phone": "7178720925",
    "website_url": "http://www.springhousebeer.com",
    "state": "Pennsylvania",
    "street": "209 Hazel St"
  },
  {
    "id": "27d36dac-a058-47ee-ae9b-a73f7e440bef",
    "name": "Spring Mountain Brewing Company",
    "brewery_type": "planning",
    "address_1": null,
    "address_2": null,
    "address_3": null,
    "city": "Schwenksville",
    "state_province": "Pennsylvania",
    "postal_code": "19473-1811",
    "country": "United States",
    "longitude": null,
    "latitude": null,
    "phone": null,
    "website_url": null,
    "state": "Pennsylvania",
    "street": null
  },
  {
    "id": "fdab4b0b-4e70-4033-a944-69a49285e5f4",
    "name": "Springfield Brewing Co",
    "brewery_type": "brewpub",
    "address_1": "305 S Market Ave",
    "address_2": null,
    "address_3": null,
    "city": "Springfield",
    "state_province": "Missouri",
    "postal_code": "65806-2023",
    "country": "United States",
    "longitude": -93.295625,
    "latitude": 37.20776303,
    "phone": "4178328277",
    "website_url": "http://www.springfieldbrewingco.com",
    "state": "Missouri",
    "street": "305 S Market Ave"
  },
  {
    "id": "e54cd6ed-f53a-4043-8194-42198c5a2660",
    "name": "Spyglass Brewing Company",
    "brewery_type": "brewpub",
    "address_1": "306 Innovative Way",
    "address_2": null,
    "address_3": null,
    "city": "Nashua",
    "state_province": "New Hampshire",
    "postal_code": "03062",
    "country": "United States",
    "longitude": null,
    "latitude": null,
    "phone": "6035462965",
    "website_url": null,
    "state": "New Hampshire",
    "street": "306 Innovative Way"
  },
  {
    "id": "e4700c25-7368-4880-90c0-3b3e27faf9d6",
    "name": "Squam Brewing Co",
    "brewery_type": "closed",
    "address_1": "118 Perch Pond Rd",
    "address_2": null,
    "address_3": null,
    "city": "Holderness",
    "state_province": "New Hampshire",
    "postal_code": "03245-5234",
    "country": "United States",
    "longitude": -71.589971,
    "latitude": 43.78514,
    "phone": "6032369705",
    "website_url": "http://www.squambrewing.com",
    "state": "New Hampshire",
    "street": "118 Perch Pond Rd"
  },
  {
    "id": "d603fb71-4ae5-4e4d-aa48-82b663dcd09a",
    "name": "Square One Brewery and Distillery",
    "brewery_type": "brewpub",
    "address_1": "1727 Park Ave",
    "address_2": null,
    "address_3": null,
    "city": "Saint Louis",
    "state_province": "Missouri",
    "postal_code": "63104-2941",
    "country": "United States",
    "longitude": -90.21039473,
    "latitude": 38.616665,
    "phone": "3142312537",
    "website_url": "http://www.squareonebrewery.com",
    "state": "Missouri",
    "street": "1727 Park Ave"
  },
  {
    "id": "33a8a104-863a-4319-8806-78c9e12988d0",
    "name": "Square Peg Brewerks",
    "brewery_type": "micro",
    "address_1": "625 Main St",
    "address_2": null,
    "address_3": null,
    "city": "Alamosa",
    "state_province": "Colorado",
    "postal_code": "81101-2557",
    "country": "United States",
    "longitude": -105.8742898,
    "latitude": 37.4681813,
    "phone": "7195807472",
    "website_url": "http://www.squarepegbrewerks.com",
    "state": "Colorado",
    "street": "625 Main St"
  },
  {
    "id": "c4690e60-d4f7-4878-a274-dd96e3f29952",
    "name": "Square State Brewing",
    "brewery_type": "micro",
    "address_1": "422 S Main St",
    "address_2": null,
    "address_3": null,
    "city": "Rock Springs",
    "state_province": "Wyoming",
    "postal_code": "82901",
    "country": "United States",
    "longitude": -109.2206404,
    "latitude": 41.58624714,
    "phone": "3073626159",
    "website_url": "https://www.facebook.com/squarestatebrewing",
    "state": "Wyoming",
    "street": "422 S Main St"
  },
  {
    "id": "6fe63931-cfa6-41b0-bdab-84b8aa9692af",
    "name": "Square Wheel Brewing Co",
    "brewery_type": "micro",
    "address_1": "4705 N Fruit Hill Rd",
    "address_2": null,
    "address_3": null,
    "city": "Spokane",
    "state_province": "Washington",
    "postal_code": "99217-9619",
    "country": "United States",
    "longitude": -117.2538107,
    "latitude": 47.69800496,
    "phone": "5099942600",
    "website_url": "http://www.squarewheelbrewing.com",
    "state": "Washington",
    "street": "4705 N Fruit Hill Rd"
  },
  {
    "id": "32f7a57c-b7d7-41c2-a30b-cb32a0ee6728",
    "name": "SquareHead Brewing",
    "brewery_type": "micro",
    "address_1": "405 High St Ste 1",
    "address_2": null,
    "address_3": null,
    "city": "Holbrook",
    "state_province": "New York",
    "postal_code": "11741-5317",
    "country": "United States",
    "longitude": null,
    "latitude": null,
    "phone": "6319213060",
    "website_url": "http://www.squareheadbrewing.com",
    "state": "New York",
    "street": "405 High St Ste 1"
  },
  {
    "id": "3f915a29-98ec-4312-a511-ffd9c1a87080",
    "name": "SQZBX Brewery",
    "brewery_type": "brewpub",
    "address_1": "236 Ouachita Ave",
    "address_2": null,
    "address_3": null,
    "city": "Hot Springs",
    "state_province": "Arkansas",
    "postal_code": "71901",
    "country": "United States",
    "longitude": -93.0557936,
    "latitude": 34.50751903,
    "phone": "5016090609",
    "website_url": "http://www.sqzbx.com",
    "state": "Arkansas",
    "street": "236 Ouachita Ave"
  },
  {
    "id": "eee29813-8cdf-462b-8f05-28fba55de0a2",
    "name": "SR 76 Beerworks",
    "brewery_type": "closed",
    "address_1": "777 HARRAHS RINCON WAY",
    "address_2": null,
    "address_3": null,
    "city": "Valley Center",
    "state_province": "California",
    "postal_code": "92082",
    "country": "United States",
    "longitude": -116.9565022,
    "latitude": 33.26707487,
    "phone": "7607513100",
    "website_url": "http://www.SR76beerworks.com",
    "state": "California",
    "street": "777 HARRAHS RINCON WAY"
  },
  {
    "id": "5e1b4f2a-5337-4def-8685-7c2584c8f1f9",
    "name": "SS Fermentations Ltd.",
    "brewery_type": "planning",
    "address_1": null,
    "address_2": null,
    "address_3": null,
    "city": "Montrose",
    "state_province": "Colorado",
    "postal_code": "81401-3927",
    "country": "United States",
    "longitude": null,
    "latitude": null,
    "phone": "9706184332",
    "website_url": null,
    "state": "Colorado",
    "street": null
  },
  {
    "id": "e2876f5d-0f50-4cae-8d00-76b8edfe7ba0",
    "name": "St Ambrose Cellars",
    "brewery_type": "micro",
    "address_1": "841 S Pioneer Rd",
    "address_2": null,
    "address_3": null,
    "city": "Beulah",
    "state_province": "Michigan",
    "postal_code": "49617",
    "country": "United States",
    "longitude": null,
    "latitude": null,
    "phone": "2313834262",
    "website_url": "http://www.stambrose-mead-wine.com",
    "state": "Michigan",
    "street": "841 S Pioneer Rd"
  },
  {
    "id": "39a858eb-c5a5-4945-833f-94e0275e79b5",
    "name": "St Arnulf Alery",
    "brewery_type": "micro",
    "address_1": "3152 Kings Chapel Rd",
    "address_2": null,
    "address_3": null,
    "city": "Cadiz",
    "state_province": "Kentucky",
    "postal_code": "42211-0000",
    "country": "United States",
    "longitude": null,
    "latitude": null,
    "phone": "5023094703",
    "website_url": null,
    "state": "Kentucky",
    "street": "3152 Kings Chapel Rd"
  },
  {
    "id": "54b60883-bd42-4a2a-a9a3-d1581e9ee648",
    "name": "St Brigid's Brewery",
    "brewery_type": "brewpub",
    "address_1": "606 W Broadway Ave",
    "address_2": null,
    "address_3": null,
    "city": "Moses Lake",
    "state_province": "Washington",
    "postal_code": "98837-1900",
    "country": "United States",
    "longitude": -119.2850962,
    "latitude": 47.12808368,
    "phone": "5097508357",
    "website_url": "http://www.stbrigidsbrewery.com",
    "state": "Washington",
    "street": "606 W Broadway Ave"
  },
  {
    "id": "939ad04e-cc0c-4998-a586-07e96dbec2b7",
    "name": "St Clair Brown Winery & Brewery",
    "brewery_type": "micro",
    "address_1": "816 Vallejo St",
    "address_2": null,
    "address_3": null,
    "city": "Napa",
    "state_province": "California",
    "postal_code": "94559",
    "country": "United States",
    "longitude": -122.286082,
    "latitude": 38.304877,
    "phone": "7072555591",
    "website_url": "http://www.stclairbrownwinery.com",
    "state": "California",
    "street": "816 Vallejo St"
  },
  {
    "id": "af822c22-b3af-4258-be3d-50f7b19775bd",
    "name": "St Elias Brewing Co",
    "brewery_type": "micro",
    "address_1": "434 Sharkathmi Ave",
    "address_2": null,
    "address_3": null,
    "city": "Soldotna",
    "state_province": "Alaska",
    "postal_code": "99669-7665",
    "country": "United States",
    "longitude": -151.0472293,
    "latitude": 60.49148673,
    "phone": "9072607837",
    "website_url": "http://steliasbrewingco.com",
    "state": "Alaska",
    "street": "434 Sharkathmi Ave"
  },
  {
    "id": "495b5dbf-29bc-45c0-ba38-1ac315e048df",
    "name": "St John Malt Brothers Brewing",
    "brewery_type": "brewpub",
    "address_1": "9607 Wicker Ave",
    "address_2": null,
    "address_3": null,
    "city": "Saint John",
    "state_province": "Indiana",
    "postal_code": "46373-9487",
    "country": "United States",
    "longitude": -87.46998163,
    "latitude": 41.44507008,
    "phone": "2196274294",
    "website_url": "http://www.sjmaltbros.com",
    "state": "Indiana",
    "street": "9607 Wicker Ave"
  },
  {
    "id": "f81bd920-0c44-4b6a-80c3-56d85bae7e63",
    "name": "St Nicholas Brewing Co",
    "brewery_type": "brewpub",
    "address_1": "12 S Oak St",
    "address_2": null,
    "address_3": null,
    "city": "Du Quoin",
    "state_province": "Illinois",
    "postal_code": "62832-1515",
    "country": "United States",
    "longitude": -89.23946916,
    "latitude": 38.01026114,
    "phone": "6187909212",
    "website_url": null,
    "state": "Illinois",
    "street": "12 S Oak St"
  },
  {
    "id": "0d38db8d-fab3-44f6-985e-a84daf3a375f",
    "name": "St. Benedict's Brew Works",
    "brewery_type": "micro",
    "address_1": "860 E 10th St",
    "address_2": null,
    "address_3": null,
    "city": "Ferdinand",
    "state_province": "Indiana",
    "postal_code": "47532-9240",
    "country": "United States",
    "longitude": -86.85419491,
    "latitude": 38.2242289,
    "phone": "8129982337",
    "website_url": "http://www.saintbenedictsbrewworks.com",
    "state": "Indiana",
    "street": "860 E 10th St"
  },
  {
    "id": "34998893-151f-45cd-8868-39ece0153f71",
    "name": "St. Elmo Brewing Company",
    "brewery_type": "micro",
    "address_1": "440 E Saint Elmo Rd",
    "address_2": null,
    "address_3": null,
    "city": "Austin",
    "state_province": "Texas",
    "postal_code": "78745-1281",
    "country": "United States",
    "longitude": -97.7611749,
    "latitude": 30.2174321,
    "phone": "7373001965",
    "website_url": "http://www.stelmobrewing.com",
    "state": "Texas",
    "street": "440 E Saint Elmo Rd"
  },
  {
    "id": "2cffa385-76b3-4165-b9fc-c04afe0d0111",
    "name": "St. Florian's Brewery",
    "brewery_type": "closed",
    "address_1": "7704 Bell Rd Ste A",
    "address_2": null,
    "address_3": null,
    "city": "Windsor",
    "state_province": "California",
    "postal_code": "95492-8518",
    "country": "United States",
    "longitude": -122.8033977,
    "latitude": 38.53735645,
    "phone": "7078382739",
    "website_url": "http://www.stfloriansbrewery.com",
    "state": "California",
    "street": "7704 Bell Rd Ste A"
  },
  {
    "id": "f46a0c87-024d-42b5-ab54-3b41c202276d",
    "name": "St. Francis Brewing Company",
    "brewery_type": "brewpub",
    "address_1": "3825 S Kinnickinnic Ave",
    "address_2": null,
    "address_3": null,
    "city": "Saint Francis",
    "state_province": "Wisconsin",
    "postal_code": "53235-4225",
    "country": "United States",
    "longitude": -87.875747,
    "latitude": 42.97452,
    "phone": "4147444448",
    "website_url": "http://www.stfrancisbrewery.com",
    "state": "Wisconsin",
    "street": "3825 S Kinnickinnic Ave"
  },
  {
    "id": "086e6663-04da-4d88-a813-d5ea1fa579f3",
    "name": "St. Joseph Brewery & Public House",
    "brewery_type": "brewpub",
    "address_1": "540 N College Ave",
    "address_2": null,
    "address_3": null,
    "city": "Indianapolis",
    "state_province": "Indiana",
    "postal_code": "46202-3504",
    "country": "United States",
    "longitude": -86.1449174,
    "latitude": 39.8095687,
    "phone": "3176025670",
    "website_url": "http://www.saintjoseph.beer.com",
    "state": "Indiana",
    "street": "540 N College Ave"
  },
  {
    "id": "18ec104f-d648-4119-a926-39d3f5232945",
    "name": "St. Mel's Brewing Company",
    "brewery_type": "micro",
    "address_1": "Unit 4 Longford Community Enterprise Centre",
    "address_2": "Ballinalee Rd",
    "address_3": null,
    "city": "Longford",
    "state_province": "Longford",
    "postal_code": "N39 K2Y0",
    "country": "Ireland",
    "longitude": -7.7844491,
    "latitude": 53.7335776,
    "phone": "353433348335",
    "website_url": "https://www.stmelsbrewing.com/",
    "state": "Longford",
    "street": "Unit 4 Longford Community Enterprise Centre"
  },
  {
    "id": "fd0debe1-ea74-4e3e-b724-2efb69def9de",
    "name": "St. Pete Brewing Company",
    "brewery_type": "micro",
    "address_1": "544 1st Ave N\u00c2\u00a0",
    "address_2": null,
    "address_3": null,
    "city": "Saint Petersburg",
    "state_province": "Florida",
    "postal_code": "33701-3702",
    "country": "United States",
    "longitude": -82.64102088,
    "latitude": 27.77179015,
    "phone": "7276928809",
    "website_url": "http://www.stpetebrewingcompany.com",
    "state": "Florida",
    "street": "544 1st Ave N\u00c2\u00a0"
  },
  {
    "id": "ac9ab389-9f5d-465a-a4fe-3634cb34de6f",
    "name": "Staas Brewing Company",
    "brewery_type": "micro",
    "address_1": "31 W Winter St",
    "address_2": null,
    "address_3": null,
    "city": "Delaware",
    "state_province": "Ohio",
    "postal_code": "43015-1948",
    "country": "United States",
    "longitude": -83.069285,
    "latitude": 40.300173,
    "phone": "7404174690",
    "website_url": "http://www.staasbrewing.com",
    "state": "Ohio",
    "street": "31 W Winter St"
  },
  {
    "id": "525c36b6-823a-4a5a-b25c-054748e6e6a4",
    "name": "Stable 12 Brewing Company",
    "brewery_type": "brewpub",
    "address_1": "368 Bridge St",
    "address_2": null,
    "address_3": null,
    "city": "Phoenixville",
    "state_province": "Pennsylvania",
    "postal_code": "19460-3358",
    "country": "United States",
    "longitude": -75.5195231,
    "latitude": 40.1335808,
    "phone": null,
    "website_url": "http://www.stable12.com",
    "state": "Pennsylvania",
    "street": "368 Bridge St"
  },
  {
    "id": "a25ccbc8-adc1-4ae9-ae59-af0ede4a4f24",
    "name": "Stable Craft Brewing",
    "brewery_type": "brewpub",
    "address_1": "375 Madrid Rd",
    "address_2": null,
    "address_3": null,
    "city": "Waynesboro",
    "state_province": "Virginia",
    "postal_code": "22980-6230",
    "country": "United States",
    "longitude": null,
    "latitude": null,
    "phone": "5404902609",
    "website_url": "http://www.stablecraftbrewing.com",
    "state": "Virginia",
    "street": "375 Madrid Rd"
  },
  {
    "id": "977bad75-df98-4e2e-ad5a-ac2c6c22d120",
    "name": "Stache Rabbit Brewing Company",
    "brewery_type": "planning",
    "address_1": null,
    "address_2": null,
    "address_3": null,
    "city": "Austin",
    "state_province": "Texas",
    "postal_code": "78727-5907",
    "country": "United States",
    "longitude": null,
    "latitude": null,
    "phone": null,
    "website_url": null,
    "state": "Texas",
    "street": null
  },
  {
    "id": "87465738-6b69-49d2-9879-f330924a1d25",
    "name": "Stacked Deck Brewing",
    "brewery_type": "planning",
    "address_1": null,
    "address_2": null,
    "address_3": null,
    "city": "Saint Paul",
    "state_province": "Minnesota",
    "postal_code": "55101-1712",
    "country": "United States",
    "longitude": null,
    "latitude": null,
    "phone": "6512145448",
    "website_url": "http://www.stackeddeckbrewing.com",
    "state": "Minnesota",
    "street": null
  },
  {
    "id": "582ab28e-02b0-4b32-af6a-8e216c61ea1e",
    "name": "Stadium Brewing Co",
    "brewery_type": "brewpub",
    "address_1": "26731 Aliso Creek Rd Ste C",
    "address_2": null,
    "address_3": null,
    "city": "Aliso Viejo",
    "state_province": "California",
    "postal_code": "92656-4811",
    "country": "United States",
    "longitude": -117.7264877,
    "latitude": 33.57546729,
    "phone": "9494489611",
    "website_url": "http://www.stadiumbrewingco.com",
    "state": "California",
    "street": "26731 Aliso Creek Rd Ste C"
  },
  {
    "id": "40fddccc-5f32-4857-b367-0bb27025881a",
    "name": "Stadium Pizza - Murrieta",
    "brewery_type": "brewpub",
    "address_1": "32278 Clinton Keith Rd Ste 101",
    "address_2": null,
    "address_3": null,
    "city": "Wildomar",
    "state_province": "California",
    "postal_code": "92595-7314",
    "country": "United States",
    "longitude": -117.2479529,
    "latitude": 33.5934458,
    "phone": "9516787826",
    "website_url": "http://www.stadiumpizza.com",
    "state": "California",
    "street": "32278 Clinton Keith Rd Ste 101"
  },
  {
    "id": "ec60f341-addb-4b7d-be05-d4c88fdb15f6",
    "name": "Stadium Pizza Main ST",
    "brewery_type": "brewpub",
    "address_1": "169 N Main St",
    "address_2": null,
    "address_3": null,
    "city": "Lake Elsinore",
    "state_province": "California",
    "postal_code": "92530-4005",
    "country": "United States",
    "longitude": -117.32741,
    "latitude": 33.66945923,
    "phone": "9512282128",
    "website_url": "http://www.stadiumpizza.com",
    "state": "California",
    "street": "169 N Main St"
  },
  {
    "id": "9f0a5c89-d187-4b92-aeb7-ae6937fd4c59",
    "name": "Stahoo's Brewery and Taproom",
    "brewery_type": "taproom",
    "address_1": "1015 E C St",
    "address_2": null,
    "address_3": null,
    "city": "Casper",
    "state_province": "Wyoming",
    "postal_code": "82601-2124",
    "country": "United States",
    "longitude": -106.311616377,
    "latitude": 42.854939790534,
    "phone": "3072470464",
    "website_url": "http://www.stahoosbrewery.com",
    "state": "Wyoming",
    "street": "1015 E C St"
  },
  {
    "id": "e8875dc6-aa58-4c97-90d5-7b5c4fa07d83",
    "name": "Stained Glass Beerworks",
    "brewery_type": "planning",
    "address_1": null,
    "address_2": null,
    "address_3": null,
    "city": "Houston",
    "state_province": "Texas",
    "postal_code": "77066-2310",
    "country": "United States",
    "longitude": null,
    "latitude": null,
    "phone": "7134529337",
    "website_url": "http://www.stainedglassbeerworks.com",
    "state": "Texas",
    "street": null
  },
  {
    "id": "9b20b1ab-a897-4f76-9cd5-398519aeee86",
    "name": "Standard Brewing",
    "brewery_type": "brewpub",
    "address_1": "2504 S Jackson St Ste C",
    "address_2": null,
    "address_3": null,
    "city": "Seattle",
    "state_province": "Washington",
    "postal_code": "98144-2382",
    "country": "United States",
    "longitude": -122.29977474611,
    "latitude": 47.599639627309,
    "phone": "2065351584",
    "website_url": "http://www.standardbrew.com",
    "state": "Washington",
    "street": "2504 S Jackson St Ste C"
  },
  {
    "id": "ec7a9bb2-e833-4221-a51a-579b5168d4af",
    "name": "Standard Deviant Brewing",
    "brewery_type": "micro",
    "address_1": "280 14th St",
    "address_2": null,
    "address_3": null,
    "city": "San Francisco",
    "state_province": "California",
    "postal_code": "94103-2420",
    "country": "United States",
    "longitude": -122.4195984,
    "latitude": 37.76837929,
    "phone": "4155902550",
    "website_url": "http://www.standarddeviantbrewing.com",
    "state": "California",
    "street": "280 14th St"
  },
  {
    "id": "3fc5efe8-363a-4251-89e3-520d90075666",
    "name": "Standing Stone Brewing Co",
    "brewery_type": "micro",
    "address_1": "101 Oak St",
    "address_2": null,
    "address_3": null,
    "city": "Ashland",
    "state_province": "Oregon",
    "postal_code": "97520-1802",
    "country": "United States",
    "longitude": -122.7145793,
    "latitude": 42.1976451,
    "phone": "5414822448",
    "website_url": "http://www.standingstonebrewing.com",
    "state": "Oregon",
    "street": "101 Oak St"
  },
  {
    "id": "58d2b5a4-e234-44fb-b51b-3a4322ab1329",
    "name": "Star B Ranch",
    "brewery_type": "planning",
    "address_1": null,
    "address_2": null,
    "address_3": null,
    "city": "Ramona",
    "state_province": "California",
    "postal_code": "92065-6714",
    "country": "United States",
    "longitude": -116.8675132,
    "latitude": 33.035378,
    "phone": null,
    "website_url": null,
    "state": "California",
    "street": null
  },
  {
    "id": "121e183d-f8b2-4b24-8d45-a12a318f0629",
    "name": "Star City Brewing Company",
    "brewery_type": "micro",
    "address_1": "319 S 2nd St",
    "address_2": null,
    "address_3": null,
    "city": "Miamisburg",
    "state_province": "Ohio",
    "postal_code": "45342-2926",
    "country": "United States",
    "longitude": -84.28859645,
    "latitude": 39.6379944,
    "phone": "9377017827",
    "website_url": "http://www.starcitybrewing.com",
    "state": "Ohio",
    "street": "319 S 2nd St"
  },
  {
    "id": "0a1697ea-5f82-4b35-8fe5-c3cd470f04d1",
    "name": "Starboard Brewing Co",
    "brewery_type": "brewpub",
    "address_1": "151 N 3rd Ave",
    "address_2": null,
    "address_3": null,
    "city": "Sturgeon Bay",
    "state_province": "Wisconsin",
    "postal_code": "54235-2415",
    "country": "United States",
    "longitude": -87.37752984,
    "latitude": 44.83540984,
    "phone": "9208181062",
    "website_url": "http://www.starboardbrewing.com",
    "state": "Wisconsin",
    "street": "151 N 3rd Ave"
  },
  {
    "id": "03667e97-bece-4519-80c1-0aafc0f90403",
    "name": "Stargazer Brewing Company",
    "brewery_type": "planning",
    "address_1": null,
    "address_2": null,
    "address_3": null,
    "city": "Coatesville",
    "state_province": "Pennsylvania",
    "postal_code": "19320",
    "country": "United States",
    "longitude": null,
    "latitude": null,
    "phone": "6102096346",
    "website_url": null,
    "state": "Pennsylvania",
    "street": null
  }
]