[
  {
    "id": "24b89f21-cf76-400c-9a51-83581985900b",
    "name": "High Cotton Brewing",
    "brewery_type": "micro",
    "address_1": "598 Monroe Ave",
    "address_2": null,
    "address_3": null,
    "city": "Memphis",
    "state_province": "Tennessee",
    "postal_code": "38103-3214",
    "country": "United States",
    "longitude": -90.04047907,
    "latitude": 35.14088065,
    "phone": "9015434444",
    "website_url": "http://www.highcottonbrewing.com",
    "state": "Tennessee",
    "street": "598 Monroe Ave"
  },
  {
    "id": "6631958b-a386-4865-a02c-4853ec7c2504",
    "name": "High Desert Brewing Co",
    "brewery_type": "brewpub",
    "address_1": "1201 W Hadley Ave",
    "address_2": null,
    "address_3": null,
    "city": "Las Cruces",
    "state_province": "New Mexico",
    "postal_code": "88005-2422",
    "country": "United States",
    "longitude": -106.7934619,
    "latitude": 32.3096681,
    "phone": "5755256752",
    "website_url": "http://www.highdesertbrewingco.com",
    "state": "New Mexico",
    "street": "1201 W Hadley Ave"
  },
  {
    "id": "643754fe-b293-431f-86ee-23e9a650d8fa",
    "name": "High Gravity Brewing Company",
    "brewery_type": "micro",
    "address_1": "6808 S Memorial Dr Ste 144",
    "address_2": null,
    "address_3": null,
    "city": "Tulsa",
    "state_province": "Oklahoma",
    "postal_code": "74133",
    "country": "United States",
    "longitude": -95.8887734,
    "latitude": 36.0655116,
    "phone": "9189733607",
    "website_url": "http://highgravitybrewingco.com",
    "state": "Oklahoma",
    "street": "6808 S Memorial Dr Ste 144"
  },
  {
    "id": "d4a8d201-e4ce-4f5e-ad83-b3f3d43cf5dd",
    "name": "High Ground Brewery",
    "brewery_type": "planning",
    "address_1": null,
    "address_2": null,
    "address_3": null,
    "city": "Saint Francisville",
    "state_province": "Louisiana",
    "postal_code": "70775-2431",
    "country": "United States",
    "longitude": null,
    "latitude": null,
    "phone": "2254457436",
    "website_url": null,
    "state": "Louisiana",
    "street": null
  },
  {
    "id": "619494eb-6947-43e5-9af7-222b038c0aa8",
    "name": "High Ground Brewing",
    "brewery_type": "micro",
    "address_1": "102 Railroad Ave",
    "address_2": null,
    "address_3": null,
    "city": "Terra Alta",
    "state_province": "West Virginia",
    "postal_code": "26764",
    "country": "United States",
    "longitude": -79.5468713,
    "latitude": 39.4441088,
    "phone": "3047891216",
    "website_url": "https://www.highgroundbrewing.co/",
    "state": "West Virginia",
    "street": "102 Railroad Ave"
  },
  {
    "id": "22a3cd4c-ae04-4147-9cd8-b6eaa845ee92",
    "name": "High Heel Brewing",
    "brewery_type": "closed",
    "address_1": "5656 Oakland",
    "address_2": null,
    "address_3": null,
    "city": "Saint Louis",
    "state_province": "Missouri",
    "postal_code": "63110",
    "country": "United States",
    "longitude": null,
    "latitude": null,
    "phone": null,
    "website_url": "http://highheelbrewing.com",
    "state": "Missouri",
    "street": "5656 Oakland"
  },
  {
    "id": "3d8726bb-a769-4961-a62a-d6f8cee739a2",
    "name": "High Hops Brewery",
    "brewery_type": "micro",
    "address_1": "6461 State Highway 392",
    "address_2": null,
    "address_3": null,
    "city": "Windsor",
    "state_province": "Colorado",
    "postal_code": "80550-3010",
    "country": "United States",
    "longitude": -104.9357557,
    "latitude": 40.4799901,
    "phone": "9706742841",
    "website_url": "http://www.highhopsbrewery.com",
    "state": "Colorado",
    "street": "6461 State Highway 392"
  },
  {
    "id": "82f0d496-e55f-4f4d-944f-1cfefc7f9fbf",
    "name": "High Horse Brewery and Bistro",
    "brewery_type": "contract",
    "address_1": "24 N Pleasant St",
    "address_2": null,
    "address_3": null,
    "city": "Amherst",
    "state_province": "Massachusetts",
    "postal_code": "01002-1703",
    "country": "United States",
    "longitude": -72.5201343,
    "latitude": 42.376218,
    "phone": "4132303034",
    "website_url": "http://www.highhorsebrewing.com",
    "state": "Massachusetts",
    "street": "24 N Pleasant St"
  },
  {
    "id": "a59a4a55-9dff-4b1e-a618-a8795c6350d6",
    "name": "High Perch Brewing Company",
    "brewery_type": "micro",
    "address_1": "1417 Kania Rd",
    "address_2": null,
    "address_3": null,
    "city": "Amsterdam",
    "state_province": "New York",
    "postal_code": "12010-6610",
    "country": "United States",
    "longitude": null,
    "latitude": null,
    "phone": null,
    "website_url": null,
    "state": "New York",
    "street": "1417 Kania Rd"
  },
  {
    "id": "46631dd6-7842-4f98-8afc-085f96c3b3d5",
    "name": "High Plains Brewing",
    "brewery_type": "micro",
    "address_1": "611 E Main St",
    "address_2": null,
    "address_3": null,
    "city": "Laurel",
    "state_province": "Montana",
    "postal_code": "59044-3124",
    "country": "United States",
    "longitude": -108.764099,
    "latitude": 45.6710215,
    "phone": "4066334594",
    "website_url": null,
    "state": "Montana",
    "street": "611 E Main St"
  },
  {
    "id": "8611d7e0-6f83-40e3-b387-077bdaa30058",
    "name": "High Point Brewing Co, Inc.",
    "brewery_type": "micro",
    "address_1": "22 Park Pl",
    "address_2": null,
    "address_3": null,
    "city": "Butler",
    "state_province": "New Jersey",
    "postal_code": "07405-1377",
    "country": "United States",
    "longitude": null,
    "latitude": null,
    "phone": "9738387400",
    "website_url": "http://www.ramsteinbeer.com",
    "state": "New Jersey",
    "street": "22 Park Pl"
  },
  {
    "id": "f4b55ae0-6552-4653-8d62-1c2cf7ebe4dd",
    "name": "High Speed Low Drag Brewing LLC",
    "brewery_type": "planning",
    "address_1": null,
    "address_2": null,
    "address_3": null,
    "city": "Alexandria",
    "state_province": "Virginia",
    "postal_code": "22307-2001",
    "country": "United States",
    "longitude": null,
    "latitude": null,
    "phone": "7756849197",
    "website_url": "http://www.kirklippold.com",
    "state": "Virginia",
    "street": null
  },
  {
    "id": "b769741a-84bc-4671-931a-d709e78440b1",
    "name": "High Water Brewing",
    "brewery_type": "proprietor",
    "address_1": null,
    "address_2": null,
    "address_3": null,
    "city": "Stockton",
    "state_province": "California",
    "postal_code": "95204-2943",
    "country": "United States",
    "longitude": -121.2907796,
    "latitude": 37.9577016,
    "phone": "5304409098",
    "website_url": "http://www.highwaterbrewing.com",
    "state": "California",
    "street": null
  },
  {
    "id": "ff97340d-acd0-46c3-a567-8e98e439b30c",
    "name": "High Weald Brewery",
    "brewery_type": "micro",
    "address_1": "Highgate Road",
    "address_2": null,
    "address_3": null,
    "city": "Forest Row",
    "state_province": "East Sussex",
    "postal_code": "TN7 4LA",
    "country": "England",
    "longitude": 0.032359,
    "latitude": 51.089706,
    "phone": "7836291430",
    "website_url": "https://www.highwealdbrewery.co.uk/",
    "state": "East Sussex",
    "street": "Highgate Road"
  },
  {
    "id": "594bca54-494e-4f0d-998e-9bb3ad39ccf9",
    "name": "Higherground Brewing Co",
    "brewery_type": "brewpub",
    "address_1": "518 N 1st St",
    "address_2": null,
    "address_3": null,
    "city": "Hamilton",
    "state_province": "Montana",
    "postal_code": "59840-2130",
    "country": "United States",
    "longitude": -114.1560817,
    "latitude": 46.2516766,
    "phone": "4063755204",
    "website_url": "http://www.highergroundbrewing.com",
    "state": "Montana",
    "street": "518 N 1st St"
  },
  {
    "id": "41150a73-f822-46b6-a7cb-3dc74d59c23f",
    "name": "Highholder Brewing Company",
    "brewery_type": "micro",
    "address_1": "2211 Oregon St",
    "address_2": null,
    "address_3": null,
    "city": "Oshkosh",
    "state_province": "Wisconsin",
    "postal_code": "54902-7001",
    "country": "United States",
    "longitude": -88.54259731,
    "latitude": 43.99385718,
    "phone": "9207445122",
    "website_url": "http://www.highholderbrewing.com",
    "state": "Wisconsin",
    "street": "2211 Oregon St"
  },
  {
    "id": "4b013cfb-62b1-441a-b301-5f1d26c2b48c",
    "name": "Highland Brewing Co",
    "brewery_type": "regional",
    "address_1": "12 Old Charlotte Hwy Ste H",
    "address_2": null,
    "address_3": null,
    "city": "Asheville",
    "state_province": "North Carolina",
    "postal_code": "28803-9419",
    "country": "United States",
    "longitude": null,
    "latitude": null,
    "phone": "8282993816",
    "website_url": "http://www.highlandbrewing.com",
    "state": "North Carolina",
    "street": "12 Old Charlotte Hwy Ste H"
  },
  {
    "id": "f8fb8119-a992-4ae9-a859-60485f7b20be",
    "name": "Highland Park Brewery",
    "brewery_type": "micro",
    "address_1": "5125 York Blvd",
    "address_2": null,
    "address_3": null,
    "city": "Los Angeles",
    "state_province": "California",
    "postal_code": "90042",
    "country": "United States",
    "longitude": -118.1807106,
    "latitude": 34.1141508,
    "phone": "4255011255",
    "website_url": "http://www.hpb.la",
    "state": "California",
    "street": "5125 York Blvd"
  },
  {
    "id": "7721c302-94ba-4036-b9dc-edece3663bdb",
    "name": "Highland Park Brewery",
    "brewery_type": "brewpub",
    "address_1": "1229 N Spring St",
    "address_2": null,
    "address_3": null,
    "city": "Los Angeles",
    "state_province": "California",
    "postal_code": "90012",
    "country": "United States",
    "longitude": -118.2339922,
    "latitude": 34.06593582,
    "phone": "3237396459",
    "website_url": null,
    "state": "California",
    "street": "1229 N Spring St"
  },
  {
    "id": "c8e5114a-be02-474f-9699-1588ed503c80",
    "name": "Highlands Hollow Brewhouse",
    "brewery_type": "brewpub",
    "address_1": "2455 N Highlands Holw",
    "address_2": null,
    "address_3": null,
    "city": "Boise",
    "state_province": "Idaho",
    "postal_code": "83702-0962",
    "country": "United States",
    "longitude": -116.208703,
    "latitude": 43.643125,
    "phone": "2083436820",
    "website_url": "http://www.highlandshollow.com",
    "state": "Idaho",
    "street": "2455 N Highlands Holw"
  },
  {
    "id": "efc40325-b3a3-41c8-abea-1931a69c2a8f",
    "name": "Highmark Brewery",
    "brewery_type": "micro",
    "address_1": "390 Kings Hwy",
    "address_2": null,
    "address_3": null,
    "city": "Fredericksburg",
    "state_province": "Virginia",
    "postal_code": "22405-3245",
    "country": "United States",
    "longitude": -77.4551104,
    "latitude": 38.3053991,
    "phone": "7633007575",
    "website_url": "http://www.highmarkbrewery.com",
    "state": "Virginia",
    "street": "390 Kings Hwy"
  },
  {
    "id": "13b0242e-a231-4cb7-af2c-e1707cd96961",
    "name": "HighSide Brewery",
    "brewery_type": "micro",
    "address_1": "720 Main St",
    "address_2": null,
    "address_3": null,
    "city": "Frisco",
    "state_province": "Colorado",
    "postal_code": "80443",
    "country": "United States",
    "longitude": -106.0935416,
    "latitude": 39.57663329,
    "phone": "9706682337",
    "website_url": "http://www.highsidebrewing.com",
    "state": "Colorado",
    "street": "720 Main St"
  },
  {
    "id": "16b4086d-3c39-4b01-9ea3-9342ea428832",
    "name": "Hightower Brewing Co",
    "brewery_type": "micro",
    "address_1": "3445 County Road 16 Unit B",
    "address_2": null,
    "address_3": null,
    "city": "Rayland",
    "state_province": "Ohio",
    "postal_code": "43943-7765",
    "country": "United States",
    "longitude": null,
    "latitude": null,
    "phone": "7408590764",
    "website_url": "http://www.hightowerbrewingcompany.com",
    "state": "Ohio",
    "street": "3445 County Road 16 Unit B"
  },
  {
    "id": "e1253c80-0543-4024-bb35-3092589244d7",
    "name": "Highway 1 Brewing Company",
    "brewery_type": "brewpub",
    "address_1": "5720 Cabrillo Hwy",
    "address_2": null,
    "address_3": null,
    "city": "Pescadero",
    "state_province": "California",
    "postal_code": "94060-9725",
    "country": "United States",
    "longitude": -122.411815,
    "latitude": 37.229747,
    "phone": "6508799243",
    "website_url": "http://www.highway1brewing.com",
    "state": "California",
    "street": "5720 Cabrillo Hwy"
  },
  {
    "id": "a6ccf0f3-1496-479a-8108-56b641ec3922",
    "name": "Highway 14 Brewing Company",
    "brewery_type": "micro",
    "address_1": "134 S 4th St",
    "address_2": null,
    "address_3": null,
    "city": "Albion",
    "state_province": "Nebraska",
    "postal_code": "68620-1216",
    "country": "United States",
    "longitude": -98.001389,
    "latitude": 41.6922,
    "phone": "4023958733",
    "website_url": "http://hwy14brewingco.com",
    "state": "Nebraska",
    "street": "134 S 4th St"
  },
  {
    "id": "ed35940e-06b8-4323-834d-865d107bb6af",
    "name": "Highway 79 Brewery",
    "brewery_type": "closed",
    "address_1": "27631 SD Hwy 79",
    "address_2": null,
    "address_3": null,
    "city": "Hot Springs",
    "state_province": "South Dakota",
    "postal_code": "57747-7304",
    "country": "United States",
    "longitude": -103.3966292,
    "latitude": 43.40115,
    "phone": null,
    "website_url": null,
    "state": "South Dakota",
    "street": "27631 SD Hwy 79"
  },
  {
    "id": "b8e3cfd1-8c13-47c4-b0b5-a069b9cb71a7",
    "name": "Highway Manor Brewing Co",
    "brewery_type": "micro",
    "address_1": "2238 Gettysburg Rd",
    "address_2": null,
    "address_3": null,
    "city": "Camp Hill",
    "state_province": "Pennsylvania",
    "postal_code": "17011-7301",
    "country": "United States",
    "longitude": null,
    "latitude": null,
    "phone": "7177430613",
    "website_url": "http://www.HighwayManorBrewing.com",
    "state": "Pennsylvania",
    "street": "2238 Gettysburg Rd"
  },
  {
    "id": "051e8ce2-8aa3-4ca2-9157-52e12f1db45f",
    "name": "HiHO Brewing Co",
    "brewery_type": "brewpub",
    "address_1": "1707 Front St",
    "address_2": null,
    "address_3": null,
    "city": "Cuyahoga Falls",
    "state_province": "Ohio",
    "postal_code": "44221-4711",
    "country": "United States",
    "longitude": -81.48536118,
    "latitude": 41.12813502,
    "phone": "2343347564",
    "website_url": "http://www.hihobrewingco.com",
    "state": "Ohio",
    "street": "1707 Front St"
  },
  {
    "id": "ce4f6c7d-bfe5-4838-89ce-9d56d2d488fc",
    "name": "HiJinx Brewing Co",
    "brewery_type": "micro",
    "address_1": "905 Harrison St",
    "address_2": null,
    "address_3": null,
    "city": "Allentown",
    "state_province": "Pennsylvania",
    "postal_code": "18103-3188",
    "country": "United States",
    "longitude": -75.47453708,
    "latitude": 40.59343618,
    "phone": null,
    "website_url": null,
    "state": "Pennsylvania",
    "street": "905 Harrison St"
  },
  {
    "id": "8da17028-fe8b-4ff9-98e5-6b57ec7f3335",
    "name": "Hill Country Farm Brewery",
    "brewery_type": "planning",
    "address_1": null,
    "address_2": null,
    "address_3": null,
    "city": "Jamesville",
    "state_province": "New York",
    "postal_code": "13078-9637",
    "country": "United States",
    "longitude": null,
    "latitude": null,
    "phone": "3157667885",
    "website_url": "http://Hillcountryfarmbrewery.com",
    "state": "New York",
    "street": null
  },
  {
    "id": "d3dcc573-2440-4e64-a553-f4945bb38056",
    "name": "Hill Farmstead Brewery",
    "brewery_type": "micro",
    "address_1": "403 Hill Rd",
    "address_2": null,
    "address_3": null,
    "city": "Greensboro Bend",
    "state_province": "Vermont",
    "postal_code": "05842-8813",
    "country": "United States",
    "longitude": null,
    "latitude": null,
    "phone": "8025337450",
    "website_url": "http://www.hillfarmstead.com",
    "state": "Vermont",
    "street": "403 Hill Rd"
  },
  {
    "id": "52146aef-1417-4860-ae49-61680902c8de",
    "name": "Hillbilly Brewing Company",
    "brewery_type": "micro",
    "address_1": "23118 NW Maplecrest Rd",
    "address_2": null,
    "address_3": null,
    "city": "Ridgefield",
    "state_province": "Washington",
    "postal_code": "98642",
    "country": "United States",
    "longitude": -122.6758409,
    "latitude": 45.78840953,
    "phone": null,
    "website_url": "http://www.hillbillybrewingcompany.com",
    "state": "Washington",
    "street": "23118 NW Maplecrest Rd"
  },
  {
    "id": "37b5c3ff-b1cb-468e-8bfc-d6c95004d215",
    "name": "Hillcrest Brewing Company",
    "brewery_type": "brewpub",
    "address_1": "1458 University Ave",
    "address_2": null,
    "address_3": null,
    "city": "San Diego",
    "state_province": "California",
    "postal_code": "92103-3405",
    "country": "United States",
    "longitude": -117.1260866,
    "latitude": 32.7484921,
    "phone": "6192694323",
    "website_url": "http://www.hillcrestbrewingcompany.com",
    "state": "California",
    "street": "1458 University Ave"
  },
  {
    "id": "0b2b1db2-e196-4b8c-a099-2b94ae8665ad",
    "name": "Hillman Beer",
    "brewery_type": "brewpub",
    "address_1": "25 Sweeten Creek Rd",
    "address_2": null,
    "address_3": null,
    "city": "Asheville",
    "state_province": "North Carolina",
    "postal_code": "28803-2318",
    "country": "United States",
    "longitude": -82.520631,
    "latitude": 35.5139103,
    "phone": "8285051312",
    "website_url": "http://www.hillmanbeer.com",
    "state": "North Carolina",
    "street": "25 Sweeten Creek Rd"
  },
  {
    "id": "403b0470-79bd-4b27-afba-1e1e85ca6943",
    "name": "Hillsboro Brewing Company",
    "brewery_type": "brewpub",
    "address_1": "815 Water Ave",
    "address_2": null,
    "address_3": null,
    "city": "Hillsboro",
    "state_province": "Wisconsin",
    "postal_code": "54634-6213",
    "country": "United States",
    "longitude": -90.33984807,
    "latitude": 43.65066416,
    "phone": "6084897486",
    "website_url": "http://www.hillsborobrewingcompany.com",
    "state": "Wisconsin",
    "street": "815 Water Ave"
  },
  {
    "id": "794c27df-4aeb-4106-a0d2-cbda9e15adac",
    "name": "Hillsborough Farm Brewery / Hillsborough Vineyards",
    "brewery_type": "planning",
    "address_1": null,
    "address_2": null,
    "address_3": null,
    "city": "Purcellville",
    "state_province": "Virginia",
    "postal_code": "20132",
    "country": "United States",
    "longitude": null,
    "latitude": null,
    "phone": null,
    "website_url": null,
    "state": "Virginia",
    "street": null
  },
  {
    "id": "987c6bc6-0a4b-4536-856a-e8be22d544b5",
    "name": "Hillsdale Brewing Company",
    "brewery_type": "brewpub",
    "address_1": "25 Hillsdale St",
    "address_2": null,
    "address_3": null,
    "city": "Hillsdale",
    "state_province": "Michigan",
    "postal_code": "49242-1208",
    "country": "United States",
    "longitude": -84.63154725,
    "latitude": 41.92470888,
    "phone": "5172128182",
    "website_url": null,
    "state": "Michigan",
    "street": "25 Hillsdale St"
  },
  {
    "id": "ad2d6466-b1a2-45f2-9782-67b1f3b8bfdb",
    "name": "Hilo Brewing Co",
    "brewery_type": "micro",
    "address_1": "275 E Kawili St",
    "address_2": null,
    "address_3": null,
    "city": "Hilo",
    "state_province": "Hawaii",
    "postal_code": "96720-5074",
    "country": "United States",
    "longitude": -155.0697885,
    "latitude": 19.70587596,
    "phone": "8089348211",
    "website_url": "https://hilobrewingco.com",
    "state": "Hawaii",
    "street": "275 E Kawili St"
  },
  {
    "id": "abaf347e-2480-44a8-8485-8f7ad45415ef",
    "name": "Hilton Head Brewing Co",
    "brewery_type": "brewpub",
    "address_1": "1 Cardinal Ct Ste 13",
    "address_2": null,
    "address_3": null,
    "city": "Hilton Head Island",
    "state_province": "South Carolina",
    "postal_code": "29926-3401",
    "country": "United States",
    "longitude": null,
    "latitude": null,
    "phone": "8437153251",
    "website_url": null,
    "state": "South Carolina",
    "street": "1 Cardinal Ct Ste 13"
  },
  {
    "id": "62dcbcdd-ffa4-4a9e-ad1e-bffba2b5cba5",
    "name": "Hingham Beer Works",
    "brewery_type": "brewpub",
    "address_1": "18 Shipyard Dr Ste 1K",
    "address_2": null,
    "address_3": null,
    "city": "Hingham",
    "state_province": "Massachusetts",
    "postal_code": "02043-1670",
    "country": "United States",
    "longitude": null,
    "latitude": null,
    "phone": "7817492337",
    "website_url": null,
    "state": "Massachusetts",
    "street": "18 Shipyard Dr Ste 1K"
  },
  {
    "id": "2b528499-e24d-4805-90c7-63fff1dd99e2",
    "name": "Hinterland Brewery",
    "brewery_type": "micro",
    "address_1": "1001 Lombardi Ave",
    "address_2": null,
    "address_3": null,
    "city": "Green Bay",
    "state_province": "Wisconsin",
    "postal_code": "54304-3956",
    "country": "United States",
    "longitude": -88.04890406,
    "latitude": 44.49896002,
    "phone": "9204388050",
    "website_url": "http://www.hinterlandbeer.com",
    "state": "Wisconsin",
    "street": "1001 Lombardi Ave"
  },
  {
    "id": "832752d5-0acd-4a50-a607-36f8552dd94d",
    "name": "Historic Brewing Company",
    "brewery_type": "micro",
    "address_1": "4366 E Huntington Dr Bldg 2",
    "address_2": null,
    "address_3": null,
    "city": "Flagstaff",
    "state_province": "Arizona",
    "postal_code": "86004-9400",
    "country": "United States",
    "longitude": null,
    "latitude": null,
    "phone": "8554844677",
    "website_url": "http://www.historicbrewingcompany.com",
    "state": "Arizona",
    "street": "4366 E Huntington Dr Bldg 2"
  },
  {
    "id": "92a64c1e-ceea-48a8-8d68-5cf039b64cb0",
    "name": "HistoryQuest, LLC",
    "brewery_type": "planning",
    "address_1": null,
    "address_2": null,
    "address_3": null,
    "city": "Morristown",
    "state_province": "New Jersey",
    "postal_code": "07960-5298",
    "country": "United States",
    "longitude": null,
    "latitude": null,
    "phone": null,
    "website_url": null,
    "state": "New Jersey",
    "street": null
  },
  {
    "id": "93793161-bc9b-46f7-908c-10d7af3cbbf8",
    "name": "Hitchcock Brewing Company",
    "brewery_type": "micro",
    "address_1": "129 Christian Ln",
    "address_2": null,
    "address_3": null,
    "city": "Whately",
    "state_province": "Massachusetts",
    "postal_code": "01093",
    "country": "United States",
    "longitude": -72.60641222,
    "latitude": 42.44606511,
    "phone": "4136952400",
    "website_url": "http://www.hitchcockbrewing.com",
    "state": "Massachusetts",
    "street": "129 Christian Ln"
  },
  {
    "id": "86590a44-6260-4fc2-a71f-98f52356bc20",
    "name": "Hitchhiker Brewing Co.",
    "brewery_type": "brewpub",
    "address_1": "190 Castle Shannon Blvd",
    "address_2": null,
    "address_3": null,
    "city": "Pittsburgh",
    "state_province": "Pennsylvania",
    "postal_code": "15228-2267",
    "country": "United States",
    "longitude": null,
    "latitude": null,
    "phone": "4123431950",
    "website_url": "http://www.hitchhikerbrewing.com",
    "state": "Pennsylvania",
    "street": "190 Castle Shannon Blvd"
  },
  {
    "id": "64112422-723d-4867-9dd8-4d9b448305d7",
    "name": "Hix Farm Brewery",
    "brewery_type": "micro",
    "address_1": "54 S Cedar Ave",
    "address_2": null,
    "address_3": null,
    "city": "Cookeville",
    "state_province": "Tennessee",
    "postal_code": "38501-3216",
    "country": "United States",
    "longitude": -85.507921,
    "latitude": 36.161868,
    "phone": "9313161623",
    "website_url": "http://www.hixfarmbrewery.com",
    "state": "Tennessee",
    "street": "54 S Cedar Ave"
  },
  {
    "id": "5a5cbcd9-1316-40a8-8c75-6037a8d5ccf2",
    "name": "Hobbs Tavern & Brewing Co.",
    "brewery_type": "brewpub",
    "address_1": "2415 NH Route 16",
    "address_2": null,
    "address_3": null,
    "city": "West Ossipee",
    "state_province": "New Hampshire",
    "postal_code": "03890",
    "country": "United States",
    "longitude": null,
    "latitude": null,
    "phone": "6035392000",
    "website_url": "http://www.hobbstavern.com",
    "state": "New Hampshire",
    "street": "2415 NH Route 16"
  },
  {
    "id": "71ac4b9f-1452-42e4-957d-c0075671f9ac",
    "name": "Hodad's Brewing Company",
    "brewery_type": "planning",
    "address_1": null,
    "address_2": null,
    "address_3": null,
    "city": "San Diego",
    "state_province": "California",
    "postal_code": "92123",
    "country": "United States",
    "longitude": -117.1627714,
    "latitude": 32.7174209,
    "phone": "8582782770",
    "website_url": null,
    "state": "California",
    "street": null
  },
  {
    "id": "f902bfca-fb32-4581-8b09-f3fb80ea731c",
    "name": "Hofbrauhaus Buffalo",
    "brewery_type": "planning",
    "address_1": null,
    "address_2": null,
    "address_3": null,
    "city": "Buffalo",
    "state_province": "New York",
    "postal_code": "14221-4616",
    "country": "United States",
    "longitude": null,
    "latitude": null,
    "phone": "7165631781",
    "website_url": "http://www.facebook.com/Hofbrauhaus-Buffalo-476335022466386/",
    "state": "New York",
    "street": null
  },
  {
    "id": "5fde3431-947e-41a9-8884-5763020f18a4",
    "name": "Hofbrauhaus Chicago",
    "brewery_type": "brewpub",
    "address_1": "5500 Park Pl",
    "address_2": null,
    "address_3": null,
    "city": "Rosemont",
    "state_province": "Illinois",
    "postal_code": "60018-3730",
    "country": "United States",
    "longitude": null,
    "latitude": null,
    "phone": "8476712739",
    "website_url": "http://www.hofbrauhauschicago.com",
    "state": "Illinois",
    "street": "5500 Park Pl"
  }
]