[
  {
    "id": "2d6e2ddc-da91-43d2-87e6-56e50cbde70c",
    "name": "Kilstone Brewing",
    "brewery_type": "closed",
    "address_1": "764 34th St N Unit R",
    "address_2": null,
    "address_3": null,
    "city": "Fargo",
    "state_province": "North Dakota",
    "postal_code": "58102-3097",
    "country": "United States",
    "longitude": null,
    "latitude": null,
    "phone": "7018935224",
    "website_url": "http://www.kilstonebrewing.com",
    "state": "North Dakota",
    "street": "764 34th St N Unit R"
  },
  {
    "id": "70c7aa10-d43f-44c0-b78c-07a2bf3f03c9",
    "name": "Kilt Check Brewing Co",
    "brewery_type": "micro",
    "address_1": "4814 Hardware Dr NE",
    "address_2": null,
    "address_3": null,
    "city": "Albuquerque",
    "state_province": "New Mexico",
    "postal_code": "87109",
    "country": "United States",
    "longitude": -106.5898844,
    "latitude": 35.13600551,
    "phone": "5058810234",
    "website_url": "http://www.draftykiltbrewingco.com",
    "state": "New Mexico",
    "street": "4814 Hardware Dr NE"
  },
  {
    "id": "d0955deb-f952-4a6a-b470-61efa8b3d64a",
    "name": "Kind Beer Distributing",
    "brewery_type": "contract",
    "address_1": "6014 McDaniel Ln Ste C",
    "address_2": null,
    "address_3": null,
    "city": "Charlotte",
    "state_province": "North Carolina",
    "postal_code": "28213-7351",
    "country": "United States",
    "longitude": null,
    "latitude": null,
    "phone": "9105154140",
    "website_url": "http://www.kindbeers.com",
    "state": "North Carolina",
    "street": "6014 McDaniel Ln Ste C"
  },
  {
    "id": "fc649f04-8490-4309-9e68-9b93139caa3f",
    "name": "Kindred Beer",
    "brewery_type": "micro",
    "address_1": "750 Cross Pointe Rd Unit I and J",
    "address_2": null,
    "address_3": null,
    "city": "Columbus",
    "state_province": "Ohio",
    "postal_code": "43230",
    "country": "United States",
    "longitude": null,
    "latitude": null,
    "phone": "6146264341",
    "website_url": "http://www.kindredbeer.com",
    "state": "Ohio",
    "street": "750 Cross Pointe Rd Unit I and J"
  },
  {
    "id": "33744af1-03be-44ab-94e2-e1cebfb72874",
    "name": "Kindred Spirit Brewing",
    "brewery_type": "brewpub",
    "address_1": "12830 West Creek Pkwy Ste J",
    "address_2": null,
    "address_3": null,
    "city": "Richmond",
    "state_province": "Virginia",
    "postal_code": "23238-1126",
    "country": "United States",
    "longitude": null,
    "latitude": null,
    "phone": "8047080309",
    "website_url": "http://www.kindredspiritbrewing.com",
    "state": "Virginia",
    "street": "12830 West Creek Pkwy Ste J"
  },
  {
    "id": "52d376d5-a888-4d05-bdb4-7b3f8b20e3d5",
    "name": "Kinematic Brewing Company",
    "brewery_type": "micro",
    "address_1": "635 State Highway 46 E Ste 207",
    "address_2": null,
    "address_3": null,
    "city": "Boerne",
    "state_province": "Texas",
    "postal_code": "78006-6010",
    "country": "United States",
    "longitude": null,
    "latitude": null,
    "phone": null,
    "website_url": null,
    "state": "Texas",
    "street": "635 State Highway 46 E Ste 207"
  },
  {
    "id": "784c248a-7ed7-4ec9-8b99-eb64b85107a8",
    "name": "Kinetic Brewing Company",
    "brewery_type": "brewpub",
    "address_1": "735 W Lancaster Blvd",
    "address_2": null,
    "address_3": null,
    "city": "Lancaster",
    "state_province": "California",
    "postal_code": "93534-3118",
    "country": "United States",
    "longitude": -118.1433223,
    "latitude": 34.6978404,
    "phone": "6619422337",
    "website_url": "http://www.kineticbrewing.com",
    "state": "California",
    "street": "735 W Lancaster Blvd"
  },
  {
    "id": "52cf27d7-5cce-4438-b0fe-f4bc1fc79b29",
    "name": "King Canary Brewing Company",
    "brewery_type": "micro",
    "address_1": "562 Williamson Rd",
    "address_2": null,
    "address_3": null,
    "city": "Mooresville",
    "state_province": "North Carolina",
    "postal_code": "28117-9186",
    "country": "United States",
    "longitude": -80.8683812,
    "latitude": 35.5706022,
    "phone": null,
    "website_url": "http://www.kingcanarybrewing.com",
    "state": "North Carolina",
    "street": "562 Williamson Rd"
  },
  {
    "id": "ccfb87b8-ec95-46bb-ae80-47f322b6e45d",
    "name": "King Cong Brewing Company",
    "brewery_type": "micro",
    "address_1": "1709 del Paso Blvd",
    "address_2": null,
    "address_3": null,
    "city": "Sacramento",
    "state_province": "California",
    "postal_code": "95815-3016",
    "country": "United States",
    "longitude": -121.456029,
    "latitude": 38.60771757,
    "phone": "9165148041",
    "website_url": null,
    "state": "California",
    "street": "1709 del Paso Blvd"
  },
  {
    "id": "cc49edfb-728e-44ad-a34b-187460ce8b1b",
    "name": "King Fox Brewery",
    "brewery_type": "planning",
    "address_1": null,
    "address_2": null,
    "address_3": null,
    "city": "Hialeah",
    "state_province": "Florida",
    "postal_code": "33014-5231",
    "country": "United States",
    "longitude": null,
    "latitude": null,
    "phone": null,
    "website_url": null,
    "state": "Florida",
    "street": null
  },
  {
    "id": "aa3929fc-604e-4376-9cbe-7997d9e9a1b0",
    "name": "King Harbor Brewing Co",
    "brewery_type": "micro",
    "address_1": "2907 182nd St",
    "address_2": null,
    "address_3": null,
    "city": "Redondo Beach",
    "state_province": "California",
    "postal_code": "90278-3922",
    "country": "United States",
    "longitude": -118.3600656,
    "latitude": 33.86561891,
    "phone": "3105428657",
    "website_url": "http://www.kingharborbrewing.com",
    "state": "California",
    "street": "2907 182nd St"
  },
  {
    "id": "a0a49f09-fed5-4a49-b6f0-e95ed67ea1c0",
    "name": "King Street Brewing Co",
    "brewery_type": "micro",
    "address_1": "9050 King Street",
    "address_2": null,
    "address_3": null,
    "city": "Anchorage",
    "state_province": "Alaska",
    "postal_code": "99515",
    "country": "United States",
    "longitude": -149.879076,
    "latitude": 61.13848935,
    "phone": "9073365464",
    "website_url": "http://www.kingstreetbrewing.com",
    "state": "Alaska",
    "street": "9050 King Street"
  },
  {
    "id": "3fb492d0-f799-4678-ac00-f5b43b6e808e",
    "name": "Kingdom Brewing",
    "brewery_type": "micro",
    "address_1": "1876 Vt Route 105",
    "address_2": null,
    "address_3": null,
    "city": "Newport",
    "state_province": "Vermont",
    "postal_code": "05855-9915",
    "country": "United States",
    "longitude": null,
    "latitude": null,
    "phone": "8023347096",
    "website_url": "http://www.kingdombrewingvt.com",
    "state": "Vermont",
    "street": "1876 Vt Route 105"
  },
  {
    "id": "6a935805-4994-41ea-8f35-28312a08f1a7",
    "name": "Kings & Convicts Brewing",
    "brewery_type": "micro",
    "address_1": "523 Bank Ln",
    "address_2": null,
    "address_3": null,
    "city": "Highwood",
    "state_province": "Illinois",
    "postal_code": "60040-1303",
    "country": "United States",
    "longitude": null,
    "latitude": null,
    "phone": "2246198102",
    "website_url": "http://www.kingsandconvicts.com",
    "state": "Illinois",
    "street": "523 Bank Ln"
  },
  {
    "id": "8061c26a-8738-4103-bdf4-34a78af72027",
    "name": "Kings Brewing Company",
    "brewery_type": "micro",
    "address_1": "8560 Vineyard Ave Ste 301",
    "address_2": null,
    "address_3": null,
    "city": "Rancho Cucamonga",
    "state_province": "California",
    "postal_code": "91730-4395",
    "country": "United States",
    "longitude": -117.6110744,
    "latitude": 34.1064155,
    "phone": "9097273333",
    "website_url": "http://www.kingsbrewingco.com",
    "state": "California",
    "street": "8560 Vineyard Ave Ste 301"
  },
  {
    "id": "462e4ff7-0374-443f-b44f-fd09b77a9523",
    "name": "Kings County Brewers Collective",
    "brewery_type": "micro",
    "address_1": "381 Troutman St",
    "address_2": null,
    "address_3": null,
    "city": "Brooklyn",
    "state_province": "New York",
    "postal_code": "11237-2613",
    "country": "United States",
    "longitude": -73.9236202,
    "latitude": 40.7060306,
    "phone": "7182882891",
    "website_url": "http://www.kcbcbeer.com",
    "state": "New York",
    "street": "381 Troutman St"
  },
  {
    "id": "9f58f6bd-ef5d-4581-9df7-c13fe9ff2018",
    "name": "Kings River Brewing Company",
    "brewery_type": "planning",
    "address_1": null,
    "address_2": null,
    "address_3": null,
    "city": "Clovis",
    "state_province": "California",
    "postal_code": "93612-2825",
    "country": "United States",
    "longitude": -119.7029194,
    "latitude": 36.8252277,
    "phone": "5599060615",
    "website_url": "http://www.kingsriverbrewing.com",
    "state": "California",
    "street": null
  },
  {
    "id": "97ece97b-b919-46b3-a063-cc5bbae50787",
    "name": "Kingston Standard Brewing Co.",
    "brewery_type": "planning",
    "address_1": null,
    "address_2": null,
    "address_3": null,
    "city": "Kingston",
    "state_province": "New York",
    "postal_code": "12401",
    "country": "United States",
    "longitude": null,
    "latitude": null,
    "phone": null,
    "website_url": "http://www.kingstonstandard.com",
    "state": "New York",
    "street": null
  },
  {
    "id": "1288cc89-fd41-431b-a65e-fe67f20939f7",
    "name": "Kinkaider Brewing Co",
    "brewery_type": "micro",
    "address_1": "43860 Paulsen Rd",
    "address_2": null,
    "address_3": null,
    "city": "Broken Bow",
    "state_province": "Nebraska",
    "postal_code": "68822-7120",
    "country": "United States",
    "longitude": -99.6608581,
    "latitude": 41.4234199,
    "phone": "3088728348",
    "website_url": "http://www.kinkaiderbrewing.com",
    "state": "Nebraska",
    "street": "43860 Paulsen Rd"
  },
  {
    "id": "70092761-7618-4348-8370-c0d6ffc7d60e",
    "name": "Kinnegar Brewing",
    "brewery_type": "micro",
    "address_1": "K2",
    "address_2": "Ballyraine Industrial Estate",
    "address_3": null,
    "city": "Letterkenny",
    "state_province": "Donegal",
    "postal_code": "F92 R263",
    "country": "Ireland",
    "longitude": -7.7083241,
    "latitude": 54.9557214,
    "phone": "353749103890",
    "website_url": null,
    "state": "Donegal",
    "street": "K2"
  },
  {
    "id": "90d71e53-16cf-4e32-ab36-fd068ab717aa",
    "name": "Kinney Creek Brewery",
    "brewery_type": "micro",
    "address_1": "1016 7th St NW",
    "address_2": null,
    "address_3": null,
    "city": "Rochester",
    "state_province": "Minnesota",
    "postal_code": "55901-2668",
    "country": "United States",
    "longitude": -92.47808893,
    "latitude": 44.0312604,
    "phone": null,
    "website_url": null,
    "state": "Minnesota",
    "street": "1016 7th St NW"
  },
  {
    "id": "f0130011-f340-4933-9601-ed71a88ffb24",
    "name": "Kinslahger Brewing Company",
    "brewery_type": "micro",
    "address_1": "6806 Roosevelt Rd",
    "address_2": null,
    "address_3": null,
    "city": "Oak Park",
    "state_province": "Illinois",
    "postal_code": "60304-1905",
    "country": "United States",
    "longitude": null,
    "latitude": null,
    "phone": "8445524437",
    "website_url": "http://kinslahger.com",
    "state": "Illinois",
    "street": "6806 Roosevelt Rd"
  },
  {
    "id": "41905729-681e-4b57-b0cc-13d053e296c6",
    "name": "Kinsmen Brewing",
    "brewery_type": "micro",
    "address_1": "409 Canal Street",
    "address_2": null,
    "address_3": null,
    "city": "Milldale",
    "state_province": "Connecticut",
    "postal_code": "06467",
    "country": "United States",
    "longitude": -72.9027141,
    "latitude": 41.56679473,
    "phone": "8605784778",
    "website_url": "http://www.kinsmenbrewing.com",
    "state": "Connecticut",
    "street": "409 Canal Street"
  },
  {
    "id": "5c7d9592-68ed-4509-b68c-18f932001ebe",
    "name": "Kirkwood Station Brewing",
    "brewery_type": "closed",
    "address_1": "105 E Jefferson Ave",
    "address_2": null,
    "address_3": null,
    "city": "Kirkwood",
    "state_province": "Missouri",
    "postal_code": "63122-4025",
    "country": "United States",
    "longitude": -90.40608849,
    "latitude": 38.58234304,
    "phone": "3149662739",
    "website_url": "http://www.kirkwoodstationbrewing.com",
    "state": "Missouri",
    "street": "105 E Jefferson Ave"
  },
  {
    "id": "c343a4f2-8c31-4424-8ac6-ae514fe7f64e",
    "name": "Kismet Brewing Company",
    "brewery_type": "planning",
    "address_1": null,
    "address_2": null,
    "address_3": null,
    "city": "Westfield",
    "state_province": "Massachusetts",
    "postal_code": "01085",
    "country": "United States",
    "longitude": null,
    "latitude": null,
    "phone": "9789957711",
    "website_url": "http://www.kismetbrewing.com",
    "state": "Massachusetts",
    "street": null
  },
  {
    "id": "793f55c2-e8d8-4e30-91d6-e92d649adcc7",
    "name": "Kissingate Brewery",
    "brewery_type": "taproom",
    "address_1": "Church Lane",
    "address_2": null,
    "address_3": null,
    "city": "Horsham",
    "state_province": "West Sussex",
    "postal_code": "RH13 6LU",
    "country": "England",
    "longitude": -0.26049,
    "latitude": 51.041848,
    "phone": "1403891335",
    "website_url": "http://www.kissingate.co.uk/",
    "state": "West Sussex",
    "street": "Church Lane"
  },
  {
    "id": "32f4a19a-3950-4d44-9241-d5f02227ba08",
    "name": "Kitzingen Brewery",
    "brewery_type": "brewpub",
    "address_1": "1760 44th St SW Ste 8",
    "address_2": null,
    "address_3": null,
    "city": "Wyoming",
    "state_province": "Michigan",
    "postal_code": "49519-6422",
    "country": "United States",
    "longitude": null,
    "latitude": null,
    "phone": "6168055077",
    "website_url": "http://www.Kitzingen-Brewery.com",
    "state": "Michigan",
    "street": "1760 44th St SW Ste 8"
  },
  {
    "id": "92a774e5-ba50-422d-b644-e791e4962523",
    "name": "Klamath Basin Brewing Co",
    "brewery_type": "brewpub",
    "address_1": "1320 Main St",
    "address_2": null,
    "address_3": null,
    "city": "Klamath Falls",
    "state_province": "Oregon",
    "postal_code": "97601-5914",
    "country": "United States",
    "longitude": -121.7763705,
    "latitude": 42.2280361,
    "phone": "5412735222",
    "website_url": "http://www.kbbrewing.com",
    "state": "Oregon",
    "street": "1320 Main St"
  },
  {
    "id": "de4d69d9-27e6-412f-8fd1-d32a1e05b4cc",
    "name": "Klaus Brewing Company",
    "brewery_type": "planning",
    "address_1": null,
    "address_2": null,
    "address_3": null,
    "city": "Houston",
    "state_province": "Texas",
    "postal_code": "77065",
    "country": "United States",
    "longitude": null,
    "latitude": null,
    "phone": "7134985004",
    "website_url": "http://www.klausbrewing.com",
    "state": "Texas",
    "street": null
  },
  {
    "id": "a33adc30-c0cc-4222-b3a8-7fe7f213fdb2",
    "name": "Klockow Brewing Company",
    "brewery_type": "micro",
    "address_1": "36 SE 10th St",
    "address_2": null,
    "address_3": null,
    "city": "Grand Rapids",
    "state_province": "Minnesota",
    "postal_code": "55744-3947",
    "country": "United States",
    "longitude": -93.52833525,
    "latitude": 47.22108337,
    "phone": "2189997229",
    "website_url": "http://www.klockowbrewing.com",
    "state": "Minnesota",
    "street": "36 SE 10th St"
  },
  {
    "id": "5d5339d0-738d-4619-a5f8-8390ab694465",
    "name": "Klondike Brewing Company",
    "brewery_type": "brewpub",
    "address_1": "365 2nd Ave",
    "address_2": null,
    "address_3": null,
    "city": "Skagway",
    "state_province": "Alaska",
    "postal_code": "99840",
    "country": "United States",
    "longitude": -135.3188721,
    "latitude": 59.45385743,
    "phone": "9079832778",
    "website_url": "http://www.klondikebeer.com",
    "state": "Alaska",
    "street": "365 2nd Ave"
  },
  {
    "id": "867eee9e-2138-4e62-97a9-b25e7fd1a1ff",
    "name": "Klosterbrauerei Stift Engelszell",
    "brewery_type": "nano",
    "address_1": "Stiftstra\ufffde 6",
    "address_2": null,
    "address_3": null,
    "city": "Engelhartszell",
    "state_province": "Ober\u00f6sterreich",
    "postal_code": "4090",
    "country": "Austria",
    "longitude": 13.73460683957,
    "latitude": 48.49861615095,
    "phone": "+4377178010",
    "website_url": "https://www.stift-engelszell.at/trappistenbrauerei/brauerei",
    "state": "Ober\u00f6sterreich",
    "street": "Stiftstra\ufffde 6"
  },
  {
    "id": "26b358f9-89c5-483a-97e4-0bb511b8a77f",
    "name": "Knee Deep Brewing Co",
    "brewery_type": "regional",
    "address_1": "13395 New Airport Rd Ste H",
    "address_2": null,
    "address_3": null,
    "city": "Auburn",
    "state_province": "California",
    "postal_code": "95602-7419",
    "country": "United States",
    "longitude": -121.0799931,
    "latitude": 38.95200534,
    "phone": "5307974677",
    "website_url": "http://www.kneedeepbrewing.com",
    "state": "California",
    "street": "13395 New Airport Rd Ste H"
  },
  {
    "id": "bd87d056-d676-4efa-bb1c-ee3541aa1478",
    "name": "Knotty Brewing Co",
    "brewery_type": "micro",
    "address_1": "842 Market St",
    "address_2": null,
    "address_3": null,
    "city": "San Diego",
    "state_province": "California",
    "postal_code": "92101-6425",
    "country": "United States",
    "longitude": -117.127434,
    "latitude": 32.711658,
    "phone": "6192694337",
    "website_url": "http://www.knottybrewing.com",
    "state": "California",
    "street": "842 Market St"
  },
  {
    "id": "d6bbd553-b258-4860-b522-938490e779f0",
    "name": "Knotty Pine Brewing",
    "brewery_type": "brewpub",
    "address_1": "1765 W 3rd Ave",
    "address_2": null,
    "address_3": null,
    "city": "Columbus",
    "state_province": "Ohio",
    "postal_code": "43212-2769",
    "country": "United States",
    "longitude": -83.0529324,
    "latitude": 39.9852813,
    "phone": "6148171515",
    "website_url": "http://www.knottypinebrewing.net",
    "state": "Ohio",
    "street": "1765 W 3rd Ave"
  },
  {
    "id": "cda79fca-998b-47aa-8659-d64f4e1ae6a1",
    "name": "Knox County Brewing Co.",
    "brewery_type": "planning",
    "address_1": null,
    "address_2": null,
    "address_3": null,
    "city": "Galesburg",
    "state_province": "Illinois",
    "postal_code": "61401",
    "country": "United States",
    "longitude": null,
    "latitude": null,
    "phone": "5126528793",
    "website_url": "http://www.knoxcobrewco.com",
    "state": "Illinois",
    "street": null
  },
  {
    "id": "ce08319b-e0e5-41de-a8b3-7a7f7a970e58",
    "name": "Knucklehead Craft Brewing",
    "brewery_type": "brewpub",
    "address_1": "426 Ridge Rd",
    "address_2": null,
    "address_3": null,
    "city": "Webster",
    "state_province": "New York",
    "postal_code": "14580-1793",
    "country": "United States",
    "longitude": -77.51128726,
    "latitude": 43.20572922,
    "phone": "5853476236",
    "website_url": "http://www.knuckleheadcraftbrewing.com",
    "state": "New York",
    "street": "426 Ridge Rd"
  },
  {
    "id": "937fd8a2-c9ca-4112-b9c3-09586ea57408",
    "name": "KNURD Brewing Co",
    "brewery_type": "planning",
    "address_1": null,
    "address_2": null,
    "address_3": null,
    "city": "Oakmont",
    "state_province": "Pennsylvania",
    "postal_code": "15139-2171",
    "country": "United States",
    "longitude": null,
    "latitude": null,
    "phone": "3045509439",
    "website_url": "http://www.knurdbrewing.com",
    "state": "Pennsylvania",
    "street": null
  },
  {
    "id": "ab339ec9-e818-404e-aa83-98adf4669f9c",
    "name": "Knuth Brewing Company",
    "brewery_type": "brewpub",
    "address_1": "221 Watson St",
    "address_2": null,
    "address_3": null,
    "city": "Ripon",
    "state_province": "Wisconsin",
    "postal_code": "54971-1514",
    "country": "United States",
    "longitude": -88.8386613,
    "latitude": 43.8446401,
    "phone": "9207485188",
    "website_url": "http://www.knuthbrewingcompany.com",
    "state": "Wisconsin",
    "street": "221 Watson St"
  },
  {
    "id": "f8c48bdf-6db1-4c2d-b9d2-7f45518b905e",
    "name": "Kobold Brewing",
    "brewery_type": "micro",
    "address_1": "245 SW 6th St",
    "address_2": null,
    "address_3": null,
    "city": "Redmond",
    "state_province": "Oregon",
    "postal_code": "97756-2108",
    "country": "United States",
    "longitude": -121.1744086,
    "latitude": 44.27499604,
    "phone": "5416783884",
    "website_url": "http://www.koboldbrewing.com",
    "state": "Oregon",
    "street": "245 SW 6th St"
  },
  {
    "id": "c4bf52e4-1afc-4373-bead-a0871f261adf",
    "name": "Kodiak Island Brewing Co",
    "brewery_type": "micro",
    "address_1": "117 Lower Mill Bay Rd",
    "address_2": null,
    "address_3": null,
    "city": "Kodiak",
    "state_province": "Alaska",
    "postal_code": "99615-6580",
    "country": "United States",
    "longitude": -152.407155,
    "latitude": 57.79008256,
    "phone": "9074862537",
    "website_url": "http://www.kodiakbrewery.com",
    "state": "Alaska",
    "street": "117 Lower Mill Bay Rd"
  },
  {
    "id": "0fc75aed-9415-4b33-a7aa-2529e5f092a6",
    "name": "Koehler Brewing Co",
    "brewery_type": "micro",
    "address_1": "231 Park St",
    "address_2": null,
    "address_3": null,
    "city": "Grove City",
    "state_province": "Pennsylvania",
    "postal_code": "16127-2011",
    "country": "United States",
    "longitude": -80.08130057,
    "latitude": 41.16044545,
    "phone": "8335634537",
    "website_url": "http://koehlerbrewingcompany.com",
    "state": "Pennsylvania",
    "street": "231 Park St"
  },
  {
    "id": "5f56a466-73e1-4146-89eb-efaa6db0c27c",
    "name": "Kohola Brewery",
    "brewery_type": "micro",
    "address_1": "910 Honoapiilani Hwy",
    "address_2": null,
    "address_3": null,
    "city": "Lahaina",
    "state_province": "Hawaii",
    "postal_code": "96761-1507",
    "country": "United States",
    "longitude": -156.653963,
    "latitude": 20.845329,
    "phone": "8088683198",
    "website_url": "http://www.koholabrewery.com",
    "state": "Hawaii",
    "street": "910 Honoapiilani Hwy"
  },
  {
    "id": "9cfadedb-019c-48df-ba2c-3811cc10687a",
    "name": "Koi Pond Brewing Co",
    "brewery_type": "micro",
    "address_1": "1107 Falls Rd",
    "address_2": null,
    "address_3": null,
    "city": "Rocky Mount",
    "state_province": "North Carolina",
    "postal_code": "27804-4407",
    "country": "United States",
    "longitude": null,
    "latitude": null,
    "phone": "2529035127",
    "website_url": "http://www.koipondbrewing.com",
    "state": "North Carolina",
    "street": "1107 Falls Rd"
  },
  {
    "id": "9f6df09c-b5f7-4854-ab9d-e2033a4eefc6",
    "name": "Kokopelli Beer Company",
    "brewery_type": "brewpub",
    "address_1": "8931 Harlan St",
    "address_2": null,
    "address_3": null,
    "city": "Westminster",
    "state_province": "Colorado",
    "postal_code": "80031-2931",
    "country": "United States",
    "longitude": -105.0640386,
    "latitude": 39.8590102,
    "phone": "7208406835",
    "website_url": "http://www.kokopellibeer.com",
    "state": "Colorado",
    "street": "8931 Harlan St"
  },
  {
    "id": "54b5153a-ae15-47c0-8e81-b58a3ce58d40",
    "name": "Kona Brewing Co",
    "brewery_type": "regional",
    "address_1": "74-5612 Pawai Pl",
    "address_2": null,
    "address_3": null,
    "city": "Kailua Kona",
    "state_province": "Hawaii",
    "postal_code": "96740-1617",
    "country": "United States",
    "longitude": -155.997661,
    "latitude": 19.643069,
    "phone": "8083341133",
    "website_url": "http://www.konabrewingco.com",
    "state": "Hawaii",
    "street": "74-5612 Pawai Pl"
  },
  {
    "id": "6a675ef6-c877-4ea5-b001-d9b10422d24a",
    "name": "Kootenai River Brewing Co",
    "brewery_type": "brewpub",
    "address_1": "6424 Riverside Street",
    "address_2": null,
    "address_3": null,
    "city": "Bonners Ferry",
    "state_province": "Idaho",
    "postal_code": "83805-1901",
    "country": "United States",
    "longitude": -116.3105154,
    "latitude": 48.6965721,
    "phone": "2082674677",
    "website_url": "http://kootbrew.com",
    "state": "Idaho",
    "street": "6424 Riverside Street"
  },
  {
    "id": "bae80975-5b23-43db-96d5-7d4712dea985",
    "name": "Kotobuki Brewing",
    "brewery_type": "micro",
    "address_1": "3\u221226\u221212 Tondacho",
    "address_2": null,
    "address_3": null,
    "city": "Takatsuki",
    "state_province": "Osaka",
    "postal_code": "569-0814",
    "country": "Japan",
    "longitude": 135.5929565,
    "latitude": 34.8330891,
    "phone": "81726960003",
    "website_url": "https://kuninocho.jp/",
    "state": "Osaka",
    "street": "3\u221226\u221212 Tondacho"
  },
  {
    "id": "33d1d1b3-2f70-4271-a561-a4de4cdc7183",
    "name": "Kozy Yak Brewery & Fresar Winery",
    "brewery_type": "brewpub",
    "address_1": "197 N Main St",
    "address_2": null,
    "address_3": null,
    "city": "Rosholt",
    "state_province": "Wisconsin",
    "postal_code": "54473-9741",
    "country": "United States",
    "longitude": -89.30914763,
    "latitude": 44.62934343,
    "phone": "7156773082",
    "website_url": "http://www.kozyyak.com",
    "state": "Wisconsin",
    "street": "197 N Main St"
  },
  {
    "id": "de636cf2-1aa7-4f49-bff6-72deb55f3e02",
    "name": "Krafty Draft Brew Pub",
    "brewery_type": "brewpub",
    "address_1": "269 Charter Oak Rd",
    "address_2": null,
    "address_3": null,
    "city": "Lexington",
    "state_province": "South Carolina",
    "postal_code": "29072-9200",
    "country": "United States",
    "longitude": -81.30586817,
    "latitude": 33.98711021,
    "phone": "8039960345",
    "website_url": "http://www.draftydraft.com",
    "state": "South Carolina",
    "street": "269 Charter Oak Rd"
  }
]