[
  {
    "id": "931e2b28-419d-4a36-9e8e-eca1b849f1a9",
    "name": "Coopers Cave Ale Co",
    "brewery_type": "brewpub",
    "address_1": "2 Sagamore St",
    "address_2": null,
    "address_3": null,
    "city": "Glens Falls",
    "state_province": "New York",
    "postal_code": "12801-3179",
    "country": "United States",
    "longitude": -73.6399437,
    "latitude": 43.3177399,
    "phone": "5187920007",
    "website_url": "http://www.cooperscaveale.com",
    "state": "New York",
    "street": "2 Sagamore St"
  },
  {
    "id": "781937cb-face-47db-a452-fc3997cca025",
    "name": "CooperSmiths Pub and Brewing",
    "brewery_type": "brewpub",
    "address_1": "5 Old Town Sq",
    "address_2": null,
    "address_3": null,
    "city": "Fort Collins",
    "state_province": "Colorado",
    "postal_code": "80524-2446",
    "country": "United States",
    "longitude": -105.0755188,
    "latitude": 40.5873784,
    "phone": "9704980483",
    "website_url": "http://www.coopersmithspub.com",
    "state": "Colorado",
    "street": "5 Old Town Sq"
  },
  {
    "id": "df6b62fb-899b-4181-a56f-f4c067e9723b",
    "name": "Cooperstown Brewing Co",
    "brewery_type": "proprietor",
    "address_1": "41 Browne St.",
    "address_2": null,
    "address_3": null,
    "city": "Oneonta",
    "state_province": "New York",
    "postal_code": "13820",
    "country": "United States",
    "longitude": -75.10942405,
    "latitude": 42.45118586,
    "phone": null,
    "website_url": null,
    "state": "New York",
    "street": "41 Browne St."
  },
  {
    "id": "bad8c409-2e39-4ebc-847c-c74865fa30d6",
    "name": "Copp Brewery & Winery",
    "brewery_type": "micro",
    "address_1": "11 NE 4th Ave",
    "address_2": null,
    "address_3": null,
    "city": "Crystal River",
    "state_province": "Florida",
    "postal_code": "34429-4246",
    "country": "United States",
    "longitude": -82.58738072,
    "latitude": 28.89472626,
    "phone": "3525649463",
    "website_url": "http://www.coppbrewery.com",
    "state": "Florida",
    "street": "11 NE 4th Ave"
  },
  {
    "id": "85ad59c1-6545-4ab2-84a4-219d39e47cea",
    "name": "Copper Brothel Brewery",
    "brewery_type": "micro",
    "address_1": "3112 Hwy 83",
    "address_2": null,
    "address_3": null,
    "city": "Sonoita",
    "state_province": "Arizona",
    "postal_code": "85637",
    "country": "United States",
    "longitude": null,
    "latitude": null,
    "phone": "5204056721",
    "website_url": "http://www.copperbrothelbrewery.com",
    "state": "Arizona",
    "street": "3112 Hwy 83"
  },
  {
    "id": "8a48a9ba-b7ac-4afc-be40-834fa496cb74",
    "name": "Copper City Brewing Company",
    "brewery_type": "micro",
    "address_1": "1111 Oneida St",
    "address_2": null,
    "address_3": null,
    "city": "Rome",
    "state_province": "New York",
    "postal_code": "13440-",
    "country": "United States",
    "longitude": -75.43229951,
    "latitude": 43.20521338,
    "phone": "3152818987",
    "website_url": "http://www.coppercitybrewing.com",
    "state": "New York",
    "street": "1111 Oneida St"
  },
  {
    "id": "84379397-fb21-4348-9e5b-d536d31f2ad0",
    "name": "Copper Club Brewing Co",
    "brewery_type": "micro",
    "address_1": "233 E Aspen Ave",
    "address_2": null,
    "address_3": null,
    "city": "Fruita",
    "state_province": "Colorado",
    "postal_code": "81521-2205",
    "country": "United States",
    "longitude": -108.7314921,
    "latitude": 39.1591638,
    "phone": "9708588318",
    "website_url": "http://www.copperclubbrew.com",
    "state": "Colorado",
    "street": "233 E Aspen Ave"
  },
  {
    "id": "78c42e60-7bd8-40cf-94c6-9079a36ee84b",
    "name": "Copper Kettle Brewing Co",
    "brewery_type": "micro",
    "address_1": "557 Greenfield Ave",
    "address_2": null,
    "address_3": null,
    "city": "Pittsburgh",
    "state_province": "Pennsylvania",
    "postal_code": "15207-1093",
    "country": "United States",
    "longitude": -79.94040826,
    "latitude": 40.42611867,
    "phone": null,
    "website_url": null,
    "state": "Pennsylvania",
    "street": "557 Greenfield Ave"
  },
  {
    "id": "da0cdbd7-87e0-4722-ab5e-018582374a43",
    "name": "Copper Kettle Brewing Company",
    "brewery_type": "micro",
    "address_1": "1338 S Valentia St Ste 100",
    "address_2": null,
    "address_3": null,
    "city": "Denver",
    "state_province": "Colorado",
    "postal_code": "80247-2167",
    "country": "United States",
    "longitude": null,
    "latitude": null,
    "phone": "7204432522",
    "website_url": "http://www.copperkettledenver.com",
    "state": "Colorado",
    "street": "1338 S Valentia St Ste 100"
  },
  {
    "id": "49cb4f39-b586-4949-911c-a05435c9850f",
    "name": "Copper Mine Brewing Co",
    "brewery_type": "micro",
    "address_1": "3455 S Palo Verde Rd STE 135",
    "address_2": null,
    "address_3": null,
    "city": "Tucson",
    "state_province": "Arizona",
    "postal_code": "85713",
    "country": "United States",
    "longitude": null,
    "latitude": null,
    "phone": "5203336140",
    "website_url": "http://www.copperminebrewing.com",
    "state": "Arizona",
    "street": "3455 S Palo Verde Rd STE 135"
  },
  {
    "id": "dc9adb8d-5b69-44fb-9a80-46a9b3fd4688",
    "name": "Copper Pig Brewery",
    "brewery_type": "brewpub",
    "address_1": "1 Middle St",
    "address_2": null,
    "address_3": null,
    "city": "Lancaster",
    "state_province": "New Hampshire",
    "postal_code": "03584",
    "country": "United States",
    "longitude": null,
    "latitude": null,
    "phone": "6036312273",
    "website_url": "https://www.copperpigbrewery.com/",
    "state": "New Hampshire",
    "street": "1 Middle St"
  },
  {
    "id": "6383b0a3-75af-4db1-9c58-744f9b019426",
    "name": "Copper State Brewing Co",
    "brewery_type": "brewpub",
    "address_1": "313 Dousman St",
    "address_2": null,
    "address_3": null,
    "city": "Green Bay",
    "state_province": "Wisconsin",
    "postal_code": "54303-2713",
    "country": "United States",
    "longitude": -88.01916054,
    "latitude": 44.51896164,
    "phone": "9204898575",
    "website_url": "http://www.copperstate.beer",
    "state": "Wisconsin",
    "street": "313 Dousman St"
  },
  {
    "id": "baecf304-6a51-4e6e-a488-4b5ee0e199af",
    "name": "Copper Trail Brewing Co.",
    "brewery_type": "micro",
    "address_1": "410 30th Ave E Ste 103",
    "address_2": null,
    "address_3": null,
    "city": "Alexandria",
    "state_province": "Minnesota",
    "postal_code": "56308-4770",
    "country": "United States",
    "longitude": null,
    "latitude": null,
    "phone": "3202196688",
    "website_url": "http://www.coppertrailbrewing.com",
    "state": "Minnesota",
    "street": "410 30th Ave E Ste 103"
  },
  {
    "id": "de768791-bb67-44f8-a4f7-db4f26d9f580",
    "name": "Copper Turret Restaurant and Brewhouse",
    "brewery_type": "brewpub",
    "address_1": "17 W Main St",
    "address_2": null,
    "address_3": null,
    "city": "Morrisville",
    "state_province": "New York",
    "postal_code": "13408-",
    "country": "United States",
    "longitude": -75.6487902,
    "latitude": 42.89903413,
    "phone": "3158257910",
    "website_url": "http://www.copperturret.com",
    "state": "New York",
    "street": "17 W Main St"
  },
  {
    "id": "1bf9a380-d39f-486b-81b0-96b6c90a413d",
    "name": "Copperhead Brewery",
    "brewery_type": "micro",
    "address_1": "822 N Frazier St",
    "address_2": null,
    "address_3": null,
    "city": "Conroe",
    "state_province": "Texas",
    "postal_code": "77301-2305",
    "country": "United States",
    "longitude": -95.46266,
    "latitude": 30.316443,
    "phone": "2819196134",
    "website_url": "http://www.copperheadbrewery.com",
    "state": "Texas",
    "street": "822 N Frazier St"
  },
  {
    "id": "322308d2-d7e1-4faf-84e6-77b5948aaffc",
    "name": "Copperpoint Brewing Company",
    "brewery_type": "micro",
    "address_1": "151 Commerce Rd",
    "address_2": null,
    "address_3": null,
    "city": "Boynton Beach",
    "state_province": "Florida",
    "postal_code": "33426-9365",
    "country": "United States",
    "longitude": -80.073376,
    "latitude": 26.55907743,
    "phone": null,
    "website_url": null,
    "state": "Florida",
    "street": "151 Commerce Rd"
  },
  {
    "id": "070be339-1a2e-4ec9-a995-23a55599dc0f",
    "name": "Coppertail Brewing",
    "brewery_type": "micro",
    "address_1": "2601 E 2nd Ave",
    "address_2": null,
    "address_3": null,
    "city": "Tampa",
    "state_province": "Florida",
    "postal_code": "33605-5503",
    "country": "United States",
    "longitude": -82.430498,
    "latitude": 27.956553,
    "phone": "8132471500",
    "website_url": "http://www.coppertailbrewing.com",
    "state": "Florida",
    "street": "2601 E 2nd Ave"
  },
  {
    "id": "2810105c-ee25-4e8b-9fc7-4c1042f3434b",
    "name": "Coppertop Alehouse and Still Works",
    "brewery_type": "brewpub",
    "address_1": "220 S Montezuma St",
    "address_2": null,
    "address_3": null,
    "city": "Prescott",
    "state_province": "Arizona",
    "postal_code": "86303-4720",
    "country": "United States",
    "longitude": -112.470304,
    "latitude": 34.53851944,
    "phone": "9283517712",
    "website_url": "http://www.coppertopalehouse.com",
    "state": "Arizona",
    "street": "220 S Montezuma St"
  },
  {
    "id": "36d6a22f-9824-44f8-b095-9435e0314276",
    "name": "Corbett Brewing Company",
    "brewery_type": "micro",
    "address_1": "309 E 7th St",
    "address_2": null,
    "address_3": null,
    "city": "Tucson",
    "state_province": "Arizona",
    "postal_code": "85705",
    "country": "United States",
    "longitude": -110.96679,
    "latitude": 32.22634085,
    "phone": null,
    "website_url": null,
    "state": "Arizona",
    "street": "309 E 7th St"
  },
  {
    "id": "48997c3a-bfc2-4a18-9fb0-37882a9c5fdb",
    "name": "Corcoran Brewing",
    "brewery_type": "micro",
    "address_1": "205 Hirst Rd Ste 105",
    "address_2": null,
    "address_3": null,
    "city": "Purcellville",
    "state_province": "Virginia",
    "postal_code": "20132-6199",
    "country": "United States",
    "longitude": -77.71365587,
    "latitude": 39.14390693,
    "phone": "5408829073",
    "website_url": "http://www.corcoranbrewing.com",
    "state": "Virginia",
    "street": "205 Hirst Rd Ste 105"
  },
  {
    "id": "c614c0cf-6aa1-4e5a-b295-cbb5c951594c",
    "name": "Core Brewing - Hot Springs",
    "brewery_type": "brewpub",
    "address_1": "833 Central Ave",
    "address_2": null,
    "address_3": null,
    "city": "Hot Springs National Park",
    "state_province": "Arkansas",
    "postal_code": "71901",
    "country": "United States",
    "longitude": null,
    "latitude": null,
    "phone": "4793068898",
    "website_url": null,
    "state": "Arkansas",
    "street": "833 Central Ave"
  },
  {
    "id": "c4faa1d2-a2b6-4f9d-b725-be2423d56d6c",
    "name": "Core Brewing - SoMa",
    "brewery_type": "brewpub",
    "address_1": "1214 S. Main St",
    "address_2": null,
    "address_3": null,
    "city": "Little Rock",
    "state_province": "Arkansas",
    "postal_code": "72202",
    "country": "United States",
    "longitude": null,
    "latitude": null,
    "phone": "4793068898",
    "website_url": null,
    "state": "Arkansas",
    "street": "1214 S. Main St"
  },
  {
    "id": "db2a9bf5-2c02-4f7f-af91-76a96aee2e31",
    "name": "Core Brewing & Distilling Co",
    "brewery_type": "micro",
    "address_1": "2470 N Lowell Rd Ste A3",
    "address_2": null,
    "address_3": null,
    "city": "Springdale",
    "state_province": "Arkansas",
    "postal_code": "72764-1819",
    "country": "United States",
    "longitude": null,
    "latitude": null,
    "phone": "4793068898",
    "website_url": "http://www.corebeer.com",
    "state": "Arkansas",
    "street": "2470 N Lowell Rd Ste A3"
  },
  {
    "id": "af950b93-c6c2-42b4-a341-f24b75bbbfb4",
    "name": "Corn Coast Brewing Company",
    "brewery_type": "micro",
    "address_1": "1433 Dahlberg Dr",
    "address_2": null,
    "address_3": null,
    "city": "Lincoln",
    "state_province": "Nebraska",
    "postal_code": "68512-9267",
    "country": "United States",
    "longitude": -96.708351097198,
    "latitude": 40.776599003296,
    "phone": "4024132288",
    "website_url": "https://www.corncoastbrewing.com",
    "state": "Nebraska",
    "street": "1433 Dahlberg Dr"
  },
  {
    "id": "1a7ee0ba-4199-42c1-845a-c41800af60d8",
    "name": "Corner Pub Brewery",
    "brewery_type": "brewpub",
    "address_1": "100 E Main St",
    "address_2": null,
    "address_3": null,
    "city": "Reedsburg",
    "state_province": "Wisconsin",
    "postal_code": "53959-1967",
    "country": "United States",
    "longitude": -90.009938544398,
    "latitude": 43.532514205315,
    "phone": "6085248989",
    "website_url": null,
    "state": "Wisconsin",
    "street": "100 E Main St"
  },
  {
    "id": "d2f08212-1e67-4c5e-bd67-371a41000fa3",
    "name": "Cornerstone Brewing Co",
    "brewery_type": "brewpub",
    "address_1": "58 Front St",
    "address_2": null,
    "address_3": null,
    "city": "Berea",
    "state_province": "Ohio",
    "postal_code": "44017-1911",
    "country": "United States",
    "longitude": -81.85304867,
    "latitude": 41.36685385,
    "phone": "4402399820",
    "website_url": null,
    "state": "Ohio",
    "street": "58 Front St"
  },
  {
    "id": "ec621443-0cb1-44c5-9b60-0ee49bc0b672",
    "name": "Cornerstone Brewing Co",
    "brewery_type": "brewpub",
    "address_1": "70 W  Main St",
    "address_2": null,
    "address_3": null,
    "city": "Madison",
    "state_province": "Ohio",
    "postal_code": "44057-3126",
    "country": "United States",
    "longitude": -81.04814066,
    "latitude": 41.77136994,
    "phone": "4402399820",
    "website_url": null,
    "state": "Ohio",
    "street": "70 W  Main St"
  },
  {
    "id": "95a442ca-6893-4e6a-abc2-1c51f125fefa",
    "name": "Coronado Brewing Co",
    "brewery_type": "regional",
    "address_1": "170 Orange Ave",
    "address_2": null,
    "address_3": null,
    "city": "Coronado",
    "state_province": "California",
    "postal_code": "92118-1409",
    "country": "United States",
    "longitude": -117.1791416,
    "latitude": 32.6873641,
    "phone": "6194374452",
    "website_url": "http://www.coronadobrewingcompany.com",
    "state": "California",
    "street": "170 Orange Ave"
  },
  {
    "id": "8e3d6cd2-c95c-432e-963d-2f0c4beb5dfd",
    "name": "Coronado Brewing Co - Production Facility",
    "brewery_type": "regional",
    "address_1": "170 Orange Ave",
    "address_2": null,
    "address_3": null,
    "city": "San Diego",
    "state_province": "California",
    "postal_code": "92118-1409",
    "country": "United States",
    "longitude": -117.094383,
    "latitude": 32.753124,
    "phone": "6192752215",
    "website_url": null,
    "state": "California",
    "street": "170 Orange Ave"
  },
  {
    "id": "f851b4a2-b3f0-49c3-9691-ab4622da8a06",
    "name": "Corrales Bistro Brewery",
    "brewery_type": "brewpub",
    "address_1": "4908 Corrales Rd",
    "address_2": null,
    "address_3": null,
    "city": "Corrales",
    "state_province": "New Mexico",
    "postal_code": "87048-8613",
    "country": "United States",
    "longitude": -106.6127225,
    "latitude": 35.2298508,
    "phone": "5058971036",
    "website_url": "http://www.cbbistro.com",
    "state": "New Mexico",
    "street": "4908 Corrales Rd"
  },
  {
    "id": "7dbb664f-ef54-4385-b8ea-c9d3a05c2672",
    "name": "Corralitos Brewing Co",
    "brewery_type": "micro",
    "address_1": "2536 Freedom Blvd",
    "address_2": null,
    "address_3": null,
    "city": "Watsonville",
    "state_province": "California",
    "postal_code": "95076-1046",
    "country": "United States",
    "longitude": -121.7623105,
    "latitude": 36.9239241,
    "phone": "8317282311",
    "website_url": "http://www.corralitosbrewingco.com",
    "state": "California",
    "street": "2536 Freedom Blvd"
  },
  {
    "id": "99bf7864-8bb8-44cb-a933-49a45b5e47af",
    "name": "Corridor Brewery & Provisions",
    "brewery_type": "brewpub",
    "address_1": "3446 N Southport Ave",
    "address_2": null,
    "address_3": null,
    "city": "Chicago",
    "state_province": "Illinois",
    "postal_code": "60657-1420",
    "country": "United States",
    "longitude": -87.6643524,
    "latitude": 41.9447594,
    "phone": "7732704272",
    "website_url": null,
    "state": "Illinois",
    "street": "3446 N Southport Ave"
  },
  {
    "id": "e5a5016b-e1ce-41c3-aad2-5fd4f1f390e7",
    "name": "Corsair Artisan LLC",
    "brewery_type": "micro",
    "address_1": "1200 Clinton St Ste 110",
    "address_2": null,
    "address_3": null,
    "city": "Nashville",
    "state_province": "Tennessee",
    "postal_code": "37203-2894",
    "country": "United States",
    "longitude": -86.794546,
    "latitude": 36.165123,
    "phone": "6152000320",
    "website_url": "http://www.corsairartisan.com",
    "state": "Tennessee",
    "street": "1200 Clinton St Ste 110"
  },
  {
    "id": "5fbf4428-9456-456a-825d-1ce55e02d3a3",
    "name": "Cortland Beer Company",
    "brewery_type": "micro",
    "address_1": "16 Court St",
    "address_2": null,
    "address_3": null,
    "city": "Cortland",
    "state_province": "New York",
    "postal_code": "13045-2604",
    "country": "United States",
    "longitude": -76.17989771,
    "latitude": 42.5994031,
    "phone": "6076624389",
    "website_url": "http://www.cortlandbeer.com",
    "state": "New York",
    "street": "16 Court St"
  },
  {
    "id": "6af2f2c7-5ed1-4f30-86b9-9a8533d01527",
    "name": "Cosmic Brewery",
    "brewery_type": "micro",
    "address_1": "20316 Gramercy Pl",
    "address_2": null,
    "address_3": null,
    "city": "Torrance",
    "state_province": "California",
    "postal_code": "90501-1511",
    "country": "United States",
    "longitude": -118.3131167,
    "latitude": 33.84500094,
    "phone": "4242592337",
    "website_url": "http://www.cosmicbrewery.com",
    "state": "California",
    "street": "20316 Gramercy Pl"
  },
  {
    "id": "6b743f23-0d8a-4cb5-9ea1-2fdaad3dde93",
    "name": "Cosmic Eye Brewing",
    "brewery_type": "micro",
    "address_1": "6800 P St #300",
    "address_2": null,
    "address_3": null,
    "city": "Lincoln",
    "state_province": "Nebraska",
    "postal_code": "68505-2463",
    "country": "United States",
    "longitude": -96.6271153,
    "latitude": 40.8154683,
    "phone": "5315002739",
    "website_url": "http://www.cosmiceye.beer",
    "state": "Nebraska",
    "street": "6800 P St #300"
  },
  {
    "id": "d452871c-f0c1-44a2-b67b-fc50fd3d48d2",
    "name": "Cosmos Brewing",
    "brewery_type": "micro",
    "address_1": "9480 140th St N",
    "address_2": null,
    "address_3": null,
    "city": "Hugo",
    "state_province": "Minnesota",
    "postal_code": "55038-9411",
    "country": "United States",
    "longitude": -92.91372949,
    "latitude": 45.15266627,
    "phone": "6512699199",
    "website_url": "http://www.cosmosbrewing.com",
    "state": "Minnesota",
    "street": "9480 140th St N"
  },
  {
    "id": "55191259-586a-4fb8-9050-33b7e0540a74",
    "name": "Costa Ventosa Winery & Vineyard",
    "brewery_type": "brewpub",
    "address_1": "9031 Whaleyville Rd",
    "address_2": null,
    "address_3": null,
    "city": "Whaleyville",
    "state_province": "Maryland",
    "postal_code": "21872-2116",
    "country": "United States",
    "longitude": -75.26004107,
    "latitude": 38.42358687,
    "phone": "4433339867",
    "website_url": "http://www.costaventosa.com",
    "state": "Maryland",
    "street": "9031 Whaleyville Rd"
  },
  {
    "id": "66970f3f-1984-473a-9a3c-2dc092f54c7a",
    "name": "CoStar Brewing Inc.",
    "brewery_type": "micro",
    "address_1": "919 N Saint Clair St",
    "address_2": null,
    "address_3": null,
    "city": "Pittsburgh",
    "state_province": "Pennsylvania",
    "postal_code": "15206-2133",
    "country": "United States",
    "longitude": -79.9232026,
    "latitude": 40.4726062,
    "phone": null,
    "website_url": null,
    "state": "Pennsylvania",
    "street": "919 N Saint Clair St"
  },
  {
    "id": "b6e76a2f-fd9e-442e-afe8-09395bd1f4c4",
    "name": "Costellos Brewing Company",
    "brewery_type": "micro",
    "address_1": "58D Hebron Industrial Estate",
    "address_2": "Hebron Road",
    "address_3": null,
    "city": "Kilkenny",
    "state_province": "Kilkenny",
    "postal_code": "R95 AFN8",
    "country": "Ireland",
    "longitude": -7.2312229,
    "latitude": 52.6542803,
    "phone": "353868102320",
    "website_url": "http://www.costellosbrewco.ie/",
    "state": "Kilkenny",
    "street": "58D Hebron Industrial Estate"
  },
  {
    "id": "c1a44969-f495-4182-9ae1-0736234cbdb7",
    "name": "Cotee River Brewing Company",
    "brewery_type": "planning",
    "address_1": null,
    "address_2": null,
    "address_3": null,
    "city": "New Port Richey",
    "state_province": "Florida",
    "postal_code": "34652",
    "country": "United States",
    "longitude": null,
    "latitude": null,
    "phone": null,
    "website_url": "http://www.coteeriverbrewing.com",
    "state": "Florida",
    "street": null
  },
  {
    "id": "882de869-8767-4dcc-9c5e-56ef4e3390a1",
    "name": "Cotton Ball Brewing Company",
    "brewery_type": "brewpub",
    "address_1": "18 Old Youghal Road",
    "address_2": null,
    "address_3": null,
    "city": "Mayfield",
    "state_province": "Cork",
    "postal_code": "T23 AE78",
    "country": "Ireland",
    "longitude": -8.4340922,
    "latitude": 51.9132877,
    "phone": "353214503096",
    "website_url": "https://www.cottonball.ie/",
    "state": "Cork",
    "street": "18 Old Youghal Road"
  },
  {
    "id": "d2d3de44-bc8b-4fcc-921d-2340cc0bf346",
    "name": "Cotton Brewing Co",
    "brewery_type": "brewpub",
    "address_1": "626 Oak St",
    "address_2": null,
    "address_3": null,
    "city": "Adrian",
    "state_province": "Michigan",
    "postal_code": "49221-3367",
    "country": "United States",
    "longitude": -84.02463418,
    "latitude": 41.89136136,
    "phone": "5179026608",
    "website_url": "http://www.cottonbrewing.com",
    "state": "Michigan",
    "street": "626 Oak St"
  },
  {
    "id": "9b04a566-cc87-47d5-9ba5-d13a35517ea4",
    "name": "CottonTown Brew Lab",
    "brewery_type": "micro",
    "address_1": "1223 Franklin St",
    "address_2": null,
    "address_3": null,
    "city": "Columbia",
    "state_province": "South Carolina",
    "postal_code": "29201-1958",
    "country": "United States",
    "longitude": -81.04004014,
    "latitude": 34.01695029,
    "phone": "8444273952",
    "website_url": "http://www.ctbl.asurewebsites.net",
    "state": "South Carolina",
    "street": "1223 Franklin St"
  },
  {
    "id": "760afc6b-a382-428e-b9d4-074e683f7abc",
    "name": "Cottrell Brewing Co",
    "brewery_type": "closed",
    "address_1": "100 Mechanic St",
    "address_2": null,
    "address_3": null,
    "city": "Pawcatuck",
    "state_province": "Connecticut",
    "postal_code": "06379-2163",
    "country": "United States",
    "longitude": -71.834289,
    "latitude": 41.370676,
    "phone": "8605998213",
    "website_url": "http://www.cottrellbrewing.com",
    "state": "Connecticut",
    "street": "100 Mechanic St"
  },
  {
    "id": "93d051c6-ba2f-4132-a8e3-27d892133bf2",
    "name": "Couch Brewery",
    "brewery_type": "micro",
    "address_1": "1351 Washington Blvd",
    "address_2": null,
    "address_3": null,
    "city": "Pittsburgh",
    "state_province": "Pennsylvania",
    "postal_code": "15206-1801",
    "country": "United States",
    "longitude": -79.9090141,
    "latitude": 40.4695304,
    "phone": "4124411724",
    "website_url": "http://www.couchbrewery.com",
    "state": "Pennsylvania",
    "street": "1351 Washington Blvd"
  },
  {
    "id": "f17f30c2-ad58-4d64-adee-493df68df07d",
    "name": "Council Brewing - Magic Factory",
    "brewery_type": "micro",
    "address_1": "7705 Convoy Ct",
    "address_2": null,
    "address_3": null,
    "city": "San Diego",
    "state_province": "California",
    "postal_code": "92111-1113",
    "country": "United States",
    "longitude": -117.1544092,
    "latitude": 32.83466296,
    "phone": "8582560038",
    "website_url": null,
    "state": "California",
    "street": "7705 Convoy Ct"
  },
  {
    "id": "4c805f48-4d8e-4ec5-81f5-7585daa8a34f",
    "name": "Council Brewing Company",
    "brewery_type": "micro",
    "address_1": "7705 Convoy Ct",
    "address_2": null,
    "address_3": null,
    "city": "San Diego",
    "state_province": "California",
    "postal_code": "92111-1105",
    "country": "United States",
    "longitude": -117.1544092,
    "latitude": 32.83466296,
    "phone": "8582560038",
    "website_url": "http://www.councilbrew.com",
    "state": "California",
    "street": "7705 Convoy Ct"
  },
  {
    "id": "69014e74-5051-4ea1-b08e-4568d5318ba3",
    "name": "Council Brewing Company",
    "brewery_type": "micro",
    "address_1": "9962 Prospect Ave",
    "address_2": null,
    "address_3": null,
    "city": "Santee",
    "state_province": "California",
    "postal_code": "92071",
    "country": "United States",
    "longitude": -116.97958,
    "latitude": 32.832115,
    "phone": null,
    "website_url": null,
    "state": "California",
    "street": "9962 Prospect Ave"
  },
  {
    "id": "22dd315d-ec60-4af1-b125-88c3a4a4ff78",
    "name": "Council Rock Brewery",
    "brewery_type": "brewpub",
    "address_1": "4861 State Highway 28 Ste 3",
    "address_2": null,
    "address_3": null,
    "city": "Cooperstown",
    "state_province": "New York",
    "postal_code": "13326-5229",
    "country": "United States",
    "longitude": null,
    "latitude": null,
    "phone": "6076433016",
    "website_url": "http://www.councilrockbrewery.com",
    "state": "New York",
    "street": "4861 State Highway 28 Ste 3"
  }
]