[
  {
    "id": "45076e61-0e44-46f4-a85b-58ad50988a2b",
    "name": "Ironbark Brewery",
    "brewery_type": "micro",
    "address_1": "2610 Kibby Rd",
    "address_2": null,
    "address_3": null,
    "city": "Jackson",
    "state_province": "Michigan",
    "postal_code": "49203-4908",
    "country": "United States",
    "longitude": -84.43762976,
    "latitude": 42.2188971,
    "phone": "5177487988",
    "website_url": null,
    "state": "Michigan",
    "street": "2610 Kibby Rd"
  },
  {
    "id": "e7444032-8c9b-4755-9ccb-fa603653e1c9",
    "name": "Ironclad Brewery",
    "brewery_type": "micro",
    "address_1": "115 N 2nd St",
    "address_2": null,
    "address_3": null,
    "city": "Wilmington",
    "state_province": "North Carolina",
    "postal_code": "28401-3936",
    "country": "United States",
    "longitude": -77.94767214,
    "latitude": 34.23671629,
    "phone": "9107690290",
    "website_url": "http://www.ironcladbrewery.com",
    "state": "North Carolina",
    "street": "115 N 2nd St"
  },
  {
    "id": "7a9c3c72-0fbb-4ad4-9528-5dec234f7538",
    "name": "Ironfire Brewing Company",
    "brewery_type": "micro",
    "address_1": "42095 Zevo Dr Unit 1",
    "address_2": null,
    "address_3": null,
    "city": "Temecula",
    "state_province": "California",
    "postal_code": "92590-3741",
    "country": "United States",
    "longitude": -117.1779573,
    "latitude": 33.51202561,
    "phone": "9512961397",
    "website_url": "http://www.ironfirebrewing.com",
    "state": "California",
    "street": "42095 Zevo Dr Unit 1"
  },
  {
    "id": "1859086e-a38e-4e00-8760-398e58190dac",
    "name": "Ironmonger Brewing",
    "brewery_type": "micro",
    "address_1": "2129 Northwest Pkwy SE Ste 105",
    "address_2": null,
    "address_3": null,
    "city": "Marietta",
    "state_province": "Georgia",
    "postal_code": "30067-9223",
    "country": "United States",
    "longitude": -84.48696353,
    "latitude": 33.91959382,
    "phone": "6787428551",
    "website_url": "http://www.ironmongerbrewing.com",
    "state": "Georgia",
    "street": "2129 Northwest Pkwy SE Ste 105"
  },
  {
    "id": "e1b632ac-39c9-465f-b3df-7de3efa2976e",
    "name": "Ironwood Brewing Co LLC",
    "brewery_type": "micro",
    "address_1": "6 Roosevelt Rd",
    "address_2": null,
    "address_3": null,
    "city": "Valparaiso",
    "state_province": "Indiana",
    "postal_code": "46383-5136",
    "country": "United States",
    "longitude": -87.046457,
    "latitude": 41.46840633,
    "phone": "2194054644",
    "website_url": "http://www.ironwoodbrewing.beer",
    "state": "Indiana",
    "street": "6 Roosevelt Rd"
  },
  {
    "id": "7e10797c-320d-4fdf-940b-09550b0e8fc3",
    "name": "Ironwood Creek",
    "brewery_type": "planning",
    "address_1": null,
    "address_2": null,
    "address_3": null,
    "city": "Evans",
    "state_province": "Georgia",
    "postal_code": "30809-8239",
    "country": "United States",
    "longitude": null,
    "latitude": null,
    "phone": null,
    "website_url": null,
    "state": "Georgia",
    "street": null
  },
  {
    "id": "d3fa529b-07fc-436a-98cf-66ba68b0a579",
    "name": "Ironworks Brewery & Pub",
    "brewery_type": "brewpub",
    "address_1": "12354 W Alameda Pkwy Ste 110",
    "address_2": null,
    "address_3": null,
    "city": "Lakewood",
    "state_province": "Colorado",
    "postal_code": "80228-2844",
    "country": "United States",
    "longitude": null,
    "latitude": null,
    "phone": "3039855818",
    "website_url": "http://www.ironworkspub.com",
    "state": "Colorado",
    "street": "12354 W Alameda Pkwy Ste 110"
  },
  {
    "id": "77100b94-fd5e-42fb-ac9f-d256817f1e16",
    "name": "Irving Cliff Brewery",
    "brewery_type": "brewpub",
    "address_1": "2 Chapel St",
    "address_2": null,
    "address_3": null,
    "city": "Honesdale",
    "state_province": "Pennsylvania",
    "postal_code": "18431-2094",
    "country": "United States",
    "longitude": -75.257181,
    "latitude": 41.574806,
    "phone": "5706470644",
    "website_url": "http://www.irvingcliffbrewery.com",
    "state": "Pennsylvania",
    "street": "2 Chapel St"
  },
  {
    "id": "94bce2e1-73b6-4042-bba3-0f6a7df5530d",
    "name": "Irwin Brewing Company",
    "brewery_type": "micro",
    "address_1": "326 Belleview",
    "address_2": null,
    "address_3": null,
    "city": "Crested Butte",
    "state_province": "Colorado",
    "postal_code": "81224-8706",
    "country": "United States",
    "longitude": -106.9853012,
    "latitude": 38.86695573,
    "phone": "9702757578",
    "website_url": "http://www.irwinbrewingco.com",
    "state": "Colorado",
    "street": "326 Belleview"
  },
  {
    "id": "d2961893-908c-48e2-b691-9f066c1306f6",
    "name": "Islamorada Beer Company",
    "brewery_type": "micro",
    "address_1": "82229 Overseas Hwy",
    "address_2": null,
    "address_3": null,
    "city": "Islamorada",
    "state_province": "Florida",
    "postal_code": "33036-3659",
    "country": "United States",
    "longitude": -80.5805987,
    "latitude": 24.9552722,
    "phone": "3055089093",
    "website_url": "http://www.islamoradabeerco.com",
    "state": "Florida",
    "street": "82229 Overseas Hwy"
  },
  {
    "id": "0664c3c7-aedb-4748-b4f3-e2964022cf92",
    "name": "Island Brewing Co",
    "brewery_type": "micro",
    "address_1": "5049 6th St",
    "address_2": null,
    "address_3": null,
    "city": "Carpinteria",
    "state_province": "California",
    "postal_code": "93013-2001",
    "country": "United States",
    "longitude": -119.521007,
    "latitude": 34.39590392,
    "phone": "8057458272",
    "website_url": "http://www.islandbrewingcompany.com",
    "state": "California",
    "street": "5049 6th St"
  },
  {
    "id": "662f9bed-fae7-47a7-96df-bb0a434be701",
    "name": "Island City Brewing Company",
    "brewery_type": "micro",
    "address_1": "65 E Front St",
    "address_2": null,
    "address_3": null,
    "city": "Winona",
    "state_province": "Minnesota",
    "postal_code": "55987-3494",
    "country": "United States",
    "longitude": -91.6347433,
    "latitude": 44.053748,
    "phone": "5074742739",
    "website_url": "http://www.islandcitybrew.com",
    "state": "Minnesota",
    "street": "65 E Front St"
  },
  {
    "id": "aebe9690-3051-4a17-8aa7-145c3155aa98",
    "name": "Island Coastal Lager",
    "brewery_type": "micro",
    "address_1": "3900 Frontage Rd S",
    "address_2": null,
    "address_3": null,
    "city": "Lakeland",
    "state_province": "Florida",
    "postal_code": "33815",
    "country": "United States",
    "longitude": null,
    "latitude": null,
    "phone": "8636987600",
    "website_url": "http://www.islandcoastallager.com",
    "state": "Florida",
    "street": "3900 Frontage Rd S"
  },
  {
    "id": "fa2fde2e-51da-470a-a151-ce76e6d529b3",
    "name": "Island Dog Brewing",
    "brewery_type": "micro",
    "address_1": "125 John Roberts Rd",
    "address_2": null,
    "address_3": null,
    "city": "South Portland",
    "state_province": "Maine",
    "postal_code": "04106-3295",
    "country": "United States",
    "longitude": -70.33101442,
    "latitude": 43.63059386,
    "phone": "2073300283",
    "website_url": "http://www.islanddogbrewing.com",
    "state": "Maine",
    "street": "125 John Roberts Rd"
  },
  {
    "id": "637e56dd-04c8-4285-8076-4951f9a701fd",
    "name": "Island Hoppin' Brewery",
    "brewery_type": "micro",
    "address_1": "33 Hope Ln",
    "address_2": null,
    "address_3": null,
    "city": "Eastsound",
    "state_province": "Washington",
    "postal_code": "98245-8915",
    "country": "United States",
    "longitude": -122.9152526,
    "latitude": 48.70268053,
    "phone": "3603769253",
    "website_url": "http://www.islandhoppinbrewery.com",
    "state": "Washington",
    "street": "33 Hope Ln"
  },
  {
    "id": "a5aec8f0-08ed-49ea-a440-7b30f2aadb79",
    "name": "Island To Island Brewery",
    "brewery_type": "brewpub",
    "address_1": "642 Rogers Ave",
    "address_2": null,
    "address_3": null,
    "city": "Brooklyn",
    "state_province": "New York",
    "postal_code": "11226-1502",
    "country": "United States",
    "longitude": -73.95325995,
    "latitude": 40.6558144,
    "phone": "3479741985",
    "website_url": "http://www.islandtoislandbrewery.com",
    "state": "New York",
    "street": "642 Rogers Ave"
  },
  {
    "id": "29f0a24d-a6b6-4b3b-999f-37ae825c6e5e",
    "name": "Islay Ales",
    "brewery_type": "micro",
    "address_1": "Islay House Square",
    "address_2": "Bridgend",
    "address_3": null,
    "city": "Isle of Islay",
    "state_province": "Argyll",
    "postal_code": "PA44 7NZ",
    "country": "Scotland",
    "longitude": -6.2511858,
    "latitude": 55.7845598,
    "phone": "1496810014",
    "website_url": "https://www.islayales.com/",
    "state": "Argyll",
    "street": "Islay House Square"
  },
  {
    "id": "71d2dd5e-51f1-4e20-a625-09d404e487ce",
    "name": "Isley Brewing Company",
    "brewery_type": "micro",
    "address_1": "1715 Summit Ave",
    "address_2": null,
    "address_3": null,
    "city": "Richmond",
    "state_province": "Virginia",
    "postal_code": "23230-4515",
    "country": "United States",
    "longitude": -77.46838631,
    "latitude": 37.56890085,
    "phone": "8047162132",
    "website_url": "http://www.isleybrewingcompany.com",
    "state": "Virginia",
    "street": "1715 Summit Ave"
  },
  {
    "id": "7e491720-4757-4f4e-9353-71fbb1f4acda",
    "name": "Islla Street Brewing Company",
    "brewery_type": "micro",
    "address_1": "11911 Crosswinds Way",
    "address_2": null,
    "address_3": null,
    "city": "San Antonio",
    "state_province": "Texas",
    "postal_code": "78233",
    "country": "United States",
    "longitude": -98.3775366,
    "latitude": 29.547909,
    "phone": "210-771-6532",
    "website_url": "http://www.isllastreetbrewing.com/",
    "state": "Texas",
    "street": "11911 Crosswinds Way"
  },
  {
    "id": "6e667bb3-b1d5-42ad-96ef-bdee307a9ad5",
    "name": "Itasca Brewing Company Inc",
    "brewery_type": "micro",
    "address_1": "400 E Orchard St Ste B",
    "address_2": null,
    "address_3": null,
    "city": "Itasca",
    "state_province": "Illinois",
    "postal_code": "60143-1773",
    "country": "United States",
    "longitude": null,
    "latitude": null,
    "phone": "7738994998",
    "website_url": "http://www.itascabrewingcompany.com",
    "state": "Illinois",
    "street": "400 E Orchard St Ste B"
  },
  {
    "id": "315fd733-fd6e-4619-af95-98ef88bfba74",
    "name": "Ithaca Beer Co",
    "brewery_type": "regional",
    "address_1": "122 Ithaca Beer Dr",
    "address_2": null,
    "address_3": null,
    "city": "Ithaca",
    "state_province": "New York",
    "postal_code": "14850-8813",
    "country": "United States",
    "longitude": null,
    "latitude": null,
    "phone": "6072730766",
    "website_url": "http://www.ithacabeer.com",
    "state": "New York",
    "street": "122 Ithaca Beer Dr"
  },
  {
    "id": "d94d1ba9-02f8-4da2-be5e-2fdc0bb2f582",
    "name": "Ivanhoe Aleworks",
    "brewery_type": "micro",
    "address_1": "220 W Main St",
    "address_2": null,
    "address_3": null,
    "city": "Denison",
    "state_province": "Texas",
    "postal_code": "75020-3025",
    "country": "United States",
    "longitude": -96.53729048,
    "latitude": 33.75528217,
    "phone": "9034640030",
    "website_url": null,
    "state": "Texas",
    "street": "220 W Main St"
  },
  {
    "id": "34add3a8-8902-41eb-9105-7e4d107284a4",
    "name": "Ivanhoe Park Brewing Company",
    "brewery_type": "micro",
    "address_1": "1300 Alden Rd",
    "address_2": null,
    "address_3": null,
    "city": "Orlando",
    "state_province": "Florida",
    "postal_code": "32803-1822",
    "country": "United States",
    "longitude": -81.3718448,
    "latitude": 28.5631918,
    "phone": "7144254756",
    "website_url": "http://www.IvanhoeParkBrewing.com",
    "state": "Florida",
    "street": "1300 Alden Rd"
  },
  {
    "id": "35a9e0b9-bd35-45a5-9c18-d393d24e1998",
    "name": "Ivory Tower Brewery",
    "brewery_type": "planning",
    "address_1": null,
    "address_2": null,
    "address_3": null,
    "city": "Boone",
    "state_province": "North Carolina",
    "postal_code": "28608-0001",
    "country": "United States",
    "longitude": null,
    "latitude": null,
    "phone": "8282627847",
    "website_url": "http://ivorytowerscience.com",
    "state": "North Carolina",
    "street": null
  },
  {
    "id": "21ba3bb4-b9ec-47c9-8e95-eda8f7f5b410",
    "name": "Iza Local Izakaya",
    "brewery_type": "bar",
    "address_1": "695E East Coast Road",
    "address_2": null,
    "address_3": null,
    "city": "Singapore",
    "state_province": "Singapore",
    "postal_code": "459059",
    "country": "Singapore",
    "longitude": 1.3118909225065,
    "latitude": 103.9219623,
    "phone": "+65 6385 2883",
    "website_url": null,
    "state": "Singapore",
    "street": "695E East Coast Road"
  },
  {
    "id": "e7b2df20-dd98-483d-9263-7284044b95c2",
    "name": "J Moe's Brewing Company",
    "brewery_type": "brewpub",
    "address_1": "7314 Washington St",
    "address_2": null,
    "address_3": null,
    "city": "Denver",
    "state_province": "Colorado",
    "postal_code": "80229-6302",
    "country": "United States",
    "longitude": -104.9791943,
    "latitude": 39.7800007,
    "phone": "3032874824",
    "website_url": "http://www.creedebeer.com",
    "state": "Colorado",
    "street": "7314 Washington St"
  },
  {
    "id": "1f821dd4-8c5f-4aca-af33-3989ac3f0702",
    "name": "J Wakefield Brewing",
    "brewery_type": "micro",
    "address_1": "120 NW 24th St",
    "address_2": null,
    "address_3": null,
    "city": "Miami",
    "state_province": "Florida",
    "postal_code": "33127-4414",
    "country": "United States",
    "longitude": -80.19752867,
    "latitude": 25.7995437,
    "phone": "7862547779",
    "website_url": "http://www.jwakefieldbrewing.com",
    "state": "Florida",
    "street": "120 NW 24th St"
  },
  {
    "id": "e2ba6adc-a7f0-4bb7-aebe-60bce1e19cb2",
    "name": "J. Fargo's Family Dining & Micro Brewery / Coyote J Brewing Co",
    "brewery_type": "brewpub",
    "address_1": "1209 E Main St",
    "address_2": null,
    "address_3": null,
    "city": "Cortez",
    "state_province": "Colorado",
    "postal_code": "81321-2910",
    "country": "United States",
    "longitude": -108.570199,
    "latitude": 37.348775,
    "phone": "9705640242",
    "website_url": "http://www.jfargos.com",
    "state": "Colorado",
    "street": "1209 E Main St"
  },
  {
    "id": "9c6d4ecb-1788-4bb2-ba9f-ae3efd78c7d0",
    "name": "J.J. Bitting Brewing Co.",
    "brewery_type": "brewpub",
    "address_1": "33 Main St",
    "address_2": null,
    "address_3": null,
    "city": "Woodbridge",
    "state_province": "New Jersey",
    "postal_code": "07095-3335",
    "country": "United States",
    "longitude": -74.27717895,
    "latitude": 40.55461595,
    "phone": "7326342929",
    "website_url": "http://www.njbrewpubs.com",
    "state": "New Jersey",
    "street": "33 Main St"
  },
  {
    "id": "d4027a1d-bf45-4db4-aaa2-241636f359b5",
    "name": "J.W. Sweetman",
    "brewery_type": "brewpub",
    "address_1": "1-2 Burgh Quay",
    "address_2": "Dublin 2",
    "address_3": null,
    "city": "Dublin",
    "state_province": "Dublin",
    "postal_code": "D02 F243",
    "country": "Ireland",
    "longitude": -6.2603268,
    "latitude": 53.3469777,
    "phone": "35316705777",
    "website_url": null,
    "state": "Dublin",
    "street": "1-2 Burgh Quay"
  },
  {
    "id": "bc36be6b-e3ad-4821-9b7f-f1844919ad22",
    "name": "J'ville Brewery",
    "brewery_type": "micro",
    "address_1": "201 Vt Route 112",
    "address_2": null,
    "address_3": null,
    "city": "Jacksonville",
    "state_province": "Vermont",
    "postal_code": "05342-9634",
    "country": "United States",
    "longitude": null,
    "latitude": null,
    "phone": "8023682233",
    "website_url": "http://www.jvillebrewery.com",
    "state": "Vermont",
    "street": "201 Vt Route 112"
  },
  {
    "id": "fb85d6e1-484f-4076-96f5-bd63259c953d",
    "name": "Jack Mason's Tavern and Brewery",
    "brewery_type": "brewpub",
    "address_1": "400 E Ridgeway St",
    "address_2": null,
    "address_3": null,
    "city": "Clifton Forge",
    "state_province": "Virginia",
    "postal_code": "24422-1327",
    "country": "United States",
    "longitude": -79.82746218,
    "latitude": 37.81505479,
    "phone": "5408625624",
    "website_url": "http://www.jackmasonstavern.com",
    "state": "Virginia",
    "street": "400 E Ridgeway St"
  },
  {
    "id": "cf0a06ee-0b23-4922-843c-f0443d7e1707",
    "name": "Jack Pine Brewery",
    "brewery_type": "micro",
    "address_1": "15593 Edgewood Dr",
    "address_2": null,
    "address_3": null,
    "city": "Baxter",
    "state_province": "Minnesota",
    "postal_code": "56401-6952",
    "country": "United States",
    "longitude": null,
    "latitude": null,
    "phone": "2182708072",
    "website_url": "http://www.jackpinebrewery.com",
    "state": "Minnesota",
    "street": "15593 Edgewood Dr"
  },
  {
    "id": "82177a4e-4178-445e-83d7-47db4466db87",
    "name": "Jack Russell Farm Ales",
    "brewery_type": "brewpub",
    "address_1": "2380 Larsen Dr",
    "address_2": null,
    "address_3": null,
    "city": "Camino",
    "state_province": "California",
    "postal_code": "95709-9749",
    "country": "United States",
    "longitude": -120.6801664,
    "latitude": 38.75368647,
    "phone": "5306479420",
    "website_url": "http://www.jackrussellbrewing.com",
    "state": "California",
    "street": "2380 Larsen Dr"
  },
  {
    "id": "db792297-5556-4f59-8132-e5b877c9da2e",
    "name": "Jack Russell's Steakhouse and Brewery / Maine Coast Brewing Co.",
    "brewery_type": "brewpub",
    "address_1": "102 Eden St",
    "address_2": null,
    "address_3": null,
    "city": "Bar Harbor",
    "state_province": "Maine",
    "postal_code": "04609-1106",
    "country": "United States",
    "longitude": -68.2231868,
    "latitude": 44.3946497,
    "phone": "2072885214",
    "website_url": "http://www.jackrussellssteakhouse.com",
    "state": "Maine",
    "street": "102 Eden St"
  },
  {
    "id": "6299623b-bae2-4152-88a5-47e5b63bb4f8",
    "name": "Jack's Abby Brewing",
    "brewery_type": "regional",
    "address_1": "100 Clinton St",
    "address_2": null,
    "address_3": null,
    "city": "Framingham",
    "state_province": "Massachusetts",
    "postal_code": "01702-6748",
    "country": "United States",
    "longitude": -71.4109021,
    "latitude": 42.2800852,
    "phone": "5088720900",
    "website_url": "http://www.jacksabbybrewing.com",
    "state": "Massachusetts",
    "street": "100 Clinton St"
  },
  {
    "id": "171e24f1-5f57-4da6-acab-61f0f28dd1b7",
    "name": "Jack's Brewing Co",
    "brewery_type": "brewpub",
    "address_1": "39176 Argonaut Way",
    "address_2": null,
    "address_3": null,
    "city": "Fremont",
    "state_province": "California",
    "postal_code": "94538-1304",
    "country": "United States",
    "longitude": -121.9884025,
    "latitude": 37.5442084,
    "phone": "5107962036",
    "website_url": null,
    "state": "California",
    "street": "39176 Argonaut Way"
  },
  {
    "id": "b5b8c4a7-50b1-4d3d-9f9f-784bf8c1d33c",
    "name": "Jack's Run Brewing Co",
    "brewery_type": "micro",
    "address_1": "108 North 21st Street",
    "address_2": null,
    "address_3": null,
    "city": "Purcellville",
    "state_province": "Virginia",
    "postal_code": "20132",
    "country": "United States",
    "longitude": -77.71491185,
    "latitude": 39.13704895,
    "phone": "5404413382",
    "website_url": "http://www.jacksrunbrewing.com",
    "state": "Virginia",
    "street": "108 North 21st Street"
  },
  {
    "id": "fa35cb80-3d34-4fcf-b411-f9ad355b1531",
    "name": "Jackalope Brewing Company, LLC",
    "brewery_type": "micro",
    "address_1": "701 8th Ave S",
    "address_2": null,
    "address_3": null,
    "city": "Nashville",
    "state_province": "Tennessee",
    "postal_code": "37203-4104",
    "country": "United States",
    "longitude": -86.7794989,
    "latitude": 36.1503817,
    "phone": "6158870807",
    "website_url": "http://www.jackalopebrew.com",
    "state": "Tennessee",
    "street": "701 8th Ave S"
  },
  {
    "id": "d1061663-6fed-48be-8300-4556f080bae5",
    "name": "Jacked Up Brewery",
    "brewery_type": "micro",
    "address_1": "800 W Grand Ave Ste B Ste 201",
    "address_2": null,
    "address_3": null,
    "city": "Escondido",
    "state_province": "California",
    "postal_code": "92025-2562",
    "country": "United States",
    "longitude": -117.0917748,
    "latitude": 33.11733983,
    "phone": "7603000633",
    "website_url": "http://jackedupbrewery.com",
    "state": "California",
    "street": "800 W Grand Ave Ste B Ste 201"
  },
  {
    "id": "64c9113d-9f06-4fc4-9db7-e8973bb30bc0",
    "name": "Jackie O's Brewery",
    "brewery_type": "micro",
    "address_1": "25 Campbell St",
    "address_2": null,
    "address_3": null,
    "city": "Athens",
    "state_province": "Ohio",
    "postal_code": "45701-2616",
    "country": "United States",
    "longitude": -82.09053555,
    "latitude": 39.3315139,
    "phone": "6147473434",
    "website_url": null,
    "state": "Ohio",
    "street": "25 Campbell St"
  },
  {
    "id": "1faa634b-2bef-45e2-a641-67e5c865aa6f",
    "name": "Jackie O's Pub & Brewery",
    "brewery_type": "brewpub",
    "address_1": "22-24 W Union St",
    "address_2": null,
    "address_3": null,
    "city": "Athens",
    "state_province": "Ohio",
    "postal_code": "45701-2818",
    "country": "United States",
    "longitude": -82.10216171,
    "latitude": 39.32764186,
    "phone": "7405929686",
    "website_url": "http://www.jackieos.com",
    "state": "Ohio",
    "street": "22-24 W Union St"
  },
  {
    "id": "97e9df73-8a99-46f6-b316-afab7b84ce6a",
    "name": "Jackrabbit Brewing Co",
    "brewery_type": "micro",
    "address_1": "1323 Terminal St",
    "address_2": null,
    "address_3": null,
    "city": "West Sacramento",
    "state_province": "California",
    "postal_code": "95691-3514",
    "country": "United States",
    "longitude": -121.54112,
    "latitude": 38.5719882,
    "phone": "2096120259",
    "website_url": "http://www.jackrabbitbrewingcompany.com",
    "state": "California",
    "street": "1323 Terminal St"
  },
  {
    "id": "2286d60e-a83b-4f9f-b568-1f6fb4cc8810",
    "name": "Jackson Street Brew Co.",
    "brewery_type": "brewpub",
    "address_1": "106 N Jackson St",
    "address_2": null,
    "address_3": null,
    "city": "Perryville",
    "state_province": "Missouri",
    "postal_code": "63775-1336",
    "country": "United States",
    "longitude": -89.86375484,
    "latitude": 37.72597286,
    "phone": "5736053297",
    "website_url": "http://jstreetbrewco.com",
    "state": "Missouri",
    "street": "106 N Jackson St"
  },
  {
    "id": "37b68562-5c86-4441-823d-dbfacafd75fa",
    "name": "Jackson Street Brewing",
    "brewery_type": "micro",
    "address_1": "607 5th St",
    "address_2": null,
    "address_3": null,
    "city": "Sioux City",
    "state_province": "Iowa",
    "postal_code": "51101-1301",
    "country": "United States",
    "longitude": -96.40323429,
    "latitude": 42.49533849,
    "phone": "7125748403",
    "website_url": null,
    "state": "Iowa",
    "street": "607 5th St"
  },
  {
    "id": "5ef5d4fd-bc0f-4000-9149-fcf75b9f2168",
    "name": "Jacob Leinenkugel Brewing Co",
    "brewery_type": "large",
    "address_1": "1 Jefferson Ave",
    "address_2": null,
    "address_3": null,
    "city": "Chippewa Falls",
    "state_province": "Wisconsin",
    "postal_code": "54729-1318",
    "country": "United States",
    "longitude": -91.396442,
    "latitude": 44.944606,
    "phone": "7157235558",
    "website_url": "http://www.leinie.com",
    "state": "Wisconsin",
    "street": "1 Jefferson Ave"
  },
  {
    "id": "a6a00d6b-d6f2-42c1-8810-6709a1a064be",
    "name": "Jaden James Brewery @ The Cascade Winery",
    "brewery_type": "brewpub",
    "address_1": "4665 Broadmoor Ave SE Ste 135",
    "address_2": null,
    "address_3": null,
    "city": "Grand Rapids",
    "state_province": "Michigan",
    "postal_code": "49512-5387",
    "country": "United States",
    "longitude": -85.583194,
    "latitude": 42.909899,
    "phone": "6166564665",
    "website_url": "http://jadenjamesbrewery.com",
    "state": "Michigan",
    "street": "4665 Broadmoor Ave SE Ste 135"
  },
  {
    "id": "314dfee4-0f05-4eba-aef6-573122095f3f",
    "name": "JAFB Brewery",
    "brewery_type": "micro",
    "address_1": "120 Beall Ave",
    "address_2": null,
    "address_3": null,
    "city": "Wooster",
    "state_province": "Ohio",
    "postal_code": "44691-3673",
    "country": "United States",
    "longitude": -81.93429705,
    "latitude": 40.7995432,
    "phone": "3306011827",
    "website_url": "http://www.jafbbeer.com",
    "state": "Ohio",
    "street": "120 Beall Ave"
  },
  {
    "id": "018b3e0a-ea27-4f11-acab-16b39607939e",
    "name": "Jagged Mountain Brewery",
    "brewery_type": "micro",
    "address_1": "1139 20th St",
    "address_2": null,
    "address_3": null,
    "city": "Denver",
    "state_province": "Colorado",
    "postal_code": "80202-1811",
    "country": "United States",
    "longitude": -104.9913673,
    "latitude": 39.7522457,
    "phone": "7206892337",
    "website_url": "http://www.jaggedmountainbrewery.com",
    "state": "Colorado",
    "street": "1139 20th St"
  },
  {
    "id": "cc7a08ca-f10b-4cc8-9dc2-a585d0b2fc61",
    "name": "Jags@Siglap",
    "brewery_type": "bar",
    "address_1": "922 East Coast Road",
    "address_2": null,
    "address_3": null,
    "city": "Singapore",
    "state_province": "Singapore",
    "postal_code": "459114",
    "country": "Singapore",
    "longitude": 1.312338406799,
    "latitude": 103.9249077,
    "phone": "+65 6241 2168",
    "website_url": "https://jags.com.sg/",
    "state": "Singapore",
    "street": "922 East Coast Road"
  }
]