[
  {
    "id": "687e4cd5-76a2-4d9b-9ec8-78af03aa2027",
    "name": "Thorn Street Brewery",
    "brewery_type": "micro",
    "address_1": "3174 Thorn St",
    "address_2": null,
    "address_3": null,
    "city": "San Diego",
    "state_province": "California",
    "postal_code": "92104-4636",
    "country": "United States",
    "longitude": -117.125379,
    "latitude": 32.739337,
    "phone": "6195012739",
    "website_url": "http://www.thornstreetbrew.com",
    "state": "California",
    "street": "3174 Thorn St"
  },
  {
    "id": "0c110b22-05b3-4fc1-b5e4-7e8d370a1e15",
    "name": "Thornapple Brewing Company",
    "brewery_type": "micro",
    "address_1": "6262 28th st SE",
    "address_2": null,
    "address_3": null,
    "city": "Grand rapids",
    "state_province": "Michigan",
    "postal_code": "49546",
    "country": "United States",
    "longitude": -85.6506666,
    "latitude": 42.9128114,
    "phone": "6164226209",
    "website_url": "http://Www.thornapplebrewing.com",
    "state": "Michigan",
    "street": "6262 28th st SE"
  },
  {
    "id": "4fb64914-6b83-4f34-b439-863aa2859e25",
    "name": "Thousand Oaks Brewing Co.",
    "brewery_type": "micro",
    "address_1": "3200 Woodall Dr Unit C1",
    "address_2": null,
    "address_3": null,
    "city": "Cedar Park",
    "state_province": "Texas",
    "postal_code": "78613-7773",
    "country": "United States",
    "longitude": null,
    "latitude": null,
    "phone": "5126867999",
    "website_url": "http://www.thousandoaksbrewing.com",
    "state": "Texas",
    "street": "3200 Woodall Dr Unit C1"
  },
  {
    "id": "83d92319-f24d-4946-a83b-b08362541b0a",
    "name": "Thr3e Punks Ale",
    "brewery_type": "micro",
    "address_1": "259 Third Ave",
    "address_2": null,
    "address_3": null,
    "city": "Chula Vista",
    "state_province": "California",
    "postal_code": "91910-2721",
    "country": "United States",
    "longitude": -117.080107,
    "latitude": 32.642827,
    "phone": "6198579092",
    "website_url": "http://3punkales.com/red/index.html",
    "state": "California",
    "street": "259 Third Ave"
  },
  {
    "id": "33f3340a-9c62-4071-be56-9c352fcb9857",
    "name": "Thr3e Wise Men Brewing Co",
    "brewery_type": "brewpub",
    "address_1": "1021 Broad Ripple Ave",
    "address_2": null,
    "address_3": null,
    "city": "Indianapolis",
    "state_province": "Indiana",
    "postal_code": "46220-2034",
    "country": "United States",
    "longitude": null,
    "latitude": null,
    "phone": "3172555151",
    "website_url": null,
    "state": "Indiana",
    "street": "1021 Broad Ripple Ave"
  },
  {
    "id": "9dfc4ee7-0740-448e-9d66-f6b06eafb36d",
    "name": "Three 3's Brewery",
    "brewery_type": "micro",
    "address_1": "50 13th St",
    "address_2": null,
    "address_3": null,
    "city": "Hammonton",
    "state_province": "New Jersey",
    "postal_code": "08037-1559",
    "country": "United States",
    "longitude": -74.81147261,
    "latitude": 39.6385625,
    "phone": "7328141396",
    "website_url": "http://www.three3sbrewing.com",
    "state": "New Jersey",
    "street": "50 13th St"
  },
  {
    "id": "3a7a531f-4700-4a37-9ef7-573c1a3264ff",
    "name": "Three Acre Brewery Limited",
    "brewery_type": "micro",
    "address_1": "Beechy Road",
    "address_2": null,
    "address_3": null,
    "city": "Uckfield",
    "state_province": "East Sussex",
    "postal_code": "TN22 5JG",
    "country": "England",
    "longitude": 0.161644,
    "latitude": 50.944538,
    "phone": "1825891144",
    "website_url": "https://threeacrebrewery.com/",
    "state": "East Sussex",
    "street": "Beechy Road"
  },
  {
    "id": "075e57e0-0eaf-482b-8ac2-41034f63c5a1",
    "name": "Three Barrel Brewing Co",
    "brewery_type": "brewpub",
    "address_1": "475 Grand Ave",
    "address_2": null,
    "address_3": null,
    "city": "del Norte",
    "state_province": "Colorado",
    "postal_code": "81132-2204",
    "country": "United States",
    "longitude": -106.3567109,
    "latitude": 37.6790756,
    "phone": "7196570681",
    "website_url": "http://www.threebarrelbrew.com",
    "state": "Colorado",
    "street": "475 Grand Ave"
  },
  {
    "id": "5c8d8884-ab03-4de2-9370-2cd781eb7b07",
    "name": "Three Blondes Brewing",
    "brewery_type": "brewpub",
    "address_1": "1875 Phoenix St",
    "address_2": null,
    "address_3": null,
    "city": "South Haven",
    "state_province": "Michigan",
    "postal_code": "49090-7151",
    "country": "United States",
    "longitude": -86.2642391,
    "latitude": 42.4033183,
    "phone": null,
    "website_url": "http://www.threeblondesbrewing.com",
    "state": "Michigan",
    "street": "1875 Phoenix St"
  },
  {
    "id": "19ad46cc-8102-47eb-bc11-0f91546e6e13",
    "name": "Three Bridges Brewing / Off the Wagon Brewery",
    "brewery_type": "brewpub",
    "address_1": "2107 Tamiami Trl S",
    "address_2": null,
    "address_3": null,
    "city": "Venice",
    "state_province": "Florida",
    "postal_code": "34293-5011",
    "country": "United States",
    "longitude": -82.3913649,
    "latitude": 27.0497931,
    "phone": "9414972048",
    "website_url": "http://www.otwbar.com",
    "state": "Florida",
    "street": "2107 Tamiami Trl S"
  },
  {
    "id": "0d600fbf-886a-4337-9a3a-ddf34ee381a0",
    "name": "Three Bull Brewing Co",
    "brewery_type": "micro",
    "address_1": "809 19th St",
    "address_2": null,
    "address_3": null,
    "city": "Snohomish",
    "state_province": "Washington",
    "postal_code": "98290-1444",
    "country": "United States",
    "longitude": -122.0917086,
    "latitude": 47.93474746,
    "phone": "2065505244",
    "website_url": "http://www.threebullbrewing.com",
    "state": "Washington",
    "street": "809 19th St"
  },
  {
    "id": "de20c7b0-de7a-486a-8602-554e483719aa",
    "name": "Three Creeks Brewing Co",
    "brewery_type": "brewpub",
    "address_1": "721 Desperado Ct",
    "address_2": null,
    "address_3": null,
    "city": "Sisters",
    "state_province": "Oregon",
    "postal_code": "97759-9514",
    "country": "United States",
    "longitude": -121.534944,
    "latitude": 44.285254,
    "phone": "5415491963",
    "website_url": "http://www.threecreeksbrewing.com",
    "state": "Oregon",
    "street": "721 Desperado Ct"
  },
  {
    "id": "2bdd94ec-ba41-46d3-9835-05f1eb730391",
    "name": "Three Creeks Production",
    "brewery_type": "micro",
    "address_1": "265 E. Barclay Dr.",
    "address_2": null,
    "address_3": null,
    "city": "Sisters",
    "state_province": "Oregon",
    "postal_code": "97759-9514",
    "country": "United States",
    "longitude": -121.5480908,
    "latitude": 44.29710192,
    "phone": "5415491963",
    "website_url": null,
    "state": "Oregon",
    "street": "265 E. Barclay Dr."
  },
  {
    "id": "27564880-047a-443c-a11b-848da3b04c62",
    "name": "Three Empires Brewing Company, LLC",
    "brewery_type": "planning",
    "address_1": null,
    "address_2": null,
    "address_3": null,
    "city": "Pearland",
    "state_province": "Texas",
    "postal_code": "77584",
    "country": "United States",
    "longitude": null,
    "latitude": null,
    "phone": null,
    "website_url": null,
    "state": "Texas",
    "street": null
  },
  {
    "id": "a72dd018-8329-4112-b81e-05efb191ca47",
    "name": "Three Floyds Brewing Co",
    "brewery_type": "regional",
    "address_1": "9750 Indiana Pkwy",
    "address_2": null,
    "address_3": null,
    "city": "Munster",
    "state_province": "Indiana",
    "postal_code": "46321-4004",
    "country": "United States",
    "longitude": null,
    "latitude": null,
    "phone": "2199223565",
    "website_url": "http://www.3floyds.com",
    "state": "Indiana",
    "street": "9750 Indiana Pkwy"
  },
  {
    "id": "853afac1-06cb-4b7c-874a-5b9c3edfd67d",
    "name": "Three Forks Bakery & Brewing Company",
    "brewery_type": "brewpub",
    "address_1": "211 Commercial St",
    "address_2": null,
    "address_3": null,
    "city": "Nevada City",
    "state_province": "California",
    "postal_code": "95959-2506",
    "country": "United States",
    "longitude": -121.017467,
    "latitude": 39.26299798,
    "phone": "5304708333",
    "website_url": "http://threeforksnc.com",
    "state": "California",
    "street": "211 Commercial St"
  },
  {
    "id": "994b7ef7-6d89-4f01-ba5f-858c3bf76bcb",
    "name": "Three Four Beer Company",
    "brewery_type": "brewpub",
    "address_1": "829 S Shields St",
    "address_2": null,
    "address_3": null,
    "city": "Fort Collins",
    "state_province": "Colorado",
    "postal_code": "80521-3599",
    "country": "United States",
    "longitude": -105.0959634,
    "latitude": 40.5726176,
    "phone": "9706821560",
    "website_url": "http://www.threefourbeerco.com",
    "state": "Colorado",
    "street": "829 S Shields St"
  },
  {
    "id": "1e6a03d0-7697-45f2-b78e-362c43c9132c",
    "name": "Three Heads Brewing",
    "brewery_type": "micro",
    "address_1": "186 Atlantic Ave",
    "address_2": null,
    "address_3": null,
    "city": "Rochester",
    "state_province": "New York",
    "postal_code": "14607-1213",
    "country": "United States",
    "longitude": -77.58034655,
    "latitude": 43.15611755,
    "phone": "5852441224",
    "website_url": "http://www.threeheadsbrewing.com",
    "state": "New York",
    "street": "186 Atlantic Ave"
  },
  {
    "id": "c56138f8-20c8-4e85-b951-8d68ceb70548",
    "name": "Three Huskies Brewing & Dobber's Grill",
    "brewery_type": "brewpub",
    "address_1": "401 Lakeshore Dr",
    "address_2": null,
    "address_3": null,
    "city": "Canandaigua",
    "state_province": "New York",
    "postal_code": "14424-2338",
    "country": "United States",
    "longitude": -77.251124,
    "latitude": 42.8723885,
    "phone": "5852603530",
    "website_url": "http://www.threehuskiesbrewing.com",
    "state": "New York",
    "street": "401 Lakeshore Dr"
  },
  {
    "id": "ac071177-1879-4422-aa0e-71d5df1b8ca3",
    "name": "Three Magnets Brewing",
    "brewery_type": "brewpub",
    "address_1": "600 Franklin St SE Unit 105",
    "address_2": null,
    "address_3": null,
    "city": "Olympia",
    "state_province": "Washington",
    "postal_code": "98501-1360",
    "country": "United States",
    "longitude": -122.89865057127,
    "latitude": 47.04329602698,
    "phone": "3609722481",
    "website_url": "http://www.threemagnetsbrewing.com",
    "state": "Washington",
    "street": "600 Franklin St SE Unit 105"
  },
  {
    "id": "ca24d92d-fcd6-4f5f-b9f4-b30917acd834",
    "name": "Three Mile Brewing Co",
    "brewery_type": "micro",
    "address_1": "231 G St",
    "address_2": null,
    "address_3": null,
    "city": "Davis",
    "state_province": "California",
    "postal_code": "95616-4549",
    "country": "United States",
    "longitude": -121.739122,
    "latitude": 38.54403522,
    "phone": "5305644351",
    "website_url": "http://www.threemilebrewing.com/",
    "state": "California",
    "street": "231 G St"
  },
  {
    "id": "01166a5e-a46a-44f8-b491-8f539853f0f0",
    "name": "Three Monkeys Brewing Co",
    "brewery_type": "contract",
    "address_1": "455 S Pine St Ste 3",
    "address_2": null,
    "address_3": null,
    "city": "Madera",
    "state_province": "California",
    "postal_code": "93637-5242",
    "country": "United States",
    "longitude": -120.0735866,
    "latitude": 36.94939346,
    "phone": "5593632709",
    "website_url": "http://www.3monkeysbrewing.com",
    "state": "California",
    "street": "455 S Pine St Ste 3"
  },
  {
    "id": "bea9a114-7951-4ba3-b8bd-a60103b322f9",
    "name": "Three Mugs Brewing Company",
    "brewery_type": "micro",
    "address_1": "2020 NE Aloclek Dr Ste 108",
    "address_2": null,
    "address_3": null,
    "city": "Hillsboro",
    "state_province": "Oregon",
    "postal_code": "97124-8053",
    "country": "United States",
    "longitude": -122.8989638,
    "latitude": 45.53469242,
    "phone": "9713220232",
    "website_url": "http://threemugsbrewing.com",
    "state": "Oregon",
    "street": "2020 NE Aloclek Dr Ste 108"
  },
  {
    "id": "c4101816-9cb4-4327-afd1-5ec710378b76",
    "name": "Three Notch'd Brewing Company",
    "brewery_type": "micro",
    "address_1": "520 2nd St SE",
    "address_2": null,
    "address_3": null,
    "city": "Charlottesville",
    "state_province": "Virginia",
    "postal_code": "22902-5794",
    "country": "United States",
    "longitude": -78.4820248,
    "latitude": 38.0261159,
    "phone": null,
    "website_url": null,
    "state": "Virginia",
    "street": "520 2nd St SE"
  },
  {
    "id": "646c6561-3b4f-4d5a-9086-05713ee29465",
    "name": "Three Notch'd RVA Collab House",
    "brewery_type": "micro",
    "address_1": "2930 W Broad St",
    "address_2": null,
    "address_3": null,
    "city": "Richmond",
    "state_province": "Virginia",
    "postal_code": "23230-5114",
    "country": "United States",
    "longitude": -77.47194883,
    "latitude": 37.56369964,
    "phone": "4342930610",
    "website_url": "http://www.threenotchdbrewing.com",
    "state": "Virginia",
    "street": "2930 W Broad St"
  },
  {
    "id": "809b7edc-f509-4a3c-81ec-1dd40a74c0af",
    "name": "Three Notch'd Sour House",
    "brewery_type": "micro",
    "address_1": "520 2nd St SE",
    "address_2": null,
    "address_3": null,
    "city": "Charlottesville",
    "state_province": "Virginia",
    "postal_code": "22902-5794",
    "country": "United States",
    "longitude": -78.4820248,
    "latitude": 38.0261159,
    "phone": "4349563141",
    "website_url": "http://threenotchdbrewing.com/",
    "state": "Virginia",
    "street": "520 2nd St SE"
  },
  {
    "id": "8a375f74-67e5-40a7-b284-07b93c747475",
    "name": "Three Notch'd Valley Collab House",
    "brewery_type": "micro",
    "address_1": "241 E Market St",
    "address_2": null,
    "address_3": null,
    "city": "Harrisonburg",
    "state_province": "Virginia",
    "postal_code": "22801",
    "country": "United States",
    "longitude": -78.8654965,
    "latitude": 38.4487621,
    "phone": "4342930610",
    "website_url": null,
    "state": "Virginia",
    "street": "241 E Market St"
  },
  {
    "id": "bccd3b26-9e23-4311-a82f-a3c591dccc30",
    "name": "Three Pints Brewpub",
    "brewery_type": "brewpub",
    "address_1": "610 W Mitchell Ave",
    "address_2": null,
    "address_3": null,
    "city": "Martinsville",
    "state_province": "Indiana",
    "postal_code": "46151-2734",
    "country": "United States",
    "longitude": null,
    "latitude": null,
    "phone": "7653499888",
    "website_url": "http://www.threepints.com",
    "state": "Indiana",
    "street": "610 W Mitchell Ave"
  },
  {
    "id": "4aa52f48-c03f-45a4-833c-9526e37b2a69",
    "name": "Three Points Urban Brewery",
    "brewery_type": "micro",
    "address_1": "331 E 13th St",
    "address_2": null,
    "address_3": null,
    "city": "Cincinnati",
    "state_province": "Ohio",
    "postal_code": "45202-7307",
    "country": "United States",
    "longitude": -84.509442,
    "latitude": 39.11009082,
    "phone": "5135555555",
    "website_url": "http://www.3pointsbeer.com",
    "state": "Ohio",
    "street": "331 E 13th St"
  },
  {
    "id": "9d39924c-570a-47cb-afea-297a2de285b4",
    "name": "Three Rings Brewery",
    "brewery_type": "micro",
    "address_1": "536 South Old Highway 81",
    "address_2": null,
    "address_3": null,
    "city": "McPherson",
    "state_province": "Kansas",
    "postal_code": "67401-6026",
    "country": "United States",
    "longitude": null,
    "latitude": null,
    "phone": "6205045022",
    "website_url": null,
    "state": "Kansas",
    "street": "536 South Old Highway 81"
  },
  {
    "id": "63534fe3-fa73-49f0-8f5f-2fa0f2827424",
    "name": "Three Rivers Brewing Co",
    "brewery_type": "micro",
    "address_1": "41763 Sierra Dr Ste B",
    "address_2": null,
    "address_3": null,
    "city": "Three Rivers",
    "state_province": "California",
    "postal_code": "93271-9671",
    "country": "United States",
    "longitude": -118.9046115,
    "latitude": 36.44021714,
    "phone": "5599095483",
    "website_url": "http://www.threeriversbrewingco.com",
    "state": "California",
    "street": "41763 Sierra Dr Ste B"
  },
  {
    "id": "9c92f2ed-a4b1-4347-884c-70f227b61c30",
    "name": "Three Rivers Eatery and Brewery",
    "brewery_type": "brewpub",
    "address_1": "101 E Main St",
    "address_2": null,
    "address_3": null,
    "city": "Farmington",
    "state_province": "New Mexico",
    "postal_code": "87401-2701",
    "country": "United States",
    "longitude": -108.205192,
    "latitude": 36.729011,
    "phone": "5053242187",
    "website_url": "http://www.threeriversbrewery.com",
    "state": "New Mexico",
    "street": "101 E Main St"
  },
  {
    "id": "6275d4e7-2531-4855-870f-25616819d7ae",
    "name": "Three Spirits Brewery",
    "brewery_type": "micro",
    "address_1": "5046 Old Pineville Rd Ste 200",
    "address_2": null,
    "address_3": null,
    "city": "Charlotte",
    "state_province": "North Carolina",
    "postal_code": "28217-3033",
    "country": "United States",
    "longitude": -80.87842302,
    "latitude": 35.1718311,
    "phone": "9802074881",
    "website_url": "http://www.threespiritsbrewery.com",
    "state": "North Carolina",
    "street": "5046 Old Pineville Rd Ste 200"
  },
  {
    "id": "0efce704-e901-4d09-857c-6164cecd9a43",
    "name": "Three Stacks and A Rock Brewing Co",
    "brewery_type": "brewpub",
    "address_1": "3118 Main St Ste D",
    "address_2": null,
    "address_3": null,
    "city": "Morro Bay",
    "state_province": "California",
    "postal_code": "93442-1346",
    "country": "United States",
    "longitude": -120.8526982,
    "latitude": 35.36398667,
    "phone": "8057719286",
    "website_url": "http://threestacksandarockbrewing.com",
    "state": "California",
    "street": "3118 Main St Ste D"
  },
  {
    "id": "47f56601-da08-42bc-97db-89f2e567faaf",
    "name": "Three Taverns Craft Brewery",
    "brewery_type": "micro",
    "address_1": "121 New St",
    "address_2": null,
    "address_3": null,
    "city": "Decatur",
    "state_province": "Georgia",
    "postal_code": "30030-4131",
    "country": "United States",
    "longitude": -84.28488078,
    "latitude": 33.77305517,
    "phone": "4046003355",
    "website_url": "http://www.threetavernsbrewery.com",
    "state": "Georgia",
    "street": "121 New St"
  },
  {
    "id": "80277c37-d557-4a42-8c92-19126cc96dfc",
    "name": "Three Tigers Brewing Company",
    "brewery_type": "brewpub",
    "address_1": "140 N Prospect St",
    "address_2": null,
    "address_3": null,
    "city": "Granville",
    "state_province": "Ohio",
    "postal_code": "43023-1337",
    "country": "United States",
    "longitude": -82.51826713,
    "latitude": 40.06839886,
    "phone": "7409204680",
    "website_url": "http://www.threetigersbrewing.com",
    "state": "Ohio",
    "street": "140 N Prospect St"
  },
  {
    "id": "6326f909-d30f-4139-b75a-36335db20309",
    "name": "Three Twenty Brewing Co.",
    "brewery_type": "micro",
    "address_1": "135 5th St SE",
    "address_2": null,
    "address_3": null,
    "city": "Pine City",
    "state_province": "Minnesota",
    "postal_code": "55063-1510",
    "country": "United States",
    "longitude": -92.96974968,
    "latitude": 45.82796556,
    "phone": "3203221237",
    "website_url": "http://www.threetwentybrewing.com",
    "state": "Minnesota",
    "street": "135 5th St SE"
  },
  {
    "id": "2ca9897a-f7bb-402a-a83c-7ff2df71f5f6",
    "name": "Three Weavers Brewing Company",
    "brewery_type": "micro",
    "address_1": "1031 W Manchester Blvd Unit A-B",
    "address_2": null,
    "address_3": null,
    "city": "Inglewood",
    "state_province": "California",
    "postal_code": "90301-1509",
    "country": "United States",
    "longitude": -118.3746452,
    "latitude": 33.96138274,
    "phone": "3104005830",
    "website_url": "http://www.threeweavers.la",
    "state": "California",
    "street": "1031 W Manchester Blvd Unit A-B"
  },
  {
    "id": "baf18871-08d8-4cf1-8ce1-5f2dfd3a611b",
    "name": "Threefoot Brewing Company, LLC",
    "brewery_type": "contract",
    "address_1": "4010 23rd Avenue",
    "address_2": null,
    "address_3": null,
    "city": "Meridian",
    "state_province": "Mississippi",
    "postal_code": "39305",
    "country": "United States",
    "longitude": -88.7010359,
    "latitude": 32.4001022,
    "phone": "6016931074",
    "website_url": "http://www.threefootbrewing.com",
    "state": "Mississippi",
    "street": "4010 23rd Avenue"
  },
  {
    "id": "7796339a-277a-41ab-95a5-5b1d02a9387c",
    "name": "Threes Brewing",
    "brewery_type": "micro",
    "address_1": "333 Douglass St",
    "address_2": null,
    "address_3": null,
    "city": "Brooklyn",
    "state_province": "New York",
    "postal_code": "11217-3115",
    "country": "United States",
    "longitude": -73.9821529,
    "latitude": 40.6798144,
    "phone": "7185222110",
    "website_url": "http://www.threesbrewing.com",
    "state": "New York",
    "street": "333 Douglass St"
  },
  {
    "id": "3387dbaa-7163-4a4c-9f1a-fa031edcaa40",
    "name": "Threshers Brewing Company",
    "brewery_type": "micro",
    "address_1": "22 Main St N Bldg 3B",
    "address_2": null,
    "address_3": null,
    "city": "Searsmont",
    "state_province": "Maine",
    "postal_code": "04973-3409",
    "country": "United States",
    "longitude": null,
    "latitude": null,
    "phone": "2079753225",
    "website_url": "http://www.threshersbrewingco.com",
    "state": "Maine",
    "street": "22 Main St N Bldg 3B"
  },
  {
    "id": "dfdff781-6127-4db8-be9d-ce1cef869e20",
    "name": "Throwback Brewery",
    "brewery_type": "brewpub",
    "address_1": "7 Hobbs Rd",
    "address_2": null,
    "address_3": null,
    "city": "North Hampton",
    "state_province": "New Hampshire",
    "postal_code": "03862-2120",
    "country": "United States",
    "longitude": null,
    "latitude": null,
    "phone": "6034980123",
    "website_url": "http://www.throwbackbrewery.com",
    "state": "New Hampshire",
    "street": "7 Hobbs Rd"
  },
  {
    "id": "ae0cb939-c688-4a2e-92e5-096100397cbc",
    "name": "Thumb Knuckle Brewing Company",
    "brewery_type": "micro",
    "address_1": "E0208 State Rd 54",
    "address_2": null,
    "address_3": null,
    "city": "Luxemburg",
    "state_province": "Wisconsin",
    "postal_code": "54217",
    "country": "United States",
    "longitude": null,
    "latitude": null,
    "phone": null,
    "website_url": "http://www.thumbknuckle.beer",
    "state": "Wisconsin",
    "street": "E0208 State Rd 54"
  },
  {
    "id": "21fcf2f2-1db4-4189-a3ef-cc4c629a6e8e",
    "name": "Thunder Canyon Brewery",
    "brewery_type": "brewpub",
    "address_1": "220 E Broadway Blvd Ste 2",
    "address_2": null,
    "address_3": null,
    "city": "Tucson",
    "state_province": "Arizona",
    "postal_code": "85701-2043",
    "country": "United States",
    "longitude": null,
    "latitude": null,
    "phone": "5203963480",
    "website_url": "http://www.thundercanyonbrewery.com",
    "state": "Arizona",
    "street": "220 E Broadway Blvd Ste 2"
  },
  {
    "id": "cd16ecb3-09ce-40d8-8b63-47e36680559e",
    "name": "Thunder Island Brewing",
    "brewery_type": "micro",
    "address_1": "515 NW Portage Rd",
    "address_2": null,
    "address_3": null,
    "city": "Cascade Locks",
    "state_province": "Oregon",
    "postal_code": "97014-6699",
    "country": "United States",
    "longitude": -121.8962585,
    "latitude": 45.66499993,
    "phone": "9712314599",
    "website_url": "http://www.thunderislandbrewing.com",
    "state": "Oregon",
    "street": "515 NW Portage Rd"
  },
  {
    "id": "e914f95d-c014-4040-ada8-a73c4f3f37bc",
    "name": "Thunderhawk Alements",
    "brewery_type": "micro",
    "address_1": "8675 Miralani Dr Ste 100",
    "address_2": null,
    "address_3": null,
    "city": "San Diego",
    "state_province": "California",
    "postal_code": "92126-4355",
    "country": "United States",
    "longitude": -117.137467,
    "latitude": 32.89575006,
    "phone": "6199524832",
    "website_url": "http://thunderhawkbeer.com",
    "state": "California",
    "street": "8675 Miralani Dr Ste 100"
  },
  {
    "id": "1d1f1c20-d34b-4fa5-85fa-7f2da4091b4c",
    "name": "Thunderhead Brewing Co",
    "brewery_type": "brewpub",
    "address_1": "18 E 21st St",
    "address_2": null,
    "address_3": null,
    "city": "Kearney",
    "state_province": "Nebraska",
    "postal_code": "68847-5402",
    "country": "United States",
    "longitude": -99.080732,
    "latitude": 40.69665183,
    "phone": "3082371558",
    "website_url": "http://www.thunderheadbrewing.com",
    "state": "Nebraska",
    "street": "18 E 21st St"
  },
  {
    "id": "959d0c53-7a7e-4f9d-970e-6bb17e48586e",
    "name": "Tibbs Brewing Co",
    "brewery_type": "brewpub",
    "address_1": "402 S Burdick St",
    "address_2": null,
    "address_3": null,
    "city": "Kalamazoo",
    "state_province": "Michigan",
    "postal_code": "49007-5218",
    "country": "United States",
    "longitude": -85.58320831,
    "latitude": 42.28859949,
    "phone": "8777627397",
    "website_url": null,
    "state": "Michigan",
    "street": "402 S Burdick St"
  },
  {
    "id": "28c6f58f-5b53-4116-a839-e10d68651aed",
    "name": "Tideland Brewing",
    "brewery_type": "micro",
    "address_1": "4155 Dorchester Rd",
    "address_2": null,
    "address_3": null,
    "city": "North Charleston",
    "state_province": "South Carolina",
    "postal_code": "29405",
    "country": "United States",
    "longitude": -80.00236,
    "latitude": 32.85328,
    "phone": "8434058280",
    "website_url": "https://tidelandbrewing.com/",
    "state": "South Carolina",
    "street": "4155 Dorchester Rd"
  },
  {
    "id": "5aafd9ac-cb3b-4a21-9952-9baff7a7d3e4",
    "name": "Tie and Timber Beer Company",
    "brewery_type": "micro",
    "address_1": "1459 E Cherry St",
    "address_2": null,
    "address_3": null,
    "city": "Springfield",
    "state_province": "Missouri",
    "postal_code": "65802-3356",
    "country": "United States",
    "longitude": -93.2689605,
    "latitude": 37.20378983,
    "phone": "7202814664",
    "website_url": "http://www.tieandtimberbeerco.com",
    "state": "Missouri",
    "street": "1459 E Cherry St"
  }
]