[
  {
    "id": "1a9e21df-18dd-4373-a41c-a54d949336e8",
    "name": "Deslogetown Brewery",
    "brewery_type": "brewpub",
    "address_1": "1669 Pine Ridge Trail",
    "address_2": null,
    "address_3": null,
    "city": "Park Hills",
    "state_province": "Missouri",
    "postal_code": "63601",
    "country": "United States",
    "longitude": -90.561161,
    "latitude": 37.830972,
    "phone": "5734314294",
    "website_url": "http://stfrancoiswinery.com",
    "state": "Missouri",
    "street": "1669 Pine Ridge Trail"
  },
  {
    "id": "59d438c2-772b-46ff-b357-e12068eba653",
    "name": "Desperate Times Brewing Co",
    "brewery_type": "brewpub",
    "address_1": "1201 Carlisle Springs Rd",
    "address_2": null,
    "address_3": null,
    "city": "Carlisle",
    "state_province": "Pennsylvania",
    "postal_code": "17013-1554",
    "country": "United States",
    "longitude": -77.187054,
    "latitude": 40.213096,
    "phone": "7177063192",
    "website_url": "http://www.desperatetimesbrewery.com",
    "state": "Pennsylvania",
    "street": "1201 Carlisle Springs Rd"
  },
  {
    "id": "e8cf3258-6464-4de0-8769-40027573fc5f",
    "name": "DeSteeg Brewing Co/Blind Faith Brewing",
    "brewery_type": "micro",
    "address_1": "4342 Tennyson St",
    "address_2": null,
    "address_3": null,
    "city": "Denver",
    "state_province": "Colorado",
    "postal_code": "80212-2308",
    "country": "United States",
    "longitude": -105.0438193,
    "latitude": 39.7760619,
    "phone": "3034849698",
    "website_url": "http://www.desteegbrewing.com",
    "state": "Colorado",
    "street": "4342 Tennyson St"
  },
  {
    "id": "bebafffa-c64f-4b11-8497-7b3ec0648bfd",
    "name": "DESTIHL - Champaign",
    "brewery_type": "brewpub",
    "address_1": "301 N Neil St",
    "address_2": null,
    "address_3": null,
    "city": "Champaign",
    "state_province": "Illinois",
    "postal_code": "61820-3163",
    "country": "United States",
    "longitude": -88.2437783,
    "latitude": 40.1184918,
    "phone": "2173560301",
    "website_url": "http://www.destihl.com",
    "state": "Illinois",
    "street": "301 N Neil St"
  },
  {
    "id": "088897ee-bbe3-4ba5-9aaf-5ff9618cf260",
    "name": "DESTIHL - Normal",
    "brewery_type": "brewpub",
    "address_1": "318 S Towanda Ave",
    "address_2": null,
    "address_3": null,
    "city": "Normal",
    "state_province": "Illinois",
    "postal_code": "61761-2212",
    "country": "United States",
    "longitude": -88.960562,
    "latitude": 40.509706,
    "phone": "3098622337",
    "website_url": "http://www.destihl.com",
    "state": "Illinois",
    "street": "318 S Towanda Ave"
  },
  {
    "id": "74311046-203d-4c6e-b156-1100b4b7a2eb",
    "name": "DESTIHL Brewery",
    "brewery_type": "micro",
    "address_1": "1200 Greenbriar Dr",
    "address_2": null,
    "address_3": null,
    "city": "Normal",
    "state_province": "Illinois",
    "postal_code": "61761-6459",
    "country": "United States",
    "longitude": -88.94598211,
    "latitude": 40.52905465,
    "phone": "3092209901",
    "website_url": "http://www.destihl.com",
    "state": "Illinois",
    "street": "1200 Greenbriar Dr"
  },
  {
    "id": "89e47f0f-7710-4478-ac7e-ddb8268e7897",
    "name": "Destin Brewery",
    "brewery_type": "micro",
    "address_1": "505 Mountain Dr Ste N",
    "address_2": null,
    "address_3": null,
    "city": "Destin",
    "state_province": "Florida",
    "postal_code": "32541-7334",
    "country": "United States",
    "longitude": null,
    "latitude": null,
    "phone": null,
    "website_url": "http://www.destinbrewery.com",
    "state": "Florida",
    "street": "505 Mountain Dr Ste N"
  },
  {
    "id": "e4895f5c-e308-4d17-893f-2f86bb50868d",
    "name": "Destination Brewing Company",
    "brewery_type": "contract",
    "address_1": "2708 Lawrence Drive",
    "address_2": null,
    "address_3": null,
    "city": "Austin",
    "state_province": "Texas",
    "postal_code": "78734",
    "country": "United States",
    "longitude": null,
    "latitude": null,
    "phone": "5129659858",
    "website_url": "http://www.destinationbrewing.co",
    "state": "Texas",
    "street": "2708 Lawrence Drive"
  },
  {
    "id": "06aa77d8-4925-448f-9f0b-183a1c0b9d31",
    "name": "Destination Unknown Beer Company",
    "brewery_type": "micro",
    "address_1": "1 S Chicago Ave Unit C",
    "address_2": null,
    "address_3": null,
    "city": "Bay Shore",
    "state_province": "New York",
    "postal_code": "11706-7000",
    "country": "United States",
    "longitude": null,
    "latitude": null,
    "phone": "6314852232",
    "website_url": "http://www.destinationunknownbeercompany.com",
    "state": "New York",
    "street": "1 S Chicago Ave Unit C"
  },
  {
    "id": "51d1d1c9-4e63-4517-8538-419e8fb18042",
    "name": "Detroit Beer Co",
    "brewery_type": "brewpub",
    "address_1": "1529 Broadway St Ste 100",
    "address_2": null,
    "address_3": null,
    "city": "Detroit",
    "state_province": "Michigan",
    "postal_code": "48226-2141",
    "country": "United States",
    "longitude": -83.04871786,
    "latitude": 42.335962,
    "phone": "3139621529",
    "website_url": "http://www.detroitbeerco.com",
    "state": "Michigan",
    "street": "1529 Broadway St Ste 100"
  },
  {
    "id": "7ff0b266-a8d0-423a-a831-2df0fca90a5a",
    "name": "Deviant Wolfe Brewing",
    "brewery_type": "micro",
    "address_1": "121 W 1st St",
    "address_2": null,
    "address_3": null,
    "city": "Sanford",
    "state_province": "Florida",
    "postal_code": "32771-1201",
    "country": "United States",
    "longitude": null,
    "latitude": null,
    "phone": "4078786239",
    "website_url": "http://www.facebook.com/DeviantWolfeBrewing",
    "state": "Florida",
    "street": "121 W 1st St"
  },
  {
    "id": "2c39f664-b7ea-4886-9534-d2bb13bc775b",
    "name": "Deviate Brewing Co",
    "brewery_type": "micro",
    "address_1": "4004 W 96th St",
    "address_2": null,
    "address_3": null,
    "city": "Indianapolis",
    "state_province": "Indiana",
    "postal_code": "46268-2909",
    "country": "United States",
    "longitude": null,
    "latitude": null,
    "phone": null,
    "website_url": "http://www.deviatebrewing.com",
    "state": "Indiana",
    "street": "4004 W 96th St"
  },
  {
    "id": "d681717b-abd3-4c20-a9fb-18cbda1254ec",
    "name": "Device Brewing Company",
    "brewery_type": "micro",
    "address_1": "8166 14th Ave",
    "address_2": null,
    "address_3": null,
    "city": "Sacramento",
    "state_province": "California",
    "postal_code": "95826-4722",
    "country": "United States",
    "longitude": -121.4059371,
    "latitude": 38.53949252,
    "phone": "9167372739",
    "website_url": "http://www.devicebrewing.com",
    "state": "California",
    "street": "8166 14th Ave"
  },
  {
    "id": "bec65b87-eadc-4db1-b303-f0ee724f4988",
    "name": "Devil and the Deep",
    "brewery_type": "micro",
    "address_1": "2425 Postoffice St",
    "address_2": null,
    "address_3": null,
    "city": "Galveston",
    "state_province": "Texas",
    "postal_code": "77550-4629",
    "country": "United States",
    "longitude": null,
    "latitude": null,
    "phone": "7134028868",
    "website_url": "http://www.devilandthedeep.com",
    "state": "Texas",
    "street": "2425 Postoffice St"
  },
  {
    "id": "ce046f9c-50f8-433e-93a5-1fede0c47538",
    "name": "Devil Wind Brewing LLC",
    "brewery_type": "micro",
    "address_1": "130 S Detroit St",
    "address_2": null,
    "address_3": null,
    "city": "Xenia",
    "state_province": "Ohio",
    "postal_code": "45385",
    "country": "United States",
    "longitude": -83.92913685,
    "latitude": 39.68294798,
    "phone": "9376090002",
    "website_url": "http://www.devilwindbrewing.com",
    "state": "Ohio",
    "street": "130 S Detroit St"
  },
  {
    "id": "82b4a5a5-31a0-4e82-8f9d-1b8e6e4d39de",
    "name": "Devil's Canyon Brewing Company",
    "brewery_type": "micro",
    "address_1": "935 Washington St",
    "address_2": null,
    "address_3": null,
    "city": "San Carlos",
    "state_province": "California",
    "postal_code": "94070-5316",
    "country": "United States",
    "longitude": -122.2445413,
    "latitude": 37.49896576,
    "phone": "6505922739",
    "website_url": "http://www.DevilsCanyon.com",
    "state": "California",
    "street": "935 Washington St"
  },
  {
    "id": "f4a8753b-095c-470b-9336-f639441ba51c",
    "name": "Devil's Club Brewing",
    "brewery_type": "brewpub",
    "address_1": "100 N Franklin St",
    "address_2": null,
    "address_3": null,
    "city": "Juneau",
    "state_province": "Alaska",
    "postal_code": "99801-1223",
    "country": "United States",
    "longitude": -134.406956,
    "latitude": 58.301309,
    "phone": "9077232337",
    "website_url": "http://www.devilsclubbrewing.com",
    "state": "Alaska",
    "street": "100 N Franklin St"
  },
  {
    "id": "def7fa43-5b3d-46a1-98ca-a413882988e2",
    "name": "Devil's Creek Brewery",
    "brewery_type": "micro",
    "address_1": "1 Powell Ln",
    "address_2": null,
    "address_3": null,
    "city": "Collingswood",
    "state_province": "New Jersey",
    "postal_code": "08108-1945",
    "country": "United States",
    "longitude": -75.0712461,
    "latitude": 39.9169234,
    "phone": "8564252520",
    "website_url": "http://www.DevilsCreekBrewery.com",
    "state": "New Jersey",
    "street": "1 Powell Ln"
  },
  {
    "id": "58ff2d70-8794-4eac-ba96-2ec4c590539d",
    "name": "Devil's Kettle Brewing",
    "brewery_type": "micro",
    "address_1": "97 Columbus Rd",
    "address_2": null,
    "address_3": null,
    "city": "Athens",
    "state_province": "Ohio",
    "postal_code": "45701-1313",
    "country": "United States",
    "longitude": -82.09543176,
    "latitude": 39.34871425,
    "phone": "7405897187",
    "website_url": "http://www.devilskettlebrewing.com",
    "state": "Ohio",
    "street": "97 Columbus Rd"
  },
  {
    "id": "1da0090d-b471-4667-b4e5-e440f35ac023",
    "name": "Devil's Potion Brewing Company LLC",
    "brewery_type": "planning",
    "address_1": null,
    "address_2": null,
    "address_3": null,
    "city": "Escondido",
    "state_province": "California",
    "postal_code": "92026-3187",
    "country": "United States",
    "longitude": -117.0814849,
    "latitude": 33.1216751,
    "phone": "7605329091",
    "website_url": "http://www.devilspotion.com",
    "state": "California",
    "street": null
  },
  {
    "id": "31a96dc8-4986-42df-98d3-484a727f3ead",
    "name": "Devil's Purse Brewing Co",
    "brewery_type": "micro",
    "address_1": "120 Great Western Rd",
    "address_2": null,
    "address_3": null,
    "city": "South Dennis",
    "state_province": "Massachusetts",
    "postal_code": "02660-3715",
    "country": "United States",
    "longitude": -70.1416854,
    "latitude": 41.6885379,
    "phone": "5086947171",
    "website_url": "http://www.devilspurse.com",
    "state": "Massachusetts",
    "street": "120 Great Western Rd"
  },
  {
    "id": "b837ff0c-ea8e-40c2-885d-2a4bd4b04c3d",
    "name": "Devil's Trumpet Brewing Co",
    "brewery_type": "micro",
    "address_1": "8250 Utah St",
    "address_2": null,
    "address_3": null,
    "city": "Merrillville",
    "state_province": "Indiana",
    "postal_code": "46410-6578",
    "country": "United States",
    "longitude": null,
    "latitude": null,
    "phone": "2195767118",
    "website_url": "http://www.thedevilstrumpet.com",
    "state": "Indiana",
    "street": "8250 Utah St"
  },
  {
    "id": "74495b65-cdc1-4197-9f23-baaf2f7c02af",
    "name": "Devils Backbone Brewing Co - Basecamp",
    "brewery_type": "large",
    "address_1": "200 Mosbys Run",
    "address_2": null,
    "address_3": null,
    "city": "Roseland",
    "state_province": "Virginia",
    "postal_code": "22967-8551",
    "country": "United States",
    "longitude": null,
    "latitude": null,
    "phone": "4343611001",
    "website_url": "http://www.dbbrewingcompany.com",
    "state": "Virginia",
    "street": "200 Mosbys Run"
  },
  {
    "id": "ddc7e926-0165-4586-89bd-c42fbcbb9fe9",
    "name": "Devils Backbone Brewing Co - Outpost Production Facility",
    "brewery_type": "large",
    "address_1": "50 Northwind Ln",
    "address_2": null,
    "address_3": null,
    "city": "Lexington",
    "state_province": "Virginia",
    "postal_code": "24450-3303",
    "country": "United States",
    "longitude": null,
    "latitude": null,
    "phone": "4343611001",
    "website_url": "http://www.dbbrewingcompany.com",
    "state": "Virginia",
    "street": "50 Northwind Ln"
  },
  {
    "id": "82606c09-9315-47f5-9754-5149dc8a1205",
    "name": "Devour Brewing Co",
    "brewery_type": "micro",
    "address_1": "1500 SW 30th Ave Ste 4",
    "address_2": null,
    "address_3": null,
    "city": "Boynton Beach",
    "state_province": "Florida",
    "postal_code": "33426-9044",
    "country": "United States",
    "longitude": null,
    "latitude": null,
    "phone": "5618066011",
    "website_url": "http://www.devourbrewing.com",
    "state": "Florida",
    "street": "1500 SW 30th Ave Ste 4"
  },
  {
    "id": "b7f79d7b-c8c8-45de-bbe0-2764c8be72d2",
    "name": "Devout Brewing",
    "brewery_type": "planning",
    "address_1": null,
    "address_2": null,
    "address_3": null,
    "city": "Export",
    "state_province": "Pennsylvania",
    "postal_code": "15632",
    "country": "United States",
    "longitude": null,
    "latitude": null,
    "phone": null,
    "website_url": "http://www.devoutbrewingco.com",
    "state": "Pennsylvania",
    "street": null
  },
  {
    "id": "14f7353b-3b35-4e62-8a41-5d2a0b87ef59",
    "name": "Dew Point Brewing",
    "brewery_type": "brewpub",
    "address_1": "2878 Creek Rd",
    "address_2": null,
    "address_3": null,
    "city": "Yorklyn",
    "state_province": "Delaware",
    "postal_code": "19736-",
    "country": "United States",
    "longitude": -75.6729188,
    "latitude": 39.8100606,
    "phone": "3025183636",
    "website_url": "http://www.dewpointbrewing.com",
    "state": "Delaware",
    "street": "2878 Creek Rd"
  },
  {
    "id": "23bca581-dd99-43ea-9fe1-6ebf78c7a6ec",
    "name": "Dewey Beer Co.",
    "brewery_type": "brewpub",
    "address_1": "2100 Coastal Hwy",
    "address_2": null,
    "address_3": null,
    "city": "Dewey Beach",
    "state_province": "Delaware",
    "postal_code": "19971-2317",
    "country": "United States",
    "longitude": -75.07497503,
    "latitude": 38.6961465,
    "phone": "3022271182",
    "website_url": "http://www.deweybeerco.com",
    "state": "Delaware",
    "street": "2100 Coastal Hwy"
  },
  {
    "id": "74ded0c0-4d57-423b-943c-166cb125402c",
    "name": "Dialectic Brewing Company",
    "brewery_type": "micro",
    "address_1": "416 W Main St",
    "address_2": null,
    "address_3": null,
    "city": "Mandan",
    "state_province": "North Dakota",
    "postal_code": "58554-3145",
    "country": "United States",
    "longitude": -100.8950937,
    "latitude": 46.82578828,
    "phone": "7013181328",
    "website_url": "http://www.dialecticbrewingcompany.com",
    "state": "North Dakota",
    "street": "416 W Main St"
  },
  {
    "id": "483666c9-df7b-48b6-a09e-9dc2c39ddd22",
    "name": "Dialogue Brewing",
    "brewery_type": "micro",
    "address_1": "1501 1st St NW",
    "address_2": null,
    "address_3": null,
    "city": "Albuquerque",
    "state_province": "New Mexico",
    "postal_code": "87102-1535",
    "country": "United States",
    "longitude": -106.6456104,
    "latitude": 35.0976942,
    "phone": "5055851501",
    "website_url": "http://www.dialoguebrewing.com",
    "state": "New Mexico",
    "street": "1501 1st St NW"
  },
  {
    "id": "83e2f163-0cbf-4473-8edd-48456837a603",
    "name": "Diamond Bear Brewing Co",
    "brewery_type": "micro",
    "address_1": "600 N Broadway St",
    "address_2": null,
    "address_3": null,
    "city": "North Little Rock",
    "state_province": "Arkansas",
    "postal_code": "72114-5381",
    "country": "United States",
    "longitude": -92.27268921,
    "latitude": 34.75942775,
    "phone": "5017082739",
    "website_url": "http://www.diamondbear.com",
    "state": "Arkansas",
    "street": "600 N Broadway St"
  },
  {
    "id": "812c75c6-5a52-4b6a-84b8-384f8745fd3e",
    "name": "Diamond Knot Brewery B2 Brewery & Taproom",
    "brewery_type": "micro",
    "address_1": "4602 Chennault Beach Rd Ste B2",
    "address_2": null,
    "address_3": null,
    "city": "Mukilteo",
    "state_province": "Washington",
    "postal_code": "98275-5016",
    "country": "United States",
    "longitude": -122.2955193,
    "latitude": 47.89611026,
    "phone": "4253554488",
    "website_url": "http://www.diamondknot.com",
    "state": "Washington",
    "street": "4602 Chennault Beach Rd Ste B2"
  },
  {
    "id": "41fbdb32-a0ba-4893-a16f-442598b23832",
    "name": "Diamond Knot Craft Brewery - Brewpub @ MLT",
    "brewery_type": "brewpub",
    "address_1": "5602 232rd St SW",
    "address_2": null,
    "address_3": null,
    "city": "Mountlake Terrace",
    "state_province": "Washington",
    "postal_code": "98043",
    "country": "United States",
    "longitude": -122.3095359,
    "latitude": 47.78800503,
    "phone": "4253554488",
    "website_url": "http://www.diamondknot.com",
    "state": "Washington",
    "street": "5602 232rd St SW"
  },
  {
    "id": "308265eb-0865-41bc-ae74-b8b494521be9",
    "name": "Diamond Knot Craft Brewing - Brewery & Alehouse",
    "brewery_type": "brewpub",
    "address_1": "621 Front St",
    "address_2": null,
    "address_3": null,
    "city": "Mukilteo",
    "state_province": "Washington",
    "postal_code": "98275-1557",
    "country": "United States",
    "longitude": -122.3047075,
    "latitude": 47.9484603,
    "phone": "4253554488",
    "website_url": "http://www.diamondknot.com",
    "state": "Washington",
    "street": "621 Front St"
  },
  {
    "id": "56159d4d-8d37-41c1-a6d3-5193a66a15e9",
    "name": "Diamond Mountain Brewery",
    "brewery_type": "brewpub",
    "address_1": "900 Skyline Dr",
    "address_2": null,
    "address_3": null,
    "city": "Susanville",
    "state_province": "California",
    "postal_code": "96130-6071",
    "country": "United States",
    "longitude": -120.6575072,
    "latitude": 40.43092351,
    "phone": "5302521369",
    "website_url": "http://www.diamondmountainbrewery.com",
    "state": "California",
    "street": "900 Skyline Dr"
  },
  {
    "id": "8ed61459-cc2b-41c2-925a-a6c622e65d49",
    "name": "Dicks Brewing Co",
    "brewery_type": "micro",
    "address_1": "3516 Galvin Rd",
    "address_2": null,
    "address_3": null,
    "city": "Centralia",
    "state_province": "Washington",
    "postal_code": "98531-9002",
    "country": "United States",
    "longitude": -122.9999693,
    "latitude": 46.73549248,
    "phone": "3607367760",
    "website_url": "http://www.dicksbeer.com",
    "state": "Washington",
    "street": "3516 Galvin Rd"
  },
  {
    "id": "16fb2c6e-c7e1-4d46-b9d0-1c86816eb129",
    "name": "Die Bierbotschaft",
    "brewery_type": "brewpub",
    "address_1": "Ponigler Str. 52",
    "address_2": null,
    "address_3": null,
    "city": "Wundschuh",
    "state_province": "Steiermark",
    "postal_code": "8142",
    "country": "Austria",
    "longitude": 15.45518681346,
    "latitude": 46.912915905258,
    "phone": "+436763530560",
    "website_url": "https://www.bierbotschaft.at",
    "state": "Steiermark",
    "street": "Ponigler Str. 52"
  },
  {
    "id": "6f89022e-0f54-4054-b37f-919c1ed4218c",
    "name": "Diebolt Brewing",
    "brewery_type": "micro",
    "address_1": "3855 Mariposa St",
    "address_2": null,
    "address_3": null,
    "city": "Denver",
    "state_province": "Colorado",
    "postal_code": "80211-2647",
    "country": "United States",
    "longitude": -105.0032079,
    "latitude": 39.770332,
    "phone": "7206435940",
    "website_url": "http://www.dieboltbrewing.com",
    "state": "Colorado",
    "street": "3855 Mariposa St"
  },
  {
    "id": "dac4379b-8ecd-4a9c-ba7f-8042580c72fc",
    "name": "Dillinger Brewing Company",
    "brewery_type": "micro",
    "address_1": "3895 N Oracle Rd",
    "address_2": null,
    "address_3": null,
    "city": "Tucson",
    "state_province": "Arizona",
    "postal_code": "85705-3228",
    "country": "United States",
    "longitude": -110.9785303,
    "latitude": 32.2997436,
    "phone": "5202072312",
    "website_url": "http://www.dillingerbrewing.com",
    "state": "Arizona",
    "street": "3895 N Oracle Rd"
  },
  {
    "id": "d40976bd-2a96-41ed-81b1-3b6c3eab2843",
    "name": "Dillon Dam Brewery",
    "brewery_type": "brewpub",
    "address_1": "100 Little Dam Street",
    "address_2": null,
    "address_3": null,
    "city": "Dillon",
    "state_province": "Colorado",
    "postal_code": "80435-4845",
    "country": "United States",
    "longitude": -106.0603129,
    "latitude": 39.62760465,
    "phone": "9702627777",
    "website_url": "http://www.dambrewery.com",
    "state": "Colorado",
    "street": "100 Little Dam Street"
  },
  {
    "id": "0bcb0b7a-5328-4186-9264-1a068316de22",
    "name": "Dimensional Brewing Co.",
    "brewery_type": "micro",
    "address_1": "67 Main St",
    "address_2": null,
    "address_3": null,
    "city": "Dubuque",
    "state_province": "Iowa",
    "postal_code": "52001-7627",
    "country": "United States",
    "longitude": -90.664108,
    "latitude": 42.494438,
    "phone": null,
    "website_url": "http://www.dimensionalbrewing.com",
    "state": "Iowa",
    "street": "67 Main St"
  },
  {
    "id": "fd4412ec-311a-4e87-8b55-10dca2b00b94",
    "name": "Dimes Brewhouse",
    "brewery_type": "micro",
    "address_1": "145 N Bridge St",
    "address_2": null,
    "address_3": null,
    "city": "Dimondale",
    "state_province": "Michigan",
    "postal_code": "48821-9201",
    "country": "United States",
    "longitude": -84.6483014,
    "latitude": 42.64660055,
    "phone": "5173032067",
    "website_url": "http://www.dimesbrewhouse.com",
    "state": "Michigan",
    "street": "145 N Bridge St"
  },
  {
    "id": "d9640321-8cf9-41bd-aeb8-9a2163e23f42",
    "name": "Dingo Dog Brewing Co",
    "brewery_type": "micro",
    "address_1": null,
    "address_2": null,
    "address_3": null,
    "city": "Carrboro",
    "state_province": "North Carolina",
    "postal_code": "27510",
    "country": "United States",
    "longitude": null,
    "latitude": null,
    "phone": "9198859793",
    "website_url": "http://www.dingodogbrewing.com",
    "state": "North Carolina",
    "street": null
  },
  {
    "id": "31050850-d1fd-433f-98a2-b19bf07a29f1",
    "name": "Dionysus Brewing Co.",
    "brewery_type": "micro",
    "address_1": "6201 Schirra Ct Ste 13",
    "address_2": null,
    "address_3": null,
    "city": "Bakersfield",
    "state_province": "California",
    "postal_code": "93313-2119",
    "country": "United States",
    "longitude": -119.0716427,
    "latitude": 35.31614762,
    "phone": "6618336000",
    "website_url": "http://www.dionysusbrewing.com",
    "state": "California",
    "street": "6201 Schirra Ct Ste 13"
  },
  {
    "id": "3cf021a2-dc21-469c-a56d-2bd377e3a1eb",
    "name": "Dirigo Brewing Co.",
    "brewery_type": "micro",
    "address_1": "28 Pearl St",
    "address_2": null,
    "address_3": null,
    "city": "Biddeford",
    "state_province": "Maine",
    "postal_code": "04005-2040",
    "country": "United States",
    "longitude": -70.45608584,
    "latitude": 43.49545704,
    "phone": "2078385321",
    "website_url": "http://www.dirigobrewingcompany.com",
    "state": "Maine",
    "street": "28 Pearl St"
  },
  {
    "id": "7f16cd0c-2a66-4b93-9c1f-c3d6386c2550",
    "name": "Dirt Farm Brewing",
    "brewery_type": "brewpub",
    "address_1": "18701 Foggy Bottom Rd",
    "address_2": null,
    "address_3": null,
    "city": "Bluemont",
    "state_province": "Virginia",
    "postal_code": "20135-1858",
    "country": "United States",
    "longitude": null,
    "latitude": null,
    "phone": "5405542337",
    "website_url": "http://www.dirtfarmbrewing.com",
    "state": "Virginia",
    "street": "18701 Foggy Bottom Rd"
  },
  {
    "id": "b5449cda-10d5-4356-a60e-aca42e338b18",
    "name": "Dirt Road Brewing",
    "brewery_type": "planning",
    "address_1": "1301 Main St",
    "address_2": null,
    "address_3": null,
    "city": "Philomath",
    "state_province": "Oregon",
    "postal_code": "97370",
    "country": "United States",
    "longitude": -123.3677101,
    "latitude": 44.54045973,
    "phone": "5419297818",
    "website_url": "http://dirtroadbrewing.com",
    "state": "Oregon",
    "street": "1301 Main St"
  },
  {
    "id": "48ff4878-7666-422c-8ba0-6107382ff258",
    "name": "Dirtbag Ales Brewery and Taproom",
    "brewery_type": "micro",
    "address_1": "5435 Corporation Dr",
    "address_2": null,
    "address_3": null,
    "city": "Hope Mills",
    "state_province": "North Carolina",
    "postal_code": "28348-8413",
    "country": "United States",
    "longitude": -78.92209697,
    "latitude": 34.99397526,
    "phone": "9104262537",
    "website_url": "http://www.dirtbagales.com",
    "state": "North Carolina",
    "street": "5435 Corporation Dr"
  },
  {
    "id": "57143be8-1253-4486-a45e-f725021068a5",
    "name": "Dirty Bucket Brewery",
    "brewery_type": "closed",
    "address_1": "19151 144th Ave NE",
    "address_2": null,
    "address_3": null,
    "city": "Woodinville",
    "state_province": "Washington",
    "postal_code": "98072-4374",
    "country": "United States",
    "longitude": -122.1484843,
    "latitude": 47.7661918,
    "phone": "2068191570",
    "website_url": "http://www.dirtybucketbrewery.com",
    "state": "Washington",
    "street": "19151 144th Ave NE"
  },
  {
    "id": "8a5a869c-247b-4c5a-bb78-c092abed8440",
    "name": "Dirty Couch Brewing",
    "brewery_type": "micro",
    "address_1": "2715 W Fort St",
    "address_2": null,
    "address_3": null,
    "city": "Seattle",
    "state_province": "Washington",
    "postal_code": "98199-1224",
    "country": "United States",
    "longitude": -122.392155,
    "latitude": 47.66192056,
    "phone": "2063959414",
    "website_url": "http://www.dirtycouchbrewing.com",
    "state": "Washington",
    "street": "2715 W Fort St"
  }
]