[
  {
    "id": "3463ed54-79e2-46ff-8626-acdd29dc08ba",
    "name": "Short's Brewing Co - Production Facility",
    "brewery_type": "regional",
    "address_1": "211 Industrial Park Dr",
    "address_2": null,
    "address_3": null,
    "city": "Elk Rapids",
    "state_province": "Michigan",
    "postal_code": "49629-9452",
    "country": "United States",
    "longitude": null,
    "latitude": null,
    "phone": "2314982300",
    "website_url": "http://www.shortsbrewing.com",
    "state": "Michigan",
    "street": "211 Industrial Park Dr"
  },
  {
    "id": "ae444b8a-16f8-425f-a4ca-f3d518667f02",
    "name": "Shortway Brewing Company",
    "brewery_type": "micro",
    "address_1": "230 Chatham Street",
    "address_2": null,
    "address_3": null,
    "city": "Newport",
    "state_province": "North Carolina",
    "postal_code": "28570",
    "country": "United States",
    "longitude": -76.85945669,
    "latitude": 34.78998841,
    "phone": "2527773065",
    "website_url": "http://www.shortwaybrewing.com",
    "state": "North Carolina",
    "street": "230 Chatham Street"
  },
  {
    "id": "e878354b-798d-4fbc-8626-0c65e0d97420",
    "name": "Shoug Brewing Company",
    "brewery_type": "micro",
    "address_1": "1311 SE Cliffside Dr",
    "address_2": null,
    "address_3": null,
    "city": "Washougal",
    "state_province": "Washington",
    "postal_code": "98671-8750",
    "country": "United States",
    "longitude": null,
    "latitude": null,
    "phone": "3604870172",
    "website_url": "http://www.shougbrewing.com",
    "state": "Washington",
    "street": "1311 SE Cliffside Dr"
  },
  {
    "id": "721d8224-c432-47ec-a706-3a888cdb72f2",
    "name": "Shovel Town Brewery, Inc.",
    "brewery_type": "brewpub",
    "address_1": "50 Oliver St Rear",
    "address_2": null,
    "address_3": null,
    "city": "North Easton",
    "state_province": "Massachusetts",
    "postal_code": "02356-1446",
    "country": "United States",
    "longitude": null,
    "latitude": null,
    "phone": "5082057151",
    "website_url": null,
    "state": "Massachusetts",
    "street": "50 Oliver St Rear"
  },
  {
    "id": "3e966de2-0bdc-4557-a316-47659974b7ba",
    "name": "Shrewd Fox Brewery",
    "brewery_type": "micro",
    "address_1": "552 NY State Highway 55",
    "address_2": null,
    "address_3": null,
    "city": "Eldred",
    "state_province": "New York",
    "postal_code": "12732",
    "country": "United States",
    "longitude": null,
    "latitude": null,
    "phone": "8455578255",
    "website_url": "http://www.shrewdfoxbrewery.com",
    "state": "New York",
    "street": "552 NY State Highway 55"
  },
  {
    "id": "feccbd60-d24e-4536-b0f3-5bcd5ea65d0e",
    "name": "Shrub Steppe Smokehouse Brewery",
    "brewery_type": "brewpub",
    "address_1": "2000 Logston Blvd Ste 122",
    "address_2": null,
    "address_3": null,
    "city": "Richland",
    "state_province": "Washington",
    "postal_code": "99354-5329",
    "country": "United States",
    "longitude": -119.2999357,
    "latitude": 46.3204119,
    "phone": "5093759092",
    "website_url": "http://www.shrubsteppebrewing.com",
    "state": "Washington",
    "street": "2000 Logston Blvd Ste 122"
  },
  {
    "id": "b65fa2d0-3279-4bfb-a33a-e494e263f874",
    "name": "ShuBrew, LLC",
    "brewery_type": "brewpub",
    "address_1": "210 S Main St",
    "address_2": null,
    "address_3": null,
    "city": "Zelienople",
    "state_province": "Pennsylvania",
    "postal_code": "16063-1150",
    "country": "United States",
    "longitude": -80.13635892,
    "latitude": 40.79285063,
    "phone": "7247664426",
    "website_url": null,
    "state": "Pennsylvania",
    "street": "210 S Main St"
  },
  {
    "id": "81a899a9-a677-4cd5-9fd8-e7ea45b298fa",
    "name": "Shy Bear Brewing",
    "brewery_type": "brewpub",
    "address_1": "35 Meadowbrook Ln",
    "address_2": null,
    "address_3": null,
    "city": "Lewistown",
    "state_province": "Pennsylvania",
    "postal_code": "17044-2802",
    "country": "United States",
    "longitude": null,
    "latitude": null,
    "phone": "7174471701",
    "website_url": "http://www.shybearbrewing.com",
    "state": "Pennsylvania",
    "street": "35 Meadowbrook Ln"
  },
  {
    "id": "b7114432-0efb-4b42-a3f2-40c7035b4215",
    "name": "Sibling Revelry Brewing",
    "brewery_type": "micro",
    "address_1": "29305 Clemens Rd",
    "address_2": null,
    "address_3": null,
    "city": "Westlake",
    "state_province": "Ohio",
    "postal_code": "44145-1008",
    "country": "United States",
    "longitude": -81.94620111,
    "latitude": 41.47040238,
    "phone": "4404718589",
    "website_url": "http://www.siblingrevelrybrewing.com",
    "state": "Ohio",
    "street": "29305 Clemens Rd"
  },
  {
    "id": "c3851fdf-bb12-4d54-98a0-c7beed22a423",
    "name": "Sick N Twisted Brewing Co",
    "brewery_type": "brewpub",
    "address_1": "692 Main St",
    "address_2": null,
    "address_3": null,
    "city": "Deadwood",
    "state_province": "South Dakota",
    "postal_code": "57732-1124",
    "country": "United States",
    "longitude": -103.7310822,
    "latitude": 44.37732531,
    "phone": "6057176831",
    "website_url": "http://www.sickntwistedbrewery.com",
    "state": "South Dakota",
    "street": "692 Main St"
  },
  {
    "id": "2e46ffca-3a8c-4bca-86ac-ecc74131e20e",
    "name": "Sick N Twisted Brewing Co",
    "brewery_type": "brewpub",
    "address_1": "23851 Highway 385 Ste A",
    "address_2": null,
    "address_3": null,
    "city": "Hill City",
    "state_province": "South Dakota",
    "postal_code": "57745-6544",
    "country": "United States",
    "longitude": -103.5272662,
    "latitude": 43.94601735,
    "phone": "6055749200",
    "website_url": "http://www.sickntwistedbrewery.com",
    "state": "South Dakota",
    "street": "23851 Highway 385 Ste A"
  },
  {
    "id": "99526c72-24a9-4027-bad0-a1e42218b60a",
    "name": "Side By Each Brewing Co",
    "brewery_type": "planning",
    "address_1": null,
    "address_2": null,
    "address_3": null,
    "city": "Auburn",
    "state_province": "Maine",
    "postal_code": "04210-3739",
    "country": "United States",
    "longitude": null,
    "latitude": null,
    "phone": "2073479920",
    "website_url": null,
    "state": "Maine",
    "street": null
  },
  {
    "id": "a2fedbfd-b74d-4d8b-9292-23f087b2ffae",
    "name": "Side Door Brewing Company",
    "brewery_type": "micro",
    "address_1": "1419 SE Village Green Dr",
    "address_2": null,
    "address_3": null,
    "city": "Port Saint Lucie",
    "state_province": "Florida",
    "postal_code": "34952-3454",
    "country": "United States",
    "longitude": -80.3079342,
    "latitude": 27.30575664,
    "phone": "7726319068",
    "website_url": "http://www.sidedoorbrewery.com",
    "state": "Florida",
    "street": "1419 SE Village Green Dr"
  },
  {
    "id": "60010f13-de44-4ff3-8f16-9b1feac5a9b8",
    "name": "Side Lot Brewery",
    "brewery_type": "micro",
    "address_1": "110 Slocum Lake Rd",
    "address_2": null,
    "address_3": null,
    "city": "Wauconda",
    "state_province": "Illinois",
    "postal_code": "60084-1883",
    "country": "United States",
    "longitude": -88.14526776,
    "latitude": 42.26078912,
    "phone": "8478650281",
    "website_url": "http://www.sidelotbrewing.com",
    "state": "Illinois",
    "street": "110 Slocum Lake Rd"
  },
  {
    "id": "c3b74785-b1d3-4e76-9037-7512e99970eb",
    "name": "Side Project Brewing",
    "brewery_type": "micro",
    "address_1": "7458 Manchester Rd",
    "address_2": null,
    "address_3": null,
    "city": "Maplewood",
    "state_province": "Missouri",
    "postal_code": "63143-3032",
    "country": "United States",
    "longitude": -90.32221146,
    "latitude": 38.61223484,
    "phone": "3142245211",
    "website_url": "http://www.SideProjectBrewing.com",
    "state": "Missouri",
    "street": "7458 Manchester Rd"
  },
  {
    "id": "d7e866fd-2ffb-48d2-9bea-50223c73be5e",
    "name": "Sidellis Lake Tahoe",
    "brewery_type": "brewpub",
    "address_1": "3350 Sandy Way",
    "address_2": null,
    "address_3": null,
    "city": "South Lake Tahoe",
    "state_province": "California",
    "postal_code": "96150",
    "country": "United States",
    "longitude": -119.9698679,
    "latitude": 38.94472795,
    "phone": "5306003999",
    "website_url": null,
    "state": "California",
    "street": "3350 Sandy Way"
  },
  {
    "id": "55cb0b84-5e32-4a93-85d0-8cc26c00e12e",
    "name": "Sideswipe Brewing",
    "brewery_type": "micro",
    "address_1": "2419 Scioto Harper Dr",
    "address_2": null,
    "address_3": null,
    "city": "Columbus",
    "state_province": "Ohio",
    "postal_code": "43204-3420",
    "country": "United States",
    "longitude": -83.06626767,
    "latitude": 39.96723751,
    "phone": "6147199654",
    "website_url": "http://www.sideswipebrewing.com",
    "state": "Ohio",
    "street": "2419 Scioto Harper Dr"
  },
  {
    "id": "94b87f1d-ae3f-4d3c-a147-75edaa4e5fb7",
    "name": "Sidetrack Brewing Company",
    "brewery_type": "micro",
    "address_1": "413 2nd St SW",
    "address_2": null,
    "address_3": null,
    "city": "Albuquerque",
    "state_province": "New Mexico",
    "postal_code": "87102-3307",
    "country": "United States",
    "longitude": -106.6500567,
    "latitude": 35.0807893,
    "phone": "5052886468",
    "website_url": "http://www.sidetrackbrewing.net",
    "state": "New Mexico",
    "street": "413 2nd St SW"
  },
  {
    "id": "1b39d4f8-f285-4bbf-a52c-429a2ba39856",
    "name": "Sierra Blanca Brewing Co",
    "brewery_type": "micro",
    "address_1": "1016 Industrial Rd",
    "address_2": null,
    "address_3": null,
    "city": "Moriarty",
    "state_province": "New Mexico",
    "postal_code": "87035-3567",
    "country": "United States",
    "longitude": null,
    "latitude": null,
    "phone": "5058322337",
    "website_url": "http://www.sierrablancabrewery.com",
    "state": "New Mexico",
    "street": "1016 Industrial Rd"
  },
  {
    "id": "91799fbb-6b2d-449b-a0aa-0ac579692489",
    "name": "Sierra Nevada Brewing Co",
    "brewery_type": "regional",
    "address_1": "100 Sierra Nevada Way",
    "address_2": null,
    "address_3": null,
    "city": "Mills River",
    "state_province": "North Carolina",
    "postal_code": "28732-8608",
    "country": "United States",
    "longitude": null,
    "latitude": null,
    "phone": null,
    "website_url": "http://www.sierranevada.com",
    "state": "North Carolina",
    "street": "100 Sierra Nevada Way"
  },
  {
    "id": "70e66be3-fd92-4db0-86f3-0f05807cc4e2",
    "name": "Sierra Nevada Brewing Co",
    "brewery_type": "regional",
    "address_1": "1075 E 20th St",
    "address_2": null,
    "address_3": null,
    "city": "Chico",
    "state_province": "California",
    "postal_code": "95928-6722",
    "country": "United States",
    "longitude": -121.8098801,
    "latitude": 39.7257632,
    "phone": "5308933520",
    "website_url": "http://www.sierranevada.com",
    "state": "California",
    "street": "1075 E 20th St"
  },
  {
    "id": "16e277b2-1959-4768-a14d-561ee4448aac",
    "name": "Sig Brewing Co.",
    "brewery_type": "micro",
    "address_1": "2534 Tacoma ave S.",
    "address_2": null,
    "address_3": null,
    "city": "Tacoma",
    "state_province": "Washington",
    "postal_code": "98402-",
    "country": "United States",
    "longitude": -122.441312,
    "latitude": 47.237072,
    "phone": "2535036446",
    "website_url": "https://www.sigbrewingco.com/",
    "state": "Washington",
    "street": "2534 Tacoma ave S."
  },
  {
    "id": "b9ea4135-429b-4928-8cae-680dd9d6ad17",
    "name": "Sigma Brewing Company",
    "brewery_type": "micro",
    "address_1": "3118 Harrisburg Blvd # 108",
    "address_2": null,
    "address_3": null,
    "city": "Houston",
    "state_province": "Texas",
    "postal_code": "77003-2334",
    "country": "United States",
    "longitude": -95.3435901,
    "latitude": 29.7489938,
    "phone": "3463523190",
    "website_url": "http://www.sigmabrewingcompany.com",
    "state": "Texas",
    "street": "3118 Harrisburg Blvd # 108"
  },
  {
    "id": "df710d4d-63ff-4fec-82e6-42b9d2f0f107",
    "name": "Sigma Ingredients LLC",
    "brewery_type": "planning",
    "address_1": null,
    "address_2": null,
    "address_3": null,
    "city": "Salisbury",
    "state_province": "Maryland",
    "postal_code": "21801-6739",
    "country": "United States",
    "longitude": null,
    "latitude": null,
    "phone": "4104308903",
    "website_url": "http://www.sigmaingredients.com",
    "state": "Maryland",
    "street": null
  },
  {
    "id": "3e96e2f2-46b2-4a7a-860e-b7fa52a8dc0e",
    "name": "Silo's",
    "brewery_type": "brewpub",
    "address_1": "530 Main St",
    "address_2": null,
    "address_3": null,
    "city": "Napa",
    "state_province": "California",
    "postal_code": "94559-3378",
    "country": "United States",
    "longitude": -122.2828832,
    "latitude": 38.29617,
    "phone": "7072515833",
    "website_url": "http://www.silosnapa.com",
    "state": "California",
    "street": "530 Main St"
  },
  {
    "id": "d33c7492-1fc8-4ad6-b832-2d8b674ce585",
    "name": "Siluria Brewing Company",
    "brewery_type": "planning",
    "address_1": null,
    "address_2": null,
    "address_3": null,
    "city": "Alabaster",
    "state_province": "Alabama",
    "postal_code": "35007-8501",
    "country": "United States",
    "longitude": -86.8163773,
    "latitude": 33.2442813,
    "phone": "2054827661",
    "website_url": "http://www.siluriabrewing.com",
    "state": "Alabama",
    "street": null
  },
  {
    "id": "a43bae26-417f-4b3c-a1b5-1c08c74c4297",
    "name": "Silva Brewing",
    "brewery_type": "micro",
    "address_1": "525 Pine St Ste B",
    "address_2": null,
    "address_3": null,
    "city": "Paso Robles",
    "state_province": "California",
    "postal_code": "93446-3185",
    "country": "United States",
    "longitude": -120.6886398,
    "latitude": 35.62031385,
    "phone": "8053692337",
    "website_url": "http://www.silvabrewing.com",
    "state": "California",
    "street": "525 Pine St Ste B"
  },
  {
    "id": "0c576a06-35fd-4e9e-addc-8e4847f46d85",
    "name": "Silver Branch Brewing Company",
    "brewery_type": "planning",
    "address_1": null,
    "address_2": null,
    "address_3": null,
    "city": "Silver Spring",
    "state_province": "Maryland",
    "postal_code": "20910-3487",
    "country": "United States",
    "longitude": null,
    "latitude": null,
    "phone": "2028418646",
    "website_url": "http://www.silverbranchbrewing.com",
    "state": "Maryland",
    "street": null
  },
  {
    "id": "0ce428f9-4c60-4536-9423-96a0017813d7",
    "name": "Silver City Brewery",
    "brewery_type": "regional",
    "address_1": "206 Katy Penman Ave",
    "address_2": null,
    "address_3": null,
    "city": "Bremerton",
    "state_province": "Washington",
    "postal_code": "98312-4301",
    "country": "United States",
    "longitude": -122.6780101,
    "latitude": 47.56156065,
    "phone": "3608131487",
    "website_url": "http://www.silvercitybrewery.com",
    "state": "Washington",
    "street": "206 Katy Penman Ave"
  },
  {
    "id": "471a6b86-befa-4d68-84fd-d8a2e2246112",
    "name": "Silver Creek Brewing Co",
    "brewery_type": "micro",
    "address_1": "N57 W6172 Portland Rd",
    "address_2": null,
    "address_3": null,
    "city": "Cedarburg",
    "state_province": "Wisconsin",
    "postal_code": "53012",
    "country": "United States",
    "longitude": null,
    "latitude": null,
    "phone": "2623754444",
    "website_url": "http://www.silvercreekbrewing.com",
    "state": "Wisconsin",
    "street": "N57 W6172 Portland Rd"
  },
  {
    "id": "a1378c73-b0f9-4c1e-9217-ebca40c995b5",
    "name": "Silver Falls Brewery",
    "brewery_type": "micro",
    "address_1": "207 Jersey St",
    "address_2": null,
    "address_3": null,
    "city": "Silverton",
    "state_province": "Oregon",
    "postal_code": "97381",
    "country": "United States",
    "longitude": -122.7821402,
    "latitude": 45.00421984,
    "phone": "5038733022",
    "website_url": "http://www.silverfallsbrewery.com",
    "state": "Oregon",
    "street": "207 Jersey St"
  },
  {
    "id": "fac0abcb-db02-4ec6-845d-457caab0f3ab",
    "name": "Silver Gulch Brewing Co",
    "brewery_type": "micro",
    "address_1": "2195 Old Steese Highway",
    "address_2": null,
    "address_3": null,
    "city": "Fox",
    "state_province": "Alaska",
    "postal_code": "99712",
    "country": "United States",
    "longitude": -147.6219761,
    "latitude": 64.95708588,
    "phone": "9074522739",
    "website_url": "http://www.silvergulch.com",
    "state": "Alaska",
    "street": "2195 Old Steese Highway"
  },
  {
    "id": "74f8802c-da96-40d7-8e37-3fd4dd2cb381",
    "name": "Silver Harbor Brewing Company",
    "brewery_type": "brewpub",
    "address_1": "721 Pleasant St",
    "address_2": null,
    "address_3": null,
    "city": "Saint Joseph",
    "state_province": "Michigan",
    "postal_code": "49085-1241",
    "country": "United States",
    "longitude": -86.48027459,
    "latitude": 42.10893033,
    "phone": "2692817100",
    "website_url": "http://silverharborbrewing.com",
    "state": "Michigan",
    "street": "721 Pleasant St"
  },
  {
    "id": "311fdbf4-9ca3-4c23-8a18-b7ebd9348a5c",
    "name": "Silver Lake Brewing Project",
    "brewery_type": "micro",
    "address_1": "14 Borden Ave",
    "address_2": null,
    "address_3": null,
    "city": "Perry",
    "state_province": "New York",
    "postal_code": "14530",
    "country": "United States",
    "longitude": -78.00159923,
    "latitude": 42.71795128,
    "phone": "5859694238",
    "website_url": "http://silverlakebrewingproject.com",
    "state": "New York",
    "street": "14 Borden Ave"
  },
  {
    "id": "d8e15e0d-fcd6-49da-9f88-293ea86239b9",
    "name": "Silver Moon Brewing",
    "brewery_type": "micro",
    "address_1": "24 NW Greenwood Ave",
    "address_2": null,
    "address_3": null,
    "city": "Bend",
    "state_province": "Oregon",
    "postal_code": "97703-2027",
    "country": "United States",
    "longitude": -121.3079151,
    "latitude": 44.0603904,
    "phone": "5413888331",
    "website_url": null,
    "state": "Oregon",
    "street": "24 NW Greenwood Ave"
  },
  {
    "id": "ae8d5788-472e-40f6-98ce-cecfd83e889c",
    "name": "Silver Moon Brewing",
    "brewery_type": "micro",
    "address_1": "2095 SW Badger Ave",
    "address_2": null,
    "address_3": null,
    "city": "Redmond",
    "state_province": "Oregon",
    "postal_code": "97756-8164",
    "country": "United States",
    "longitude": -121.192157,
    "latitude": 44.2375883,
    "phone": "5413888331",
    "website_url": "http://www.SilverMoonBrewing.com",
    "state": "Oregon",
    "street": "2095 SW Badger Ave"
  },
  {
    "id": "bd708ae6-ef19-4e4d-9eca-f232fbabfdd3",
    "name": "Silver Peak Restaurant and Brewery",
    "brewery_type": "brewpub",
    "address_1": "124 Wonder St",
    "address_2": null,
    "address_3": null,
    "city": "Reno",
    "state_province": "Nevada",
    "postal_code": "89502-2424",
    "country": "United States",
    "longitude": -119.8060433,
    "latitude": 39.51395749,
    "phone": "7753241864",
    "website_url": "http://www.silverpeakbrewery.com",
    "state": "Nevada",
    "street": "124 Wonder St"
  },
  {
    "id": "ae3391c5-bc85-47dc-a407-53803ebdb136",
    "name": "Silver Rocket Brewing Ltd",
    "brewery_type": "micro",
    "address_1": "Meadows",
    "address_2": null,
    "address_3": null,
    "city": "Hassocks",
    "state_province": "West Sussex",
    "postal_code": "BN6 8EH",
    "country": "England",
    "longitude": -0.143993,
    "latitude": 50.931319,
    "phone": "7950099424",
    "website_url": "https://silverrocketbrewing.co.uk/",
    "state": "West Sussex",
    "street": "Meadows"
  },
  {
    "id": "a5b1ff54-9d6d-4742-8141-f496a1fc2d1d",
    "name": "Silverking Brewing Company",
    "brewery_type": "micro",
    "address_1": "325 E Lemon St",
    "address_2": null,
    "address_3": null,
    "city": "Tarpon Springs",
    "state_province": "Florida",
    "postal_code": "34689-4309",
    "country": "United States",
    "longitude": -82.75325369,
    "latitude": 28.14509027,
    "phone": "7276472524",
    "website_url": "http://www.silverkingbrewing.com",
    "state": "Florida",
    "street": "325 E Lemon St"
  },
  {
    "id": "7217ca2a-393c-4b27-a87c-70c948d113c3",
    "name": "Simple Roots Brewing Co",
    "brewery_type": "micro",
    "address_1": "1127 North Ave Ste 8",
    "address_2": null,
    "address_3": null,
    "city": "Burlington",
    "state_province": "Vermont",
    "postal_code": "05408-2756",
    "country": "United States",
    "longitude": null,
    "latitude": null,
    "phone": null,
    "website_url": null,
    "state": "Vermont",
    "street": "1127 North Ave Ste 8"
  },
  {
    "id": "0a127250-075c-42ac-98a6-135535cd3fc6",
    "name": "Simplicity Brewing Company",
    "brewery_type": "micro",
    "address_1": "2473 Camden Rd",
    "address_2": null,
    "address_3": null,
    "city": "Warren",
    "state_province": "Maine",
    "postal_code": "04864-4113",
    "country": "United States",
    "longitude": -69.1881349,
    "latitude": 44.15177662,
    "phone": "2072730143",
    "website_url": "http://www.mkt.com/simplicitybrewingsupplies",
    "state": "Maine",
    "street": "2473 Camden Rd"
  },
  {
    "id": "c2b494b6-da3a-45fb-9895-25e6ef1d5009",
    "name": "Sin City Beer Co",
    "brewery_type": "contract",
    "address_1": "3663 Las Vegas Blvd S Ste 504 Miracle Mile Shops",
    "address_2": null,
    "address_3": null,
    "city": "Las Vegas",
    "state_province": "Nevada",
    "postal_code": "89109-1951",
    "country": "United States",
    "longitude": null,
    "latitude": null,
    "phone": "7028094939",
    "website_url": "http://www.sincitybeer.com",
    "state": "Nevada",
    "street": "3663 Las Vegas Blvd S Ste 504 Miracle Mile Shops"
  },
  {
    "id": "cbc44ed9-51da-4ba7-85dd-ed20f31a67c0",
    "name": "Sing Sing Kill Brewery",
    "brewery_type": "micro",
    "address_1": "75 Spring St",
    "address_2": null,
    "address_3": null,
    "city": "Ossining",
    "state_province": "New York",
    "postal_code": "10562-4706",
    "country": "United States",
    "longitude": -73.86373076,
    "latitude": 41.15860835,
    "phone": "9178812490",
    "website_url": "http://www.singsingkillbrewery.com",
    "state": "New York",
    "street": "75 Spring St"
  },
  {
    "id": "ce0ed90b-f28e-476c-b61d-9465ad1e3060",
    "name": "Singin' River Brewing Company, LLC",
    "brewery_type": "micro",
    "address_1": "526 E College St",
    "address_2": null,
    "address_3": null,
    "city": "Florence",
    "state_province": "Alabama",
    "postal_code": "35630-5764",
    "country": "United States",
    "longitude": -87.66892994,
    "latitude": 34.8016657,
    "phone": "2567600000",
    "website_url": "http://www.singinriverbrewing.com",
    "state": "Alabama",
    "street": "526 E College St"
  },
  {
    "id": "64887428-bf8c-4404-b55e-2e355b814ac0",
    "name": "Single Hill Brewing Company",
    "brewery_type": "micro",
    "address_1": "102 N Naches Ave",
    "address_2": null,
    "address_3": null,
    "city": "Yakima",
    "state_province": "Washington",
    "postal_code": "98901-2757",
    "country": "United States",
    "longitude": -120.5006688,
    "latitude": 46.6050643,
    "phone": "5033511197",
    "website_url": "http://www.singlehillbrewing.com",
    "state": "Washington",
    "street": "102 N Naches Ave"
  },
  {
    "id": "925d80b0-c611-445e-8799-262a9e0f9259",
    "name": "Single Speed Brewing Co",
    "brewery_type": "brewpub",
    "address_1": "325 Commercial St",
    "address_2": null,
    "address_3": null,
    "city": "Waterloo",
    "state_province": "Iowa",
    "postal_code": "50701",
    "country": "United States",
    "longitude": -92.34249686,
    "latitude": 42.49709571,
    "phone": "3198833604",
    "website_url": "http://www.singlespeedbrewing.com",
    "state": "Iowa",
    "street": "325 Commercial St"
  },
  {
    "id": "17d4939c-ac7c-4283-96e9-d1cae8d2ac1a",
    "name": "Single Speed Brewing Co Tap Room",
    "brewery_type": "brewpub",
    "address_1": "325 Commercial St",
    "address_2": null,
    "address_3": null,
    "city": "Waterloo",
    "state_province": "Iowa",
    "postal_code": "50701-1315",
    "country": "United States",
    "longitude": -92.34249686,
    "latitude": 42.49709571,
    "phone": "3198833604",
    "website_url": null,
    "state": "Iowa",
    "street": "325 Commercial St"
  },
  {
    "id": "2787c111-e272-4a74-bde5-21ea7ec9e8a1",
    "name": "Singlecut Beersmiths",
    "brewery_type": "micro",
    "address_1": "19-33 37th St",
    "address_2": null,
    "address_3": null,
    "city": "Astoria",
    "state_province": "New York",
    "postal_code": "11105-1118",
    "country": "United States",
    "longitude": null,
    "latitude": null,
    "phone": "7186060788",
    "website_url": "http://www.singlecutbeer.com",
    "state": "New York",
    "street": "19-33 37th St"
  },
  {
    "id": "0bec163f-c05c-4782-b15b-8d44b8d7087f",
    "name": "Sinistral Brewing Company",
    "brewery_type": "micro",
    "address_1": "9419 Main St",
    "address_2": null,
    "address_3": null,
    "city": "Manassas",
    "state_province": "Virginia",
    "postal_code": "20110",
    "country": "United States",
    "longitude": -77.471427,
    "latitude": 38.75099522,
    "phone": "7036864575",
    "website_url": "http://www.sinistralbrewingcompany.com",
    "state": "Virginia",
    "street": "9419 Main St"
  },
  {
    "id": "07a4bba9-7707-4a04-839c-e341490377a1",
    "name": "Siren Rock Brewing Company",
    "brewery_type": "planning",
    "address_1": null,
    "address_2": null,
    "address_3": null,
    "city": "Rockwall",
    "state_province": "Texas",
    "postal_code": "75087",
    "country": "United States",
    "longitude": null,
    "latitude": null,
    "phone": null,
    "website_url": null,
    "state": "Texas",
    "street": null
  }
]