[
  {
    "id": "ccd36d53-22ef-480e-b3b1-ccbca84f821c",
    "name": "The Vanguard Brewpub & Distillery",
    "brewery_type": "brewpub",
    "address_1": "504 N King St",
    "address_2": null,
    "address_3": null,
    "city": "Hampton",
    "state_province": "Virginia",
    "postal_code": "23669-3057",
    "country": "United States",
    "longitude": -76.34538304,
    "latitude": 37.03124955,
    "phone": "7576408100",
    "website_url": "http://www.thevanguard757.com",
    "state": "Virginia",
    "street": "504 N King St"
  },
  {
    "id": "81089fba-f8db-41bf-83d2-d219bcf92f33",
    "name": "The VB Brewery",
    "brewery_type": "micro",
    "address_1": "6606 State Route 96",
    "address_2": null,
    "address_3": null,
    "city": "Victor",
    "state_province": "New York",
    "postal_code": "14564-1409",
    "country": "United States",
    "longitude": null,
    "latitude": null,
    "phone": "5859028166",
    "website_url": "http://www.thevbbrewery.com",
    "state": "New York",
    "street": "6606 State Route 96"
  },
  {
    "id": "5c9bacd3-14c6-4852-aea5-378e2f5ea523",
    "name": "The Vegetable Hunter",
    "brewery_type": "brewpub",
    "address_1": "614 N 2nd St",
    "address_2": null,
    "address_3": null,
    "city": "Harrisburg",
    "state_province": "Pennsylvania",
    "postal_code": "17101-1001",
    "country": "United States",
    "longitude": -76.8881545,
    "latitude": 40.2638045,
    "phone": "7176956229",
    "website_url": "http://www.TheVegetableHunter.com",
    "state": "Pennsylvania",
    "street": "614 N 2nd St"
  },
  {
    "id": "d0eea2e9-77c1-4d78-82d6-3e3a07a928a8",
    "name": "The Veil Brewing Company",
    "brewery_type": "micro",
    "address_1": "1301 Roseneath Rd",
    "address_2": null,
    "address_3": null,
    "city": "Richmond",
    "state_province": "Virginia",
    "postal_code": "23230-4623",
    "country": "United States",
    "longitude": -77.4753435,
    "latitude": 37.56830695,
    "phone": null,
    "website_url": "http://www.theveilbrewing.com",
    "state": "Virginia",
    "street": "1301 Roseneath Rd"
  },
  {
    "id": "2a5bde61-4567-4617-9d72-a83063efef28",
    "name": "The Viking Braggot Company",
    "brewery_type": "micro",
    "address_1": "520 Commercial St Unit F",
    "address_2": null,
    "address_3": null,
    "city": "Eugene",
    "state_province": "Oregon",
    "postal_code": "97402-5347",
    "country": "United States",
    "longitude": -123.0910621,
    "latitude": 44.03170858,
    "phone": "5416538371",
    "website_url": "http://www.drinkviking.com",
    "state": "Oregon",
    "street": "520 Commercial St Unit F"
  },
  {
    "id": "f2e2ffbe-e126-494d-925a-6d79f87cadfc",
    "name": "The Village Corner",
    "brewery_type": "brewpub",
    "address_1": "6655 James B Rivers Dr",
    "address_2": null,
    "address_3": null,
    "city": "Stone Mountain",
    "state_province": "Georgia",
    "postal_code": "30083-2232",
    "country": "United States",
    "longitude": null,
    "latitude": null,
    "phone": "7704980329",
    "website_url": "http://www.germanresturant.com",
    "state": "Georgia",
    "street": "6655 James B Rivers Dr"
  },
  {
    "id": "c1c83b65-fc4f-46ee-9570-819d7313ddd8",
    "name": "The Vine Brewery",
    "brewery_type": "brewpub",
    "address_1": "High Street",
    "address_2": null,
    "address_3": null,
    "city": "Worthing",
    "state_province": "West Sussex",
    "postal_code": "BN14 7NN",
    "country": "England",
    "longitude": -0.393395,
    "latitude": 50.825427,
    "phone": "1903201121",
    "website_url": "http://www.vine-tarring.co.uk/",
    "state": "West Sussex",
    "street": "High Street"
  },
  {
    "id": "b94e8965-6f1f-4e08-b741-38484f8cb4a9",
    "name": "The Vine N Hop Shop",
    "brewery_type": "micro",
    "address_1": "1327 N. Carpenter Rd.",
    "address_2": null,
    "address_3": null,
    "city": "Brunswick",
    "state_province": "Ohio",
    "postal_code": "44212",
    "country": "United States",
    "longitude": null,
    "latitude": null,
    "phone": "3306236940",
    "website_url": "http://www.vinehop.com",
    "state": "Ohio",
    "street": "1327 N. Carpenter Rd."
  },
  {
    "id": "350e1253-9909-42bb-af12-d6885f149e97",
    "name": "The Virginia Beer Company",
    "brewery_type": "micro",
    "address_1": "401 Second St",
    "address_2": null,
    "address_3": null,
    "city": "Williamsburg",
    "state_province": "Virginia",
    "postal_code": "23185-4815",
    "country": "United States",
    "longitude": null,
    "latitude": null,
    "phone": "7573782903",
    "website_url": "http://www.virginiabeerco.com",
    "state": "Virginia",
    "street": "401 Second St"
  },
  {
    "id": "ed37f635-4971-4cd5-900a-7ac0d60e2cdf",
    "name": "The Watchmakers Arms Brewery",
    "brewery_type": "micro",
    "address_1": "Goldstone Villas",
    "address_2": null,
    "address_3": null,
    "city": "Hove",
    "state_province": "East Sussex",
    "postal_code": "BN3 3RU",
    "country": "England",
    "longitude": -0.17152,
    "latitude": 50.834247,
    "phone": "1273776307",
    "website_url": "https://www.thewatchmakersarms.co.uk/",
    "state": "East Sussex",
    "street": "Goldstone Villas"
  },
  {
    "id": "95cdf2c9-d9ba-4114-9adc-619590c15688",
    "name": "The White Hag Brewery",
    "brewery_type": "micro",
    "address_1": "Unit 1, Block 2",
    "address_2": "Ballymote Business Park",
    "address_3": null,
    "city": "Ballymote",
    "state_province": "Sligo",
    "postal_code": "F56 YR52",
    "country": "Ireland",
    "longitude": -8.5249166,
    "latitude": 54.0893242,
    "phone": null,
    "website_url": "http://www.thewhitehag.com/",
    "state": "Sligo",
    "street": "Unit 1, Block 2"
  },
  {
    "id": "5c1cd6fb-fea3-43d7-871b-54c2019d8271",
    "name": "The Wicklow Brewery",
    "brewery_type": "micro",
    "address_1": "Main Street",
    "address_2": "Ballygillaroe",
    "address_3": null,
    "city": "Redcross",
    "state_province": "Wicklow",
    "postal_code": "A67 H799",
    "country": "Ireland",
    "longitude": -6.1471627,
    "latitude": 52.8893592,
    "phone": "35340441661",
    "website_url": "http://www.wicklowbrewery.ie/",
    "state": "Wicklow",
    "street": "Main Street"
  },
  {
    "id": "efcc1f93-659b-4e5b-aa97-5f8518c5ef36",
    "name": "The Wild Rover Brewery",
    "brewery_type": "micro",
    "address_1": "13921 Lynmar Blvd",
    "address_2": null,
    "address_3": null,
    "city": "Tampa",
    "state_province": "Florida",
    "postal_code": "33626",
    "country": "United States",
    "longitude": null,
    "latitude": null,
    "phone": "8134755995",
    "website_url": "http://www.thewildroverbrewery.com",
    "state": "Florida",
    "street": "13921 Lynmar Blvd"
  },
  {
    "id": "efc1fdf0-8856-4d35-b0e9-d6ac2736043a",
    "name": "The Woodburn Brewery",
    "brewery_type": "micro",
    "address_1": "2800 Woodburn Ave",
    "address_2": null,
    "address_3": null,
    "city": "Cincinnati",
    "state_province": "Ohio",
    "postal_code": "45206-1793",
    "country": "United States",
    "longitude": -84.4768398,
    "latitude": 39.1289592,
    "phone": "5132212337",
    "website_url": "http://www.woodburnbrewery.com",
    "state": "Ohio",
    "street": "2800 Woodburn Ave"
  },
  {
    "id": "e8d5827b-34d2-4e73-83e9-8f0f118c3587",
    "name": "The Woodlands At SweetWater",
    "brewery_type": "micro",
    "address_1": "215 Ottley Dr",
    "address_2": null,
    "address_3": null,
    "city": "Atlanta",
    "state_province": "Georgia",
    "postal_code": "30324-3924",
    "country": "United States",
    "longitude": null,
    "latitude": null,
    "phone": "4046912537",
    "website_url": null,
    "state": "Georgia",
    "street": "215 Ottley Dr"
  },
  {
    "id": "0d2a28a2-9eab-4f92-816a-4536275b23d0",
    "name": "The Wrecking Bar Brewpub",
    "brewery_type": "brewpub",
    "address_1": "292 Moreland Ave NE",
    "address_2": null,
    "address_3": null,
    "city": "Atlanta",
    "state_province": "Georgia",
    "postal_code": "30307-1953",
    "country": "United States",
    "longitude": -84.3496422,
    "latitude": 33.762309,
    "phone": "4042212600",
    "website_url": "http://www.wreckingbarbrewpub.com",
    "state": "Georgia",
    "street": "292 Moreland Ave NE"
  },
  {
    "id": "82cf46b2-ab8d-4efd-9f75-a3e910c9a9bb",
    "name": "There Does Not Exist",
    "brewery_type": "planning",
    "address_1": null,
    "address_2": null,
    "address_3": null,
    "city": "San Luis Obispo",
    "state_province": "California",
    "postal_code": "93401",
    "country": "United States",
    "longitude": -120.6596156,
    "latitude": 35.2827525,
    "phone": null,
    "website_url": "http://www.theredoesnotexist.com",
    "state": "California",
    "street": null
  },
  {
    "id": "714524c7-19aa-4b05-9a40-72f641b91d3d",
    "name": "These Guys Brewing Company",
    "brewery_type": "brewpub",
    "address_1": "78 Franklin St",
    "address_2": null,
    "address_3": null,
    "city": "Norwich",
    "state_province": "Connecticut",
    "postal_code": "06360-5806",
    "country": "United States",
    "longitude": -72.07474352,
    "latitude": 41.52487646,
    "phone": "8609498550",
    "website_url": "http://www.theseguysbrewig.com",
    "state": "Connecticut",
    "street": "78 Franklin St"
  },
  {
    "id": "b9faff23-c49c-4adb-a11c-5672cd383961",
    "name": "Thew Brewing Company",
    "brewery_type": "micro",
    "address_1": "301 2nd Ave",
    "address_2": null,
    "address_3": null,
    "city": "Cedar Rapids",
    "state_province": "Iowa",
    "postal_code": "52404",
    "country": "United States",
    "longitude": -91.67294,
    "latitude": 42.035746,
    "phone": "3193438439",
    "website_url": "http://www.thewbrew.com",
    "state": "Iowa",
    "street": "301 2nd Ave"
  },
  {
    "id": "566c3a39-7a96-460d-b55a-89ea82f6ca34",
    "name": "Thimble Island Brewery",
    "brewery_type": "micro",
    "address_1": "16 Business Park Dr",
    "address_2": null,
    "address_3": null,
    "city": "Branford",
    "state_province": "Connecticut",
    "postal_code": "06405-2924",
    "country": "United States",
    "longitude": -72.77202768,
    "latitude": 41.29695786,
    "phone": "2032082827",
    "website_url": "http://www.thimbleislandbrewery.com",
    "state": "Connecticut",
    "street": "16 Business Park Dr"
  },
  {
    "id": "f26c65be-a08b-4bb5-a053-5a0c63ae4ff0",
    "name": "Thin Man Brewery",
    "brewery_type": "brewpub",
    "address_1": "486 Elmwood Ave",
    "address_2": null,
    "address_3": null,
    "city": "Buffalo",
    "state_province": "New York",
    "postal_code": "14222-2014",
    "country": "United States",
    "longitude": -78.87720285,
    "latitude": 42.91037815,
    "phone": "7169234100",
    "website_url": "http://www.thinmanbrewery.com",
    "state": "New York",
    "street": "486 Elmwood Ave"
  },
  {
    "id": "e56e71b6-8a59-47b5-a4ee-b91451ad4d81",
    "name": "Think Tank Brew Lab",
    "brewery_type": "planning",
    "address_1": null,
    "address_2": null,
    "address_3": null,
    "city": "Greenville",
    "state_province": "South Carolina",
    "postal_code": "29607",
    "country": "United States",
    "longitude": null,
    "latitude": null,
    "phone": null,
    "website_url": "http://www.thinktankbrewlab.com",
    "state": "South Carolina",
    "street": null
  },
  {
    "id": "0fd31f1d-0bc5-402a-ab2c-86d414218398",
    "name": "Third Barrel Brewing",
    "brewery_type": "micro",
    "address_1": "Bluebell Avenue",
    "address_2": "Bluebell Industrial Estate",
    "address_3": "Dublin 12",
    "city": "Dublin",
    "state_province": "Dublin",
    "postal_code": "D12 NPF9",
    "country": "Ireland",
    "longitude": -6.3506651,
    "latitude": 53.3308805,
    "phone": "353014604387",
    "website_url": "https://thirdbarrel.com/",
    "state": "Dublin",
    "street": "Bluebell Avenue"
  },
  {
    "id": "96286af2-3741-43d0-a059-a42f8ea584d0",
    "name": "Third Base Brewery",
    "brewery_type": "brewpub",
    "address_1": "500 Blairs Ferry Rd NE Ste 2",
    "address_2": null,
    "address_3": null,
    "city": "Cedar Rapids",
    "state_province": "Iowa",
    "postal_code": "52402-1466",
    "country": "United States",
    "longitude": -91.639755,
    "latitude": 42.035164,
    "phone": "3193789090",
    "website_url": "http://www.Thirdbasebrew.com",
    "state": "Iowa",
    "street": "500 Blairs Ferry Rd NE Ste 2"
  },
  {
    "id": "261457bf-6164-49da-b03e-88ce62b1ce17",
    "name": "Third Eye Brewery",
    "brewery_type": "planning",
    "address_1": null,
    "address_2": null,
    "address_3": null,
    "city": "Cincinnati",
    "state_province": "Ohio",
    "postal_code": "45246",
    "country": "United States",
    "longitude": null,
    "latitude": null,
    "phone": null,
    "website_url": "http://www.thirdeyebrewingcompany.com",
    "state": "Ohio",
    "street": null
  },
  {
    "id": "f3c4eedf-18d8-4005-9b92-5bb286560290",
    "name": "Third Monk Brewing Co",
    "brewery_type": "micro",
    "address_1": "228 S Lafayette St",
    "address_2": null,
    "address_3": null,
    "city": "South Lyon",
    "state_province": "Michigan",
    "postal_code": "48178-1406",
    "country": "United States",
    "longitude": -83.65116644,
    "latitude": 42.45482138,
    "phone": "2482786366",
    "website_url": "http://www.thirdmonkbrewingco.com",
    "state": "Michigan",
    "street": "228 S Lafayette St"
  },
  {
    "id": "33253e4f-6acd-4cf7-8ed6-2fbabee79b2b",
    "name": "Third Nature Brewing Co.",
    "brewery_type": "planning",
    "address_1": null,
    "address_2": null,
    "address_3": null,
    "city": "Rockford",
    "state_province": "Michigan",
    "postal_code": "49341",
    "country": "United States",
    "longitude": null,
    "latitude": null,
    "phone": null,
    "website_url": null,
    "state": "Michigan",
    "street": null
  },
  {
    "id": "9a7195db-8207-4809-b558-6eea7cb928ea",
    "name": "Third Place Brewing",
    "brewery_type": "micro",
    "address_1": "630 E Douglas Ave  Suite #150",
    "address_2": null,
    "address_3": null,
    "city": "Wichita",
    "state_province": "Kansas",
    "postal_code": "67202-3537",
    "country": "United States",
    "longitude": null,
    "latitude": null,
    "phone": null,
    "website_url": "http://www.thirdplacebrew.com",
    "state": "Kansas",
    "street": "630 E Douglas Ave  Suite #150"
  },
  {
    "id": "e63045b8-37a7-41c9-b5e3-6fbb87d2f388",
    "name": "Third Rail Beer",
    "brewery_type": "contract",
    "address_1": "928 Broadway Ste 902",
    "address_2": null,
    "address_3": null,
    "city": "New York",
    "state_province": "New York",
    "postal_code": "10010-8139",
    "country": "United States",
    "longitude": -73.9893474,
    "latitude": 40.7400479,
    "phone": null,
    "website_url": "http://www.thirdrailbeer.com",
    "state": "New York",
    "street": "928 Broadway Ste 902"
  },
  {
    "id": "1280bcdc-bead-4120-9d6b-003ee242be0f",
    "name": "Third Space Brewing",
    "brewery_type": "micro",
    "address_1": "1505 W Saint Paul Ave",
    "address_2": null,
    "address_3": null,
    "city": "Milwaukee",
    "state_province": "Wisconsin",
    "postal_code": "53233",
    "country": "United States",
    "longitude": -87.9146199,
    "latitude": 43.0346679,
    "phone": "4149092337",
    "website_url": "http://www.thirdspacebrewing.com",
    "state": "Wisconsin",
    "street": "1505 W Saint Paul Ave"
  },
  {
    "id": "c1196b07-ded4-4877-9b8d-999a142f1378",
    "name": "Third State Brewing",
    "brewery_type": "micro",
    "address_1": "352 High St",
    "address_2": null,
    "address_3": null,
    "city": "Burlington",
    "state_province": "New Jersey",
    "postal_code": "08016-4412",
    "country": "United States",
    "longitude": -74.85841925,
    "latitude": 40.07803141,
    "phone": "6093871620",
    "website_url": "http://www.thirdstatebrewing.com",
    "state": "New Jersey",
    "street": "352 High St"
  },
  {
    "id": "56670487-bac3-4ba0-aeff-5c75df7c3ad7",
    "name": "Third Street Aleworks",
    "brewery_type": "brewpub",
    "address_1": "610 3rd St",
    "address_2": null,
    "address_3": null,
    "city": "Santa Rosa",
    "state_province": "California",
    "postal_code": "95404-4418",
    "country": "United States",
    "longitude": -122.7132175,
    "latitude": 38.43982595,
    "phone": "7075233060",
    "website_url": "http://www.thirdstreetaleworks.com",
    "state": "California",
    "street": "610 3rd St"
  },
  {
    "id": "d6548df7-6909-4410-84b6-ca15e02821ab",
    "name": "Third Street Brewhouse",
    "brewery_type": "regional",
    "address_1": "219 Red River Ave N",
    "address_2": null,
    "address_3": null,
    "city": "Cold Spring",
    "state_province": "Minnesota",
    "postal_code": "56320-1624",
    "country": "United States",
    "longitude": -94.42888016,
    "latitude": 45.45859495,
    "phone": "3206853690",
    "website_url": "http://www.thirdstreetbrewhouse.com",
    "state": "Minnesota",
    "street": "219 Red River Ave N"
  },
  {
    "id": "cfd5ec0b-09e6-4d89-b56a-e0a46f1a89f2",
    "name": "Third Wheel Brewing",
    "brewery_type": "brewpub",
    "address_1": "4008 N Service Rd",
    "address_2": null,
    "address_3": null,
    "city": "Saint Peters",
    "state_province": "Missouri",
    "postal_code": "63376-6462",
    "country": "United States",
    "longitude": -90.57023315,
    "latitude": 38.79578116,
    "phone": "6363239810",
    "website_url": "http://www.thirdwheelbrewing.com",
    "state": "Missouri",
    "street": "4008 N Service Rd"
  },
  {
    "id": "cb3230ed-ad40-4e87-88fa-e8086b13710d",
    "name": "Third Window Brewing",
    "brewery_type": "brewpub",
    "address_1": "406 E Haley St Ste 3",
    "address_2": null,
    "address_3": null,
    "city": "Santa Barbara",
    "state_province": "California",
    "postal_code": "93101-1740",
    "country": "United States",
    "longitude": -119.6905176,
    "latitude": 34.42106268,
    "phone": "8059795090",
    "website_url": "http://www.thirdwindowbrewing.com",
    "state": "California",
    "street": "406 E Haley St Ste 3"
  },
  {
    "id": "cd923cb5-4ade-4303-888c-ab136b9fc616",
    "name": "Thirsty Bro Brewing",
    "brewery_type": "micro",
    "address_1": "141 E Main St",
    "address_2": null,
    "address_3": null,
    "city": "Royse City",
    "state_province": "Texas",
    "postal_code": "75189-3712",
    "country": "United States",
    "longitude": -96.33193039,
    "latitude": 32.97521439,
    "phone": "2818417246",
    "website_url": "http://www.ThirstyBroBrewingCo.com",
    "state": "Texas",
    "street": "141 E Main St"
  },
  {
    "id": "3a6986ab-3cfc-4301-9689-aff66afb46d7",
    "name": "Thirsty Dog Brewing Company",
    "brewery_type": "micro",
    "address_1": "529 Grant St Ste 103",
    "address_2": null,
    "address_3": null,
    "city": "Akron",
    "state_province": "Ohio",
    "postal_code": "44311-1184",
    "country": "United States",
    "longitude": -81.51788487,
    "latitude": 41.0698532,
    "phone": "3302522739",
    "website_url": "http://www.thirstydog.com",
    "state": "Ohio",
    "street": "529 Grant St Ste 103"
  },
  {
    "id": "1cb2123e-2834-48e5-a609-48294c80f741",
    "name": "Thirsty Farmer Brew Works",
    "brewery_type": "brewpub",
    "address_1": "290 Cashtown Road",
    "address_2": null,
    "address_3": null,
    "city": "Biglerville",
    "state_province": "Pennsylvania",
    "postal_code": "17307",
    "country": "United States",
    "longitude": null,
    "latitude": null,
    "phone": "7176778842",
    "website_url": null,
    "state": "Pennsylvania",
    "street": "290 Cashtown Road"
  },
  {
    "id": "86bbdd3d-05eb-4bbc-a96f-acdf06161539",
    "name": "Thirsty Monk Brewery",
    "brewery_type": "brewpub",
    "address_1": "92 Patton Ave",
    "address_2": null,
    "address_3": null,
    "city": "Asheville",
    "state_province": "North Carolina",
    "postal_code": "28801-3315",
    "country": "United States",
    "longitude": -82.55531475,
    "latitude": 35.59410425,
    "phone": "8282545470",
    "website_url": "http://www.monkpub.com",
    "state": "North Carolina",
    "street": "92 Patton Ave"
  },
  {
    "id": "5921ed43-ac72-4a70-800a-c29938c1feb5",
    "name": "Thirsty Monk Pub Brewery",
    "brewery_type": "micro",
    "address_1": "1604 E 17th Ave",
    "address_2": null,
    "address_3": null,
    "city": "Denver",
    "state_province": "Colorado",
    "postal_code": "80218-1621",
    "country": "United States",
    "longitude": -104.9682508,
    "latitude": 39.743154,
    "phone": null,
    "website_url": null,
    "state": "Colorado",
    "street": "1604 E 17th Ave"
  },
  {
    "id": "9315fc33-084f-4cb6-857b-73b8afa0d7e7",
    "name": "Thirsty Nomad Brewing",
    "brewery_type": "micro",
    "address_1": "4402 Stuart Andrew Blvd Ste A",
    "address_2": null,
    "address_3": null,
    "city": "Charlotte",
    "state_province": "North Carolina",
    "postal_code": "28217-1520",
    "country": "United States",
    "longitude": null,
    "latitude": null,
    "phone": "7049400947",
    "website_url": "http://www.thirstynomadbrewing.com",
    "state": "North Carolina",
    "street": "4402 Stuart Andrew Blvd Ste A"
  },
  {
    "id": "eec21616-2b23-4863-a3fd-9cc5fe3bf108",
    "name": "Thirsty Pagan Brewing Co",
    "brewery_type": "brewpub",
    "address_1": "1623 Broadway St",
    "address_2": null,
    "address_3": null,
    "city": "Superior",
    "state_province": "Wisconsin",
    "postal_code": "54880-1616",
    "country": "United States",
    "longitude": -92.1021385,
    "latitude": 46.7267785,
    "phone": "7153942500",
    "website_url": "http://www.thirstypaganbrewing.com",
    "state": "Wisconsin",
    "street": "1623 Broadway St"
  },
  {
    "id": "04f0b99c-2b76-48a7-8314-bfeb665269c5",
    "name": "Thirsty Planet Brewing Co",
    "brewery_type": "micro",
    "address_1": "8201 S Congress Ave",
    "address_2": null,
    "address_3": null,
    "city": "Austin",
    "state_province": "Texas",
    "postal_code": "78745-7305",
    "country": "United States",
    "longitude": -97.7487141,
    "latitude": 30.2521655,
    "phone": "5128260948",
    "website_url": "http://www.thirstyplanet.net",
    "state": "Texas",
    "street": "8201 S Congress Ave"
  },
  {
    "id": "55d1e39f-f8ec-4b22-a153-a3ddc6a86615",
    "name": "Thirsty Souls Community Brewing",
    "brewery_type": "micro",
    "address_1": "238 Market St",
    "address_2": null,
    "address_3": null,
    "city": "Mount Airy",
    "state_province": "North Carolina",
    "postal_code": "27030-3514",
    "country": "United States",
    "longitude": -80.6087621,
    "latitude": 36.5008814,
    "phone": null,
    "website_url": "http://www.thirstysoulscommunitybrewing.com",
    "state": "North Carolina",
    "street": "238 Market St"
  },
  {
    "id": "4abae0ae-51e8-4a47-99cd-83ec76e3a6df",
    "name": "Thirsty Street Brewing",
    "brewery_type": "brewpub",
    "address_1": "3008 1st Ave N",
    "address_2": null,
    "address_3": null,
    "city": "Billings",
    "state_province": "Montana",
    "postal_code": "59101-2134",
    "country": "United States",
    "longitude": -108.5083676,
    "latitude": 45.78076846,
    "phone": "4069693200",
    "website_url": "http://www.thirstystreet.com",
    "state": "Montana",
    "street": "3008 1st Ave N"
  },
  {
    "id": "3ed13b51-5dd1-40a6-a6a8-6b27c1bce3e7",
    "name": "ThirstyBear Organic Brewery",
    "brewery_type": "brewpub",
    "address_1": "661 Howard St",
    "address_2": null,
    "address_3": null,
    "city": "San Francisco",
    "state_province": "California",
    "postal_code": "94105-3915",
    "country": "United States",
    "longitude": -122.399512,
    "latitude": 37.785543,
    "phone": "4159740905",
    "website_url": "http://www.thirstybear.com",
    "state": "California",
    "street": "661 Howard St"
  },
  {
    "id": "6fbbea2c-a936-4db4-9583-f2bf661ed22f",
    "name": "Thomas Creek Brewery",
    "brewery_type": "micro",
    "address_1": "2054 Piedmont Hwy",
    "address_2": null,
    "address_3": null,
    "city": "Greenville",
    "state_province": "South Carolina",
    "postal_code": "29605-4840",
    "country": "United States",
    "longitude": -82.42335755,
    "latitude": 34.7966767,
    "phone": "8646051166",
    "website_url": "http://www.thomascreekbeer.com",
    "state": "South Carolina",
    "street": "2054 Piedmont Hwy"
  },
  {
    "id": "c4ce03ed-4156-496f-a4b3-57d27cda9de4",
    "name": "Thomas Hooker Brewing Co LLC",
    "brewery_type": "micro",
    "address_1": "16 Tobey Rd",
    "address_2": null,
    "address_3": null,
    "city": "Bloomfield",
    "state_province": "Connecticut",
    "postal_code": "06002-3522",
    "country": "United States",
    "longitude": -72.7115431,
    "latitude": 41.8089235,
    "phone": "8602423111",
    "website_url": "http://www.hookerbeer.com",
    "state": "Connecticut",
    "street": "16 Tobey Rd"
  },
  {
    "id": "354effc2-1628-434f-bf21-1badf4447b4b",
    "name": "Thompson Brewing Co",
    "brewery_type": "brewpub",
    "address_1": "9900 Indiana Ave Ste 7",
    "address_2": null,
    "address_3": null,
    "city": "Riverside",
    "state_province": "California",
    "postal_code": "92503-5498",
    "country": "United States",
    "longitude": -117.4495247,
    "latitude": 33.90930805,
    "phone": "9519560480",
    "website_url": "http://www.thompsonbrewing.com",
    "state": "California",
    "street": "9900 Indiana Ave Ste 7"
  },
  {
    "id": "11074879-0fa1-4bbb-956e-d3d00a47262b",
    "name": "Thorn Brewing Co",
    "brewery_type": "micro",
    "address_1": "1745 National Ave.",
    "address_2": null,
    "address_3": null,
    "city": "San Diego",
    "state_province": "California",
    "postal_code": "92113-1010",
    "country": "United States",
    "longitude": -117.147735,
    "latitude": 32.702171,
    "phone": null,
    "website_url": null,
    "state": "California",
    "street": "1745 National Ave."
  }
]