[
  {
    "id": "6309c11e-0f36-4621-80b9-33e7645e0a85",
    "name": "Pappy Slokum Brewing Co.",
    "brewery_type": "micro",
    "address_1": "409 S Treadaway Blvd",
    "address_2": null,
    "address_3": null,
    "city": "Abilene",
    "state_province": "Texas",
    "postal_code": "79602-1750",
    "country": "United States",
    "longitude": -99.726991,
    "latitude": 32.444828,
    "phone": "3252014112",
    "website_url": "http://waggonerr@gmail.com",
    "state": "Texas",
    "street": "409 S Treadaway Blvd"
  },
  {
    "id": "f2376e93-a30f-4e71-9476-b56f98957f16",
    "name": "Paradigm Shift Brewing",
    "brewery_type": "micro",
    "address_1": "128 North Ave NE",
    "address_2": null,
    "address_3": null,
    "city": "Massillon",
    "state_province": "Ohio",
    "postal_code": "44646-5526",
    "country": "United States",
    "longitude": -81.52183929,
    "latitude": 40.79865814,
    "phone": "3308800008",
    "website_url": "http://www.paradigmshiftbrew.com",
    "state": "Ohio",
    "street": "128 North Ave NE"
  },
  {
    "id": "1923b722-bc48-4f2f-b003-5b52a77695c1",
    "name": "Paradise Creek Brewery",
    "brewery_type": "micro",
    "address_1": "505 SE Riverview St Ste C",
    "address_2": null,
    "address_3": null,
    "city": "Pullman",
    "state_province": "Washington",
    "postal_code": "99163-5262",
    "country": "United States",
    "longitude": -117.16188920262,
    "latitude": 46.877432024206,
    "phone": "5095920114",
    "website_url": "http://www.paradisecreekbrewery.com",
    "state": "Washington",
    "street": "505 SE Riverview St Ste C"
  },
  {
    "id": "ecde2a37-e88b-4637-933e-ebd02cbff2b8",
    "name": "Paradox Beer Co",
    "brewery_type": "micro",
    "address_1": "10 Buffalo Ct",
    "address_2": null,
    "address_3": null,
    "city": "Divide",
    "state_province": "Colorado",
    "postal_code": "80814-9178",
    "country": "United States",
    "longitude": -105.1550486,
    "latitude": 38.94440915,
    "phone": null,
    "website_url": "http://www.paradoxbeercompany.com",
    "state": "Colorado",
    "street": "10 Buffalo Ct"
  },
  {
    "id": "88ae082b-ea43-4367-90e5-bba2aa64f7ea",
    "name": "Paradox Brewery",
    "brewery_type": "micro",
    "address_1": "154 State Route 9",
    "address_2": null,
    "address_3": null,
    "city": "Schroon Lake",
    "state_province": "New York",
    "postal_code": "12870",
    "country": "United States",
    "longitude": null,
    "latitude": null,
    "phone": "5183515036",
    "website_url": "http://www.paradoxbrewery.com",
    "state": "New York",
    "street": "154 State Route 9"
  },
  {
    "id": "5b34875f-fccf-447f-a85e-f363efe9e2d0",
    "name": "Paradox Brewery / Gateway To the Adirondacks",
    "brewery_type": "planning",
    "address_1": null,
    "address_2": null,
    "address_3": null,
    "city": "Schroon Lake",
    "state_province": "New York",
    "postal_code": "12870",
    "country": "United States",
    "longitude": null,
    "latitude": null,
    "phone": null,
    "website_url": null,
    "state": "New York",
    "street": null
  },
  {
    "id": "5bd1f033-c140-4d10-9e22-ba828de064ea",
    "name": "Paradune Brewing",
    "brewery_type": "micro",
    "address_1": "10551 1/2 County Rd 286",
    "address_2": null,
    "address_3": null,
    "city": "Huntsville",
    "state_province": "Ohio",
    "postal_code": "43324",
    "country": "United States",
    "longitude": null,
    "latitude": null,
    "phone": null,
    "website_url": null,
    "state": "Ohio",
    "street": "10551 1/2 County Rd 286"
  },
  {
    "id": "a48cf2bc-b38c-493f-8c15-c5d6c572b561",
    "name": "Paradune Brewing Company",
    "brewery_type": "micro",
    "address_1": "20707 Township Rd 119",
    "address_2": null,
    "address_3": null,
    "city": "Belle Center",
    "state_province": "Ohio",
    "postal_code": "43310",
    "country": "United States",
    "longitude": null,
    "latitude": null,
    "phone": "9375891730",
    "website_url": "http://www.paradunebrewing.com",
    "state": "Ohio",
    "street": "20707 Township Rd 119"
  },
  {
    "id": "c3bd276d-0168-4060-9055-e997af4ab18a",
    "name": "Paragon Brewing",
    "brewery_type": "proprietor",
    "address_1": "5785 N Government Way",
    "address_2": null,
    "address_3": null,
    "city": "Coeur D Alene",
    "state_province": "Idaho",
    "postal_code": "83815-7329",
    "country": "United States",
    "longitude": -116.787369,
    "latitude": 47.725118,
    "phone": "2087729292",
    "website_url": "http://www.paragonbrewing.com",
    "state": "Idaho",
    "street": "5785 N Government Way"
  },
  {
    "id": "51d30268-e015-4b21-9500-147c2109c7bc",
    "name": "Paraiso Brewery",
    "brewery_type": "micro",
    "address_1": "80 W G St",
    "address_2": null,
    "address_3": null,
    "city": "Los Banos",
    "state_province": "California",
    "postal_code": "93635-3659",
    "country": "United States",
    "longitude": -120.8549566,
    "latitude": 37.06775432,
    "phone": "2098552337",
    "website_url": "http://paraisobrewery.com",
    "state": "California",
    "street": "80 W G St"
  },
  {
    "id": "a17858d1-e5aa-41c5-a429-8418b7890d9d",
    "name": "Paramount Brewing Company",
    "brewery_type": "planning",
    "address_1": null,
    "address_2": null,
    "address_3": null,
    "city": "Andover",
    "state_province": "Massachusetts",
    "postal_code": "01810-5011",
    "country": "United States",
    "longitude": null,
    "latitude": null,
    "phone": "6178691388",
    "website_url": null,
    "state": "Massachusetts",
    "street": null
  },
  {
    "id": "581a681e-b5e8-4595-8cc6-f579304f804e",
    "name": "Parched Eagle Brewpub",
    "brewery_type": "brewpub",
    "address_1": "5440 Willow Rd Ste 112",
    "address_2": null,
    "address_3": null,
    "city": "Waunakee",
    "state_province": "Wisconsin",
    "postal_code": "53597-8431",
    "country": "United States",
    "longitude": null,
    "latitude": null,
    "phone": "6082049192",
    "website_url": "http://www.parchedeaglebrewpub.com",
    "state": "Wisconsin",
    "street": "5440 Willow Rd Ste 112"
  },
  {
    "id": "77b2e1c4-db34-4c4b-b0ed-55b2553f1191",
    "name": "Pareidolia Brewing Co.",
    "brewery_type": "brewpub",
    "address_1": "712 Cleveland St",
    "address_2": null,
    "address_3": null,
    "city": "Sebastian",
    "state_province": "Florida",
    "postal_code": "32958-4178",
    "country": "United States",
    "longitude": -80.46645659,
    "latitude": 27.81084556,
    "phone": "7725840331",
    "website_url": "http://www.pareidoliabeer.com",
    "state": "Florida",
    "street": "712 Cleveland St"
  },
  {
    "id": "21446025-be15-4477-9ef8-e4686bc7ec90",
    "name": "Pariah Brewing Company",
    "brewery_type": "micro",
    "address_1": "3052 El Cajon Blvd Ste B",
    "address_2": null,
    "address_3": null,
    "city": "San Diego",
    "state_province": "California",
    "postal_code": "92104-1618",
    "country": "United States",
    "longitude": -117.1286268,
    "latitude": 32.75594166,
    "phone": "6196420545",
    "website_url": "http://www.pariahbrewingco.com",
    "state": "California",
    "street": "3052 El Cajon Blvd Ste B"
  },
  {
    "id": "703a9282-97f8-4305-8d39-b06b9814d34c",
    "name": "Parish Brewing Company",
    "brewery_type": "micro",
    "address_1": "229 Jared Dr",
    "address_2": null,
    "address_3": null,
    "city": "Broussard",
    "state_province": "Louisiana",
    "postal_code": "70518-4362",
    "country": "United States",
    "longitude": -91.9485237,
    "latitude": 30.1592466,
    "phone": "3373308601",
    "website_url": "http://www.parishbeer.com",
    "state": "Louisiana",
    "street": "229 Jared Dr"
  },
  {
    "id": "437725f5-e51b-407f-be9b-1fed4e71cc7c",
    "name": "Park City Brewery",
    "brewery_type": "closed",
    "address_1": "2720 Rasmussen Rd Ste A1",
    "address_2": null,
    "address_3": null,
    "city": "Park City",
    "state_province": "Utah",
    "postal_code": "84098-5751",
    "country": "United States",
    "longitude": null,
    "latitude": null,
    "phone": "4352008906",
    "website_url": "http://www.parkcitybrewery.com",
    "state": "Utah",
    "street": "2720 Rasmussen Rd Ste A1"
  },
  {
    "id": "1f09c9cd-5e78-4c69-a3df-28d7728a6862",
    "name": "Park Tavern Brewery",
    "brewery_type": "brewpub",
    "address_1": "500 10th St NE",
    "address_2": null,
    "address_3": null,
    "city": "Atlanta",
    "state_province": "Georgia",
    "postal_code": "30309-4272",
    "country": "United States",
    "longitude": -84.377744,
    "latitude": 33.781867,
    "phone": "4042490001",
    "website_url": "http://www.parktavern.com",
    "state": "Georgia",
    "street": "500 10th St NE"
  },
  {
    "id": "877e9636-df9e-46af-b667-eee6930cffaf",
    "name": "Parker's Steakhouse and Brewery",
    "brewery_type": "brewpub",
    "address_1": "1300 Mt Saint Helens Way NE",
    "address_2": null,
    "address_3": null,
    "city": "Castle Rock",
    "state_province": "Washington",
    "postal_code": "98611-9014",
    "country": "United States",
    "longitude": -122.898886,
    "latitude": 46.287285,
    "phone": "3609672333",
    "website_url": "http://www.parkerssteakhouse.com",
    "state": "Washington",
    "street": "1300 Mt Saint Helens Way NE"
  },
  {
    "id": "fb80ac7b-2db7-4d36-83a8-0b32ca21140a",
    "name": "Parkers Hilltop Brewery",
    "brewery_type": "brewpub",
    "address_1": "6110 Dixie Hwy",
    "address_2": null,
    "address_3": null,
    "city": "Clarkston",
    "state_province": "Michigan",
    "postal_code": "48346-3409",
    "country": "United States",
    "longitude": -83.4149011,
    "latitude": 42.7174413,
    "phone": "2483838444",
    "website_url": "http://www.hilltopbrew.com",
    "state": "Michigan",
    "street": "6110 Dixie Hwy"
  },
  {
    "id": "536453ac-c66c-4cd2-b3c4-34095183ed62",
    "name": "Parkersburg Brewing Co",
    "brewery_type": "brewpub",
    "address_1": "707 Market St",
    "address_2": null,
    "address_3": null,
    "city": "Parkersburg",
    "state_province": "West Virginia",
    "postal_code": "26101-4628",
    "country": "United States",
    "longitude": -81.55823029,
    "latitude": 39.26705857,
    "phone": "3049161502",
    "website_url": "http://www.parkersburgbrewing.com",
    "state": "West Virginia",
    "street": "707 Market St"
  },
  {
    "id": "69f0e786-deae-48b2-9320-8dae1f85a1a5",
    "name": "Parkside Brewing Company",
    "brewery_type": "brewpub",
    "address_1": "2601 Madison Ave",
    "address_2": null,
    "address_3": null,
    "city": "Burlington",
    "state_province": "Iowa",
    "postal_code": "52601-6622",
    "country": "United States",
    "longitude": -91.1079175,
    "latitude": 40.77905391,
    "phone": "3192092739",
    "website_url": "http://www.parksidebrewing.com",
    "state": "Iowa",
    "street": "2601 Madison Ave"
  },
  {
    "id": "12b5ad73-b4d0-4030-b7de-486e4b16c792",
    "name": "Parkway Brewing",
    "brewery_type": "micro",
    "address_1": "739 Kessler Mill Rd",
    "address_2": null,
    "address_3": null,
    "city": "Salem",
    "state_province": "Virginia",
    "postal_code": "24153-3035",
    "country": "United States",
    "longitude": -80.0332665,
    "latitude": 37.30925145,
    "phone": "5404049810",
    "website_url": "http://www.parkwaybrewing.com",
    "state": "Virginia",
    "street": "739 Kessler Mill Rd"
  },
  {
    "id": "fff36b1b-b208-4477-8652-8eb64bee33c9",
    "name": "Parleaux Beer Lab",
    "brewery_type": "micro",
    "address_1": "634 Lesseps St",
    "address_2": null,
    "address_3": null,
    "city": "New Orleans",
    "state_province": "Louisiana",
    "postal_code": "70117",
    "country": "United States",
    "longitude": -90.03400238,
    "latitude": 29.9607459,
    "phone": "5047028433",
    "website_url": "http://www.parleauxbeerlab.com",
    "state": "Louisiana",
    "street": "634 Lesseps St"
  },
  {
    "id": "d58fa2dc-0c5d-4eaa-9252-f25f59c3025e",
    "name": "Parts & Labor Brewing Company",
    "brewery_type": "brewpub",
    "address_1": "402 Main St Unit B",
    "address_2": null,
    "address_3": null,
    "city": "Sterling",
    "state_province": "Colorado",
    "postal_code": "80751-4343",
    "country": "United States",
    "longitude": null,
    "latitude": null,
    "phone": "9702228221",
    "website_url": "http://www.partsandlaborbrewing.com",
    "state": "Colorado",
    "street": "402 Main St Unit B"
  },
  {
    "id": "fc875d84-2f1d-4076-b67f-594fff2b00d7",
    "name": "Pastime Brewery Bar and Grill",
    "brewery_type": "brewpub",
    "address_1": "1307 Main St",
    "address_2": null,
    "address_3": null,
    "city": "Oroville",
    "state_province": "Washington",
    "postal_code": "98844-9384",
    "country": "United States",
    "longitude": -119.4363091,
    "latitude": 48.93797078,
    "phone": "5094763007",
    "website_url": "http://www.pastimebarandgrill.com",
    "state": "Washington",
    "street": "1307 Main St"
  },
  {
    "id": "a7d5823a-039b-49d2-9747-ae947815a394",
    "name": "Pat O'Hara Brewing Company",
    "brewery_type": "brewpub",
    "address_1": "1019 15th St",
    "address_2": null,
    "address_3": null,
    "city": "Cody",
    "state_province": "Wyoming",
    "postal_code": "82414-3721",
    "country": "United States",
    "longitude": -109.058375,
    "latitude": 44.52678265,
    "phone": "3075865410",
    "website_url": null,
    "state": "Wyoming",
    "street": "1019 15th St"
  },
  {
    "id": "0afdca59-0ed4-44dc-80d8-7a952e1924f6",
    "name": "Pato Brewing",
    "brewery_type": "micro",
    "address_1": "Centro Empresarial Sintra-Estoril I",
    "address_2": "Av. Pedro \u00c1lvares Cabral 177 ARMAZ\u00c9M G",
    "address_3": "Beloura",
    "city": "Sintra",
    "state_province": "Lisboa",
    "postal_code": "2710-144",
    "country": "Portugal",
    "longitude": -9.3749116269047,
    "latitude": 38.759246154526,
    "phone": "+351 96 280 0847",
    "website_url": "http://www.patobrewing.com",
    "state": "Lisboa",
    "street": "Centro Empresarial Sintra-Estoril I"
  },
  {
    "id": "a3525861-0aba-40f8-aff8-1af8bba01946",
    "name": "Patriot Acres Farm Brewery",
    "brewery_type": "micro",
    "address_1": "1621 Millington Rd",
    "address_2": null,
    "address_3": null,
    "city": "Sudlersville",
    "state_province": "Maryland",
    "postal_code": "21668-1427",
    "country": "United States",
    "longitude": -75.86736136,
    "latitude": 39.22228298,
    "phone": "4107085424",
    "website_url": "http://www.patriotacresfarmbrewery.com",
    "state": "Maryland",
    "street": "1621 Millington Rd"
  },
  {
    "id": "d74c242a-21e2-4817-873b-1314dff7770f",
    "name": "Patro's Sports Bar and Restaurant",
    "brewery_type": "bar",
    "address_1": "920 East Coast Park",
    "address_2": "Parkland Green",
    "address_3": null,
    "city": "Singapore",
    "state_province": "Singapore",
    "postal_code": "449875",
    "country": "Singapore",
    "longitude": 1.2992922288778,
    "latitude": 103.9066415,
    "phone": "+65 6440 9372",
    "website_url": null,
    "state": "Singapore",
    "street": "920 East Coast Park"
  },
  {
    "id": "239ea12a-9340-4a7b-81c5-d819af331f2c",
    "name": "Patron Saints Brewery",
    "brewery_type": "micro",
    "address_1": "4730 W Bancroft St #8",
    "address_2": null,
    "address_3": null,
    "city": "Toledo",
    "state_province": "Ohio",
    "postal_code": "43615",
    "country": "United States",
    "longitude": -83.650886,
    "latitude": 41.662495,
    "phone": null,
    "website_url": "http://www.PatronSaintsBrewery.com",
    "state": "Ohio",
    "street": "4730 W Bancroft St #8"
  },
  {
    "id": "5575c888-ae31-4c95-93af-3f76a5f11242",
    "name": "Paw Paw Brewing Company",
    "brewery_type": "brewpub",
    "address_1": "929 E Michigan Ave",
    "address_2": null,
    "address_3": null,
    "city": "Paw Paw",
    "state_province": "Michigan",
    "postal_code": "49079-9488",
    "country": "United States",
    "longitude": -85.87748984,
    "latitude": 42.2192304,
    "phone": "2694150145",
    "website_url": "http://pawpawbrewery.com",
    "state": "Michigan",
    "street": "929 E Michigan Ave"
  },
  {
    "id": "f6ae3e02-e4dd-4aa3-961b-107a6b9706ae",
    "name": "Paw Paw Brewing Company LLC",
    "brewery_type": "micro",
    "address_1": "780 S Gremps street",
    "address_2": null,
    "address_3": null,
    "city": "PAW PAW",
    "state_province": "Michigan",
    "postal_code": "49079",
    "country": "United States",
    "longitude": -85.89437423,
    "latitude": 42.2131394,
    "phone": "2695015241",
    "website_url": "http://www.pawpawbrewing.com",
    "state": "Michigan",
    "street": "780 S Gremps street"
  },
  {
    "id": "3d619b2b-ece6-478b-a46b-752087ff4a10",
    "name": "Paw Paw Brewing Company Production Facility",
    "brewery_type": "micro",
    "address_1": "780 S Gremps St",
    "address_2": null,
    "address_3": null,
    "city": "Paw Paw",
    "state_province": "Michigan",
    "postal_code": "49079",
    "country": "United States",
    "longitude": -85.89437423,
    "latitude": 42.2131394,
    "phone": null,
    "website_url": null,
    "state": "Michigan",
    "street": "780 S Gremps St"
  },
  {
    "id": "42ff6091-e237-43c8-93ab-0b8d5e170721",
    "name": "Pawleys Island Brewing Company",
    "brewery_type": "brewpub",
    "address_1": "2668 Industrial Ave",
    "address_2": null,
    "address_3": null,
    "city": "North Charleston",
    "state_province": "South Carolina",
    "postal_code": "29405-7429",
    "country": "United States",
    "longitude": -80.00423049,
    "latitude": 32.8533504,
    "phone": "8432258292",
    "website_url": "http://www.pawleysislandbrewing.com",
    "state": "South Carolina",
    "street": "2668 Industrial Ave"
  },
  {
    "id": "e041442e-c7f9-4896-a0b5-4c4f0bc66c9b",
    "name": "Pax Verum Brewing",
    "brewery_type": "micro",
    "address_1": "908 N Main St",
    "address_2": null,
    "address_3": null,
    "city": "Lapel",
    "state_province": "Indiana",
    "postal_code": "46051-",
    "country": "United States",
    "longitude": -85.84802957,
    "latitude": 40.0686988,
    "phone": "3172858819",
    "website_url": "http://www.paxverum.com",
    "state": "Indiana",
    "street": "908 N Main St"
  },
  {
    "id": "061be81d-5cc0-44e9-b474-ad1b046ff25b",
    "name": "Payette Brewing Co",
    "brewery_type": "micro",
    "address_1": "733 S Pioneer St",
    "address_2": null,
    "address_3": null,
    "city": "Boise",
    "state_province": "Idaho",
    "postal_code": "83702-5219",
    "country": "United States",
    "longitude": -116.2145033,
    "latitude": 43.61301363,
    "phone": "2083440011",
    "website_url": "http://www.payettebrewing.com",
    "state": "Idaho",
    "street": "733 S Pioneer St"
  },
  {
    "id": "63062c41-f06b-4562-b723-eab8f21a4fe6",
    "name": "Paystreak Brewing",
    "brewery_type": "brewpub",
    "address_1": "449 Main Street",
    "address_2": null,
    "address_3": null,
    "city": "Etna",
    "state_province": "California",
    "postal_code": "96027",
    "country": "United States",
    "longitude": -122.8937015,
    "latitude": 41.4565805,
    "phone": "5304672337",
    "website_url": "http://www.paystreakbrewing.com",
    "state": "California",
    "street": "449 Main Street"
  },
  {
    "id": "8759cc82-6616-436e-b9ed-50b897439a8e",
    "name": "Pdub Brewing Co",
    "brewery_type": "brewpub",
    "address_1": "187 S Purcell Blvd",
    "address_2": null,
    "address_3": null,
    "city": "Pueblo",
    "state_province": "Colorado",
    "postal_code": "81007-5081",
    "country": "United States",
    "longitude": -104.7084175,
    "latitude": 38.3164023,
    "phone": "7196478864",
    "website_url": "http://www.pdubbrewing.com",
    "state": "Colorado",
    "street": "187 S Purcell Blvd"
  },
  {
    "id": "79e4d05e-14c1-4af7-b2a9-192eebe502c0",
    "name": "Peabody Heights Brewery",
    "brewery_type": "micro",
    "address_1": "401 E 30th St",
    "address_2": null,
    "address_3": null,
    "city": "Baltimore",
    "state_province": "Maryland",
    "postal_code": "21218-3935",
    "country": "United States",
    "longitude": -76.61041505,
    "latitude": 39.32410525,
    "phone": "4104677837",
    "website_url": "http://www.peabodyheightsbrewery.com",
    "state": "Maryland",
    "street": "401 E 30th St"
  },
  {
    "id": "686a7573-f9de-4f70-a03d-1c8a225ca092",
    "name": "Peace Tree Brewing Company",
    "brewery_type": "micro",
    "address_1": "107 W Main St",
    "address_2": null,
    "address_3": null,
    "city": "Knoxville",
    "state_province": "Iowa",
    "postal_code": "50138-2528",
    "country": "United States",
    "longitude": -93.09970823,
    "latitude": 41.31903523,
    "phone": "6418422739",
    "website_url": "http://www.peacetreebrewing.com",
    "state": "Iowa",
    "street": "107 W Main St"
  },
  {
    "id": "2944a16b-b018-42bb-9c9e-48a05ec26739",
    "name": "Peace Tree Brewing Company - Des Moines Branch",
    "brewery_type": "micro",
    "address_1": "317 E Court Ave",
    "address_2": null,
    "address_3": null,
    "city": "Des Moines",
    "state_province": "Iowa",
    "postal_code": "50309-2014",
    "country": "United States",
    "longitude": -93.6121558,
    "latitude": 41.5867046,
    "phone": "5158832739",
    "website_url": "http://www.peacetreebrewing.com",
    "state": "Iowa",
    "street": "317 E Court Ave"
  },
  {
    "id": "1c0f1498-1b85-4472-946d-eae8385c6118",
    "name": "Peacemaker Brewing Company",
    "brewery_type": "micro",
    "address_1": "20 Pleasant St",
    "address_2": null,
    "address_3": null,
    "city": "Canandaigua",
    "state_province": "New York",
    "postal_code": "14424-2047",
    "country": "United States",
    "longitude": -77.27866055,
    "latitude": 42.88851165,
    "phone": "5853963561",
    "website_url": "http://www.peacemakerbrewing.com",
    "state": "New York",
    "street": "20 Pleasant St"
  },
  {
    "id": "a8882009-9fd1-4cab-a8e8-c19bf22d6dea",
    "name": "Peak Organic Brewing Co",
    "brewery_type": "proprietor",
    "address_1": "110 Marginal Way # 802",
    "address_2": null,
    "address_3": null,
    "city": "Portland",
    "state_province": "Maine",
    "postal_code": "04101-2442",
    "country": "United States",
    "longitude": -70.26454878,
    "latitude": 43.66244776,
    "phone": "2075865586",
    "website_url": "http://www.peakbrewing.com",
    "state": "Maine",
    "street": "110 Marginal Way # 802"
  },
  {
    "id": "3c4ee320-98f6-4949-9ec1-8a24f16619d8",
    "name": "Peak To Peak Tap & Brew",
    "brewery_type": "brewpub",
    "address_1": "16701 E Iliff Ave",
    "address_2": null,
    "address_3": null,
    "city": "Aurora",
    "state_province": "Colorado",
    "postal_code": "80013-1148",
    "country": "United States",
    "longitude": -104.8366181,
    "latitude": 39.6750535,
    "phone": "7204468714",
    "website_url": "http://www.peakbrews.com",
    "state": "Colorado",
    "street": "16701 E Iliff Ave"
  },
  {
    "id": "8eb28987-4959-4f49-b410-757b110e5356",
    "name": "Peak To Peak Tap & Brew",
    "brewery_type": "micro",
    "address_1": "9735 E Colfax Ave",
    "address_2": null,
    "address_3": null,
    "city": "Aurora",
    "state_province": "Colorado",
    "postal_code": "80010",
    "country": "United States",
    "longitude": -104.8505299,
    "latitude": 39.7402157,
    "phone": null,
    "website_url": null,
    "state": "Colorado",
    "street": "9735 E Colfax Ave"
  },
  {
    "id": "ec411fb6-0238-45ae-a312-8c3d6133d140",
    "name": "Peak View Brewing Company",
    "brewery_type": "closed",
    "address_1": "9672 E Arapahoe Rd",
    "address_2": null,
    "address_3": null,
    "city": "Greenwood Village",
    "state_province": "Colorado",
    "postal_code": "80112",
    "country": "United States",
    "longitude": null,
    "latitude": null,
    "phone": null,
    "website_url": null,
    "state": "Colorado",
    "street": "9672 E Arapahoe Rd"
  },
  {
    "id": "e0f10443-62fe-48ca-a9d5-3b1c3cb426f0",
    "name": "Peaks and Creeks Brewing Company",
    "brewery_type": "micro",
    "address_1": "212 King St Ste B",
    "address_2": null,
    "address_3": null,
    "city": "Brevard",
    "state_province": "North Carolina",
    "postal_code": "28712",
    "country": "United States",
    "longitude": null,
    "latitude": null,
    "phone": "8285504765",
    "website_url": "http://www.brevardlumberyard.com",
    "state": "North Carolina",
    "street": "212 King St Ste B"
  },
  {
    "id": "02552dfe-2893-4ef1-82d6-b4713015c61f",
    "name": "Peaks N Pines Brewing Company",
    "brewery_type": "micro",
    "address_1": "4005 Tutt Blvd",
    "address_2": null,
    "address_3": null,
    "city": "Colorado Springs",
    "state_province": "Colorado",
    "postal_code": "80922-2508",
    "country": "United States",
    "longitude": -104.7146045,
    "latitude": 38.88965993,
    "phone": "7193586758",
    "website_url": "http://www.peaksnpinesbrewery.com",
    "state": "Colorado",
    "street": "4005 Tutt Blvd"
  },
  {
    "id": "49c63f60-1304-43cb-839f-d4b05eb592be",
    "name": "Pearl Street Brewery",
    "brewery_type": "micro",
    "address_1": "1401 Saint Andrew St",
    "address_2": null,
    "address_3": null,
    "city": "La Crosse",
    "state_province": "Wisconsin",
    "postal_code": "54603-2866",
    "country": "United States",
    "longitude": -91.23526334,
    "latitude": 43.835173,
    "phone": null,
    "website_url": "http://pearlstreetbrewery.com/",
    "state": "Wisconsin",
    "street": "1401 Saint Andrew St"
  },
  {
    "id": "a4ce36e6-21d4-41c4-9af4-0da93bb98581",
    "name": "Pearl Street Grill and Brewery",
    "brewery_type": "brewpub",
    "address_1": "76 Pearl St",
    "address_2": null,
    "address_3": null,
    "city": "Buffalo",
    "state_province": "New York",
    "postal_code": "14202-4106",
    "country": "United States",
    "longitude": -78.87722544,
    "latitude": 42.88105759,
    "phone": "7168562337",
    "website_url": "http://www.pearlstreetgrill.com",
    "state": "New York",
    "street": "76 Pearl St"
  }
]