[
  {
    "id": "e7d32af9-f5c5-469a-9cd7-b97097d6640d",
    "name": "\uac00\ub098\ub2e4\ub77c\ube0c\ub8e8\uc5b4\ub9ac(Ganadara Brewing)",
    "brewery_type": "brewpub",
    "address_1": "625-1, Mungyeong-daero",
    "address_2": null,
    "address_3": null,
    "city": "Mungyeong-si",
    "state_province": "Gyeongsangbukdo",
    "postal_code": "36989",
    "country": "South Korea",
    "longitude": 128.1563317,
    "latitude": 36.61483553,
    "phone": "070-7799-2428",
    "website_url": "http://www.ganadara.co.kr",
    "state": "Gyeongsangbukdo",
    "street": "625-1, Mungyeong-daero"
  },
  {
    "id": "438dfe94-c54a-49a1-b611-e514d2f856e1",
    "name": "\uac08\ub9e4\uae30 \ube0c\ub8e8\uc789(Galmegi Brewing)",
    "brewery_type": "micro",
    "address_1": "260, Pyeonggang-ro 171beon-gil",
    "address_2": null,
    "address_3": null,
    "city": "Gangseo-gu",
    "state_province": "Busan",
    "postal_code": "46704",
    "country": "South Korea",
    "longitude": 128.9441073,
    "latitude": 35.20811413,
    "phone": "051-611-9658",
    "website_url": "https://www.galmegibrewing.com/",
    "state": "Busan",
    "street": "260, Pyeonggang-ro 171beon-gil"
  },
  {
    "id": "63fc12a0-bbb7-4bdf-9d14-176bbf70e5d9",
    "name": "\uac10\uc790\uc544\uc77c\ub79c\ub4dc(Gamja Island)",
    "brewery_type": "brewpub",
    "address_1": "163, Sau-ro",
    "address_2": null,
    "address_3": null,
    "city": "Chuncheon-si",
    "state_province": "Gangwondo",
    "postal_code": "24220",
    "country": "South Korea",
    "longitude": 127.742945,
    "latitude": 37.90739745,
    "phone": "070-8098-0621",
    "website_url": "http://gamjaisland.com/",
    "state": "Gangwondo",
    "street": "163, Sau-ro"
  },
  {
    "id": "2068d17b-bcaa-4423-a892-73f521bd1ee7",
    "name": "\uac15\ub989\ube0c\ub8e8\uc5b4\ub9ac \ubc14\uc774 \ud604 (Gangneung_Brewery)",
    "brewery_type": "brewpub",
    "address_1": "9,Yulgokchogyo-gil 11beon-gil",
    "address_2": null,
    "address_3": null,
    "city": "Gangneung-si",
    "state_province": "Gangwondo",
    "postal_code": "25510",
    "country": "South Korea",
    "longitude": 128.8797275,
    "latitude": 37.76757831,
    "phone": "033-655-1357",
    "website_url": "http://instagram.com/gangneung_brewery",
    "state": "Gangwondo",
    "street": "9,Yulgokchogyo-gil 11beon-gil"
  },
  {
    "id": "3aa64cd7-7e03-4d51-b5f2-f04b6fd4b96f",
    "name": "\uace0\ub9b4\ub77c \ube0c\ub8e8\uc789(Gorilla Brewing)",
    "brewery_type": "brewpub",
    "address_1": "125, Gwangnam-ro",
    "address_2": null,
    "address_3": null,
    "city": "Suyeong-gu",
    "state_province": "Busan",
    "postal_code": "48299",
    "country": "South Korea",
    "longitude": 129.1161812,
    "latitude": 35.15273431,
    "phone": "070-4837-6258",
    "website_url": "http://www.gorilla.beer",
    "state": "Busan",
    "street": "125, Gwangnam-ro"
  },
  {
    "id": "b8c16e2e-ca1a-4e17-869c-a51995c898c8",
    "name": "\uace0\ube0c\ub8e8(Gobrew)",
    "brewery_type": "brewpub",
    "address_1": "171, Namseongjung-ro",
    "address_2": null,
    "address_3": null,
    "city": "Seogwipo-si",
    "state_province": "Jejudo",
    "postal_code": "63594",
    "country": "South Korea",
    "longitude": 126.5525325,
    "latitude": 33.24705985,
    "phone": "064-733-5747",
    "website_url": "http://www.instagram.com/gobrew_jeju",
    "state": "Jejudo",
    "street": "171, Namseongjung-ro"
  },
  {
    "id": "4c43ba95-1293-4ce5-9910-65976e0ef297",
    "name": "\uad7f\ub9e8 \ube0c\ub8e8\uc5b4\ub9ac(Goodman Brewery)",
    "brewery_type": "brewpub",
    "address_1": "46-4, Donggureung-ro 389beon-gil",
    "address_2": null,
    "address_3": null,
    "city": "Guri-si",
    "state_province": "Gyeonggido",
    "postal_code": "11905",
    "country": "South Korea",
    "longitude": 127.1395861,
    "latitude": 37.63278304,
    "phone": "031-572-6376",
    "website_url": "http://goodmanbrewery.co.kr/",
    "state": "Gyeonggido",
    "street": "46-4, Donggureung-ro 389beon-gil"
  },
  {
    "id": "928e682d-b4d2-445b-8147-3fe8b727b0b7",
    "name": "\ub07d\ube44\uc5b4\ucef4\ud37c\ub2c8 (Ggeek Beer Co,.)",
    "brewery_type": "brewpub",
    "address_1": "157, Eulji-ro",
    "address_2": null,
    "address_3": null,
    "city": "Jung-gu",
    "state_province": "Seoul",
    "postal_code": "04545",
    "country": "South Korea",
    "longitude": 126.9955347,
    "latitude": 37.56670438,
    "phone": "070-8152-1234",
    "website_url": "http://www.ggeekbeer.com",
    "state": "Seoul",
    "street": "157, Eulji-ro"
  },
  {
    "id": "94afa064-fd4d-422e-8490-b87eeeb22b5a",
    "name": "\ub178\ub9e4\ub515 \ube0c\ub8e8\uc789 \ucef4\ud37c\ub2c8(Nomadic Brewing Co.)",
    "brewery_type": "brewpub",
    "address_1": "12-10, Jeollagamyeong 3-gil",
    "address_2": "Wansan-gu",
    "address_3": null,
    "city": "Jeonju-si",
    "state_province": "Jeollabukdo",
    "postal_code": "55038",
    "country": "South Korea",
    "longitude": 127.1437952,
    "latitude": 35.81642148,
    "phone": "063-902-3924",
    "website_url": "http://instagram.com/nomadicbrewingco",
    "state": "Jeollabukdo",
    "street": "12-10, Jeollagamyeong 3-gil"
  },
  {
    "id": "5c68b706-804c-4554-b37e-09732562d708",
    "name": "\ub300\ub3c4\uc591\uc870\uc7a5(daedo brewing)",
    "brewery_type": "brewpub",
    "address_1": "47, Dongdeok-ro 14-gil",
    "address_2": null,
    "address_3": null,
    "city": "Jung-gu",
    "state_province": "Deagu",
    "postal_code": "41951",
    "country": "South Korea",
    "longitude": 128.6064699,
    "latitude": 35.86077096,
    "phone": "0507-1446-2345",
    "website_url": "https://www.instagram.com/daedo_brewing",
    "state": "Deagu",
    "street": "47, Dongdeok-ro 14-gil"
  },
  {
    "id": "bbe3d2b7-7c04-413b-82d0-a7bb9428c4d2",
    "name": "\ub354\ub79c\uce58 \ube0c\ub8e8\uc789(The Ranch Brewing)",
    "brewery_type": "brewpub",
    "address_1": "62, Gyebaek-ro 1249beonan-gil",
    "address_2": null,
    "address_3": null,
    "city": "Seo-gu",
    "state_province": "Daejeon",
    "postal_code": "35341",
    "country": "South Korea",
    "longitude": 127.3577529,
    "latitude": 36.31151337,
    "phone": "042-581-2060",
    "website_url": "http://ranchbrewing.com/landing/",
    "state": "Daejeon",
    "street": "62, Gyebaek-ro 1249beonan-gil"
  },
  {
    "id": "a755275d-e8a5-47ea-aecb-9bf2a7449613",
    "name": "\ub3d9\ub450\ucc9c \ube0c\ub8e8\uc5b4\ub9ac(Dongducheon Brewery)",
    "brewery_type": "brewpub",
    "address_1": "293, Jungang-ro",
    "address_2": null,
    "address_3": null,
    "city": "Dongducheon-si",
    "state_province": "Gyeonggido",
    "postal_code": "11328",
    "country": "South Korea",
    "longitude": 127.0544792,
    "latitude": 37.90778029,
    "phone": "031-827-1635",
    "website_url": "https://www.instagram.com/dongducheon_brewery/",
    "state": "Gyeonggido",
    "street": "293, Jungang-ro"
  },
  {
    "id": "71a7d2ab-a710-4c5e-923f-1e08161b659e",
    "name": "\ub77c\ubbf8\ube0c\ub8e8\uc789(Rami Brewing)",
    "brewery_type": "brewpub",
    "address_1": "177, Samgwi-ro",
    "address_2": "Seongsan-gu",
    "address_3": null,
    "city": "Changwon-si",
    "state_province": "Gyeongsangnamdo",
    "postal_code": "51705",
    "country": "South Korea",
    "longitude": 128.5981608,
    "latitude": 35.16977871,
    "phone": "055-266-2881",
    "website_url": "http://instagram.com/ramibrewing",
    "state": "Gyeongsangnamdo",
    "street": "177, Samgwi-ro"
  },
  {
    "id": "9889fc71-4552-4291-8bc4-badc5ce30033",
    "name": "\ub77c\uc778\ub3c4\uc774\uce58(Reindeutsch Brewery)",
    "brewery_type": "brewpub",
    "address_1": "103, Miujihaean-ro",
    "address_2": null,
    "address_3": null,
    "city": "Tongyeong-si",
    "state_province": "Gyeongsangnamdo",
    "postal_code": "53069",
    "country": "South Korea",
    "longitude": 128.3962616,
    "latitude": 34.82563356,
    "phone": "055-643-7758",
    "website_url": "http://www.reindeutsch.com",
    "state": "Gyeongsangnamdo",
    "street": "103, Miujihaean-ro"
  },
  {
    "id": "419822d1-2c04-4a47-adc3-e17747e7bdb7",
    "name": "\ub9e4\uc9c1\ud2b8\ub9ac \ube0c\ub8e8\uc5b4\ub9ac(Magictree Brewery)",
    "brewery_type": "brewpub",
    "address_1": "39, Baengnyeong-ro",
    "address_2": "Cheoin-gu",
    "address_3": null,
    "city": "Yongin-si",
    "state_province": "Gyeonggido",
    "postal_code": "17042",
    "country": "South Korea",
    "longitude": 127.1922904,
    "latitude": 37.26293486,
    "phone": "031-338-2337",
    "website_url": "https://magictreebrewery.com/",
    "state": "Gyeonggido",
    "street": "39, Baengnyeong-ro"
  },
  {
    "id": "df058920-2603-47b9-9c61-b524fde39f7b",
    "name": "\ub9e5\ud30c\uc774 \ube0c\ub8e8\uc5b4\ub9ac(Magpie Brewing Co.)",
    "brewery_type": "brewpub",
    "address_1": "23, Donghoecheon 1-gil",
    "address_2": null,
    "address_3": null,
    "city": "Jeju-si",
    "state_province": "Jejudo",
    "postal_code": "63329",
    "country": "South Korea",
    "longitude": 126.617303,
    "latitude": 33.50290817,
    "phone": "064-721-0227",
    "website_url": "http://www.magpiebrewing.com/",
    "state": "Jejudo",
    "street": "23, Donghoecheon 1-gil"
  },
  {
    "id": "dbe868ec-d1f5-4624-9661-c14d150d6071",
    "name": "\ubbf8\uc2a4\ud130\ub9ac \ube0c\ub8e8\uc789 (MysterLee Brewing Co.)",
    "brewery_type": "brewpub",
    "address_1": "311, Dongmak-ro",
    "address_2": null,
    "address_3": null,
    "city": "Mapo-gu",
    "state_province": "Seoul",
    "postal_code": "04156",
    "country": "South Korea",
    "longitude": 126.9474136,
    "latitude": 37.5438955,
    "phone": "02-3272-6337",
    "website_url": "http://www.mysterleebrewing.com/",
    "state": "Seoul",
    "street": "311, Dongmak-ro"
  },
  {
    "id": "37ce8020-c9d0-421c-a255-381f946a2a82",
    "name": "\ubc14\ub124\ud558\uc784 \ube0c\ub8e8\uc5b4\ub9ac(Vaneheim Brewery)",
    "brewery_type": "micro",
    "address_1": "65-1, Naegak 1-ro 73beon-gil",
    "address_2": "Jinjeop-eup",
    "address_3": null,
    "city": "Namyangju-si",
    "state_province": "Gyeonggido",
    "postal_code": "12071",
    "country": "South Korea",
    "longitude": 127.1616309,
    "latitude": 37.70915976,
    "phone": "031-529-8003",
    "website_url": "http://vaneheimbeer.com/",
    "state": "Gyeonggido",
    "street": "65-1, Naegak 1-ro 73beon-gil"
  },
  {
    "id": "3a89c7d1-cddb-4036-af38-a95b2b9a08bd",
    "name": "\ubc14\uc774\uc820\ud558\uc6b0\uc2a4(WeizenHouse)",
    "brewery_type": "micro",
    "address_1": "125,Seonggok-gil",
    "address_2": "Useong-myeon",
    "address_3": null,
    "city": "Gongju-si",
    "state_province": "Chungcheongnamdo",
    "postal_code": "32531",
    "country": "South Korea",
    "longitude": 127.0708877,
    "latitude": 36.48886677,
    "phone": "1661-5869",
    "website_url": "http://www.weizenhaus.com/",
    "state": "Chungcheongnamdo",
    "street": "125,Seonggok-gil"
  },
  {
    "id": "55a5f03f-e3fa-4aed-8226-1acce1b71cf3",
    "name": "\ubc84\ub4dc\ub098\ubb34 \ube0c\ub8e8\uc5b4\ub9ac(Budnamu Brewery)",
    "brewery_type": "brewpub",
    "address_1": "1961,Gyeonggang-ro",
    "address_2": null,
    "address_3": null,
    "city": "Gangneung-si",
    "state_province": "Gangwondo",
    "postal_code": "25537",
    "country": "South Korea",
    "longitude": 128.8843981,
    "latitude": 37.74812404,
    "phone": "033-920-9380",
    "website_url": "https://www.instagram.com/budnamu_brewery/",
    "state": "Gangwondo",
    "street": "1961,Gyeonggang-ro"
  },
  {
    "id": "41bf9f06-ce1a-43b2-9e05-af3862488092",
    "name": "\ubd80\uc0b0\ud504\ub77c\uc774\ub4dc \ube0c\ub8e8\uc789(Busanpride Brewery)",
    "brewery_type": "brewpub",
    "address_1": "84-2, Dongseo-gil",
    "address_2": null,
    "address_3": "Gijang-eup",
    "city": "Gijang-eup",
    "state_province": "Busan",
    "postal_code": "46052",
    "country": "South Korea",
    "longitude": 129.1990401,
    "latitude": 35.25822518,
    "phone": "051-723-3213",
    "website_url": "http://busanpridebrewery.com/",
    "state": "Busan",
    "street": "84-2, Dongseo-gil"
  },
  {
    "id": "a489a154-1f69-4eaa-9680-22e0646c192a",
    "name": "\ube0c\ub8e8\uc5b4\ub9ac304 (Brewery 304)",
    "brewery_type": "brewpub",
    "address_1": "7, Tongil-ro 11-gil",
    "address_2": null,
    "address_3": null,
    "city": "Seodaemun-gu",
    "state_province": "Seoul",
    "postal_code": "03734",
    "country": "South Korea",
    "longitude": 126.962571,
    "latitude": 37.56924092,
    "phone": "02-363-7304",
    "website_url": "https://www.brewery304.com/",
    "state": "Seoul",
    "street": "7, Tongil-ro 11-gil"
  },
  {
    "id": "adbffc2c-c973-441f-85a1-aac0f876f20b",
    "name": "\ube14\ub8e8\uc6e8\uc77c\ube0c\ub8e8\ud558\uc6b0\uc2a4(BlueWhale Brewhouse)",
    "brewery_type": "brewpub",
    "address_1": "109, Sajik-ro",
    "address_2": null,
    "address_3": null,
    "city": "Chungju-si",
    "state_province": "Chungcheongbukdo",
    "postal_code": "27410",
    "country": "South Korea",
    "longitude": 127.9248097,
    "latitude": 36.96760505,
    "phone": "043-843-7773",
    "website_url": "https://whalebeer.modoo.at/",
    "state": "Chungcheongbukdo",
    "street": "109, Sajik-ro"
  },
  {
    "id": "4065feb7-008b-4010-bc89-9220d39ab2af",
    "name": "\ube44\uc544\ube0c\ub8e8\uc5b4\ub9ac(Via Brewery)",
    "brewery_type": "brewpub",
    "address_1": "47, Imbangul-daero 826beon-gil",
    "address_2": null,
    "address_3": null,
    "city": "Gwangsan-gu",
    "state_province": "Gwangju",
    "postal_code": "62279",
    "country": "South Korea",
    "longitude": 126.8492063,
    "latitude": 35.21530647,
    "phone": "070-4126-4110",
    "website_url": "https://www.instagram.com/via_pub/",
    "state": "Gwangju",
    "street": "47, Imbangul-daero 826beon-gil"
  },
  {
    "id": "9ad6ad04-85ec-453d-b18c-c6c099794f69",
    "name": "\ube44\uc5b4\ubc14\ub098 (Beer Vana Brewing Co.)",
    "brewery_type": "brewpub",
    "address_1": "5-1, Dorim-ro 129-gil",
    "address_2": null,
    "address_3": null,
    "city": "Yeongdeungpo-gu",
    "state_province": "Seoul",
    "postal_code": "07290",
    "country": "South Korea",
    "longitude": 126.8952771,
    "latitude": 37.5133648,
    "phone": "02-2634-6277",
    "website_url": "https://www.instagram.com/beervana_brewery_seoul/",
    "state": "Seoul",
    "street": "5-1, Dorim-ro 129-gil"
  },
  {
    "id": "115b67f2-e2ec-4d54-9efb-a5dc5a38933a",
    "name": "\uc11c\uc6b8 \ube0c\ub8e8\uc5b4\ub9ac (Seoul Brewery)",
    "brewery_type": "brewpub",
    "address_1": "10, Tojeong-ro 3an-gil",
    "address_2": null,
    "address_3": null,
    "city": "Mapo-gu",
    "state_province": "Seoul",
    "postal_code": "04083",
    "country": "South Korea",
    "longitude": 126.9146756,
    "latitude": 37.54594861,
    "phone": "070-7756-0915",
    "website_url": "https://www.seoulbrewery.com/home",
    "state": "Seoul",
    "street": "10, Tojeong-ro 3an-gil"
  },
  {
    "id": "7d5a3056-0c03-4a76-ba08-befd4f61b5e9",
    "name": "\uc11c\uc6b8\uc9d1\uc2dc (Seoul Gypsy)",
    "brewery_type": "brewpub",
    "address_1": "107, Seosulla-gil",
    "address_2": null,
    "address_3": null,
    "city": "Jongno-gu",
    "state_province": "Seoul",
    "postal_code": "03134",
    "country": "South Korea",
    "longitude": 126.9915676,
    "latitude": 37.57504419,
    "phone": "02-743-1212",
    "website_url": "http://instagram.com/seoulgypsy",
    "state": "Seoul",
    "street": "107, Seosulla-gil"
  },
  {
    "id": "b38a706c-f137-4c9f-8f9e-4d26332e86a4",
    "name": "\uc21c\uc131\uc591\uc870\uc7a5(Sunseong Brewery)",
    "brewery_type": "brewpub",
    "address_1": "394, Maesil-ro",
    "address_2": "Sunseong-myeon",
    "address_3": null,
    "city": "Dangjin-si",
    "state_province": "Chungcheongnamdo",
    "postal_code": "31757",
    "country": "South Korea",
    "longitude": 126.7071635,
    "latitude": 36.83056542,
    "phone": "041-354-1204",
    "website_url": "https://www.instagram.com/sunseongbrew",
    "state": "Chungcheongnamdo",
    "street": "394, Maesil-ro"
  },
  {
    "id": "b5c4192b-902c-4073-ab22-128e7833ae17",
    "name": "\uc21c\ucc9c\uc591\uc870\uc7a5(Suncheon Brewery)",
    "brewery_type": "brewpub",
    "address_1": "57, Yeokjeon-gil",
    "address_2": null,
    "address_3": null,
    "city": "Suncheon-si",
    "state_province": "Jeollanamdo",
    "postal_code": "57964",
    "country": "South Korea",
    "longitude": 127.4987434,
    "latitude": 34.94739604,
    "phone": "061-745-2545",
    "website_url": "https://www.instagram.com/suncheon_brewery/",
    "state": "Jeollanamdo",
    "street": "57, Yeokjeon-gil"
  },
  {
    "id": "2abf3e94-2824-4c4a-999d-bd4f475bf553",
    "name": "\uc2a4\ud034\uc988\ube0c\ub8e8\uc5b4\ub9ac(Squeeze Brewery)",
    "brewery_type": "brewpub",
    "address_1": "353, Gongji-ro",
    "address_2": null,
    "address_3": null,
    "city": "Chuncheon-si",
    "state_province": "Gangwondo",
    "postal_code": "24365",
    "country": "South Korea",
    "longitude": 127.7270367,
    "latitude": 37.86982853,
    "phone": "033-818-1663",
    "website_url": "http://squeezebrewery.com/",
    "state": "Gangwondo",
    "street": "353, Gongji-ro"
  },
  {
    "id": "e706c6ba-82d4-4099-adb8-83054ae146ed",
    "name": "\uc544\ub9ac\ub791 \ube0c\ub8e8\uc5b4\ub9ac(Alilang-Brewery)",
    "brewery_type": "brewpub",
    "address_1": "26-55, Yemi 2-gil",
    "address_2": "Sindong-eup",
    "address_3": null,
    "city": "Jeongseon-gun",
    "state_province": "Gangwondo",
    "postal_code": "26142",
    "country": "South Korea",
    "longitude": 128.6513589,
    "latitude": 37.21507529,
    "phone": "033-378-7177",
    "website_url": "http://www.xn--9i2blz0qc217czqmswa.com/",
    "state": "Gangwondo",
    "street": "26-55, Yemi 2-gil"
  },
  {
    "id": "09c1e42a-8e73-4097-af34-f1ff0cd6034e",
    "name": "\uc544\uc26c\ud2b8\ub9ac (Ash Tree Brewery)",
    "brewery_type": "brewpub",
    "address_1": "22 Achasan-ro 49-gil",
    "address_2": null,
    "address_3": null,
    "city": "Gwangjin-gu",
    "state_province": "Seoul",
    "postal_code": "05043",
    "country": "South Korea",
    "longitude": 127.0323206,
    "latitude": 37.49360307,
    "phone": "02-6339-4858",
    "website_url": "https://www.ashtreebrewery.com/",
    "state": "Seoul",
    "street": "22 Achasan-ro 49-gil"
  },
  {
    "id": "930d5e04-4234-4bf4-9d32-ad0d812d1a95",
    "name": "\uc544\ud1a4\ube0c\ub8e8\uc5b4\ub9ac (Aton Brewery)",
    "brewery_type": "brewpub",
    "address_1": "23, Jangmun-ro",
    "address_2": null,
    "address_3": null,
    "city": "Yongsan-gu",
    "state_province": "Seoul",
    "postal_code": "04392",
    "country": "South Korea",
    "longitude": 126.9930459,
    "latitude": 37.52846912,
    "phone": "070-4009-5849",
    "website_url": "http://www.instagram.com/aton_brewery",
    "state": "Seoul",
    "street": "23, Jangmun-ro"
  },
  {
    "id": "aad01f28-c9ad-4b8a-b3f4-90fe07485602",
    "name": "\uc548\ub3d9\uac00\uc625(Andong House)",
    "brewery_type": "brewpub",
    "address_1": "16-7, Munhwagwangjang-gil",
    "address_2": null,
    "address_3": null,
    "city": "Andong-si",
    "state_province": "Gyeongsangbukdo",
    "postal_code": "36700",
    "country": "South Korea",
    "longitude": 128.7307751,
    "latitude": 36.56384588,
    "phone": "054-901-5550",
    "website_url": "http://instagram.com/andongbeer.pub",
    "state": "Gyeongsangbukdo",
    "street": "16-7, Munhwagwangjang-gil"
  },
  {
    "id": "99fdc1ac-a3ae-4754-8467-ed70f03c9048",
    "name": "\uc548\ub3d9\ube0c\ub8e8\uc5b4\ub9ac(Andong Brewing Co.)",
    "brewery_type": "micro",
    "address_1": "98, Goejeong 2-gil,",
    "address_2": "Pungsan-eup",
    "address_3": null,
    "city": "Andong-si",
    "state_province": "Gyeongsangbukdo",
    "postal_code": "36619",
    "country": "South Korea",
    "longitude": 128.5337984,
    "latitude": 36.60338246,
    "phone": "054-852-9602",
    "website_url": "https://www.instagram.com/andongbrewing/",
    "state": "Gyeongsangbukdo",
    "street": "98, Goejeong 2-gil,"
  },
  {
    "id": "363c5d1f-99e3-4b8a-afc7-acd4a7c30a1f",
    "name": "\uc5b4\uba54\uc774\uc9d5\ube0c\ub8e8\uc789\ucef4\ud37c\ub2c8 (Amazing Brewing Company)",
    "brewery_type": "brewpub",
    "address_1": "4, Seongsuil-ro 4-gil",
    "address_2": null,
    "address_3": null,
    "city": "Seongdong-gu",
    "state_province": "Seoul",
    "postal_code": "04780",
    "country": "South Korea",
    "longitude": 127.0495044,
    "latitude": 37.54297518,
    "phone": "02-465-5208",
    "website_url": "http://www.amazingbrewing.co.kr",
    "state": "Seoul",
    "street": "4, Seongsuil-ro 4-gil"
  },
  {
    "id": "0616a0ff-c23f-4cf3-a4c6-34b7f47f581c",
    "name": "\uc5d0\uc77c\ud06c\ub8e8\ube0c\ub8e8\uc789 (Alecrew Brewing)",
    "brewery_type": "brewpub",
    "address_1": "87, Moraenae-ro",
    "address_2": null,
    "address_3": null,
    "city": "Mapo-gu",
    "state_province": "Seoul",
    "postal_code": "03949",
    "country": "South Korea",
    "longitude": 126.912452,
    "latitude": 37.56657473,
    "phone": "02-304-8663",
    "website_url": "https://www.instagram.com/alecrew_brewing",
    "state": "Seoul",
    "street": "87, Moraenae-ro"
  },
  {
    "id": "cfa85b4b-30b6-4775-8e83-33339b8f877f",
    "name": "\uc5d0\uc787\ud53c\ud50c\ube0c\ub8e8\uc5b4\ub9ac(Eight People Brewery)",
    "brewery_type": "brewpub",
    "address_1": "3, Jaejaegi-ro 190beonan-gil",
    "address_2": "Hwado-eup",
    "address_3": null,
    "city": "Namyangju-si",
    "state_province": "Gyeonggido",
    "postal_code": "12200",
    "country": "South Korea",
    "longitude": 127.3033051,
    "latitude": 37.61749196,
    "phone": "031-595-5589",
    "website_url": "https://www.facebook.com/eightpeoplebrew/",
    "state": "Gyeonggido",
    "street": "3, Jaejaegi-ro 190beonan-gil"
  },
  {
    "id": "1b8e9bf0-27a4-4943-a268-d5ba4a6cd93d",
    "name": "\uc5d1\uc2a4\ud2b8\ub77c\uc2a4\ubab0\ube0c\ub8e8\uc789\ub8f8(XSBREWING-ROOM)",
    "brewery_type": "brewpub",
    "address_1": "19, Cheongmyeong-ro",
    "address_2": null,
    "address_3": null,
    "city": "Yeonsu-gu",
    "state_province": "Incheon",
    "postal_code": "21917",
    "country": "South Korea",
    "longitude": 126.6752048,
    "latitude": 37.41755734,
    "phone": null,
    "website_url": "https://www.instagram.com/xs.brewing.rm/",
    "state": "Incheon",
    "street": "19, Cheongmyeong-ro"
  },
  {
    "id": "32a97b7b-726c-41a2-b019-0f34037c00ee",
    "name": "\uc640\uc77c\ub4dc \uc6e8\uc774\ube0c(Wild Wave Brewing Co.)",
    "brewery_type": "brewpub",
    "address_1": "106-1, Songjeongjungang-ro 5beon-gil",
    "address_2": null,
    "address_3": null,
    "city": "Haeundae-gu",
    "state_province": "Busan",
    "postal_code": "48071",
    "country": "South Korea",
    "longitude": 129.2035339,
    "latitude": 35.18781109,
    "phone": "051-702-0838",
    "website_url": "https://www.wildwavebrew.com/",
    "state": "Busan",
    "street": "106-1, Songjeongjungang-ro 5beon-gil"
  },
  {
    "id": "1ca23f38-8691-4f9f-93e8-4d3f6c777f92",
    "name": "\uc644\ubcbd\ud55c\uc778\uc0dd(Perfectlife Brewery)",
    "brewery_type": "brewpub",
    "address_1": "30, Dogil-ro",
    "address_2": "Samdong-myeon",
    "address_3": null,
    "city": "Namhae-gun",
    "state_province": "Gyeongsangnamdo",
    "postal_code": "52447",
    "country": "South Korea",
    "longitude": 128.0435747,
    "latitude": 34.79733881,
    "phone": "055-867-0108",
    "website_url": "http://www.instagram.com/perfectlife.official",
    "state": "Gyeongsangnamdo",
    "street": "30, Dogil-ro"
  },
  {
    "id": "696350cb-1ab1-4b6e-850e-478e839c7372",
    "name": "\uc778\ucc9c\ub9e5\uc8fc(incheon_brewery)",
    "brewery_type": "brewpub",
    "address_1": "41, Sinpo-ro 15beon-gil",
    "address_2": null,
    "address_3": null,
    "city": "Jung-gu",
    "state_province": "Incheon",
    "postal_code": "22314",
    "country": "South Korea",
    "longitude": 126.6222289,
    "latitude": 37.47157834,
    "phone": "070-7722-0705",
    "website_url": "https://www.instagram.com/incheon_brewery",
    "state": "Incheon",
    "street": "41, Sinpo-ro 15beon-gil"
  },
  {
    "id": "9ca48b41-3962-4c18-a8be-a95bf73fa2cb",
    "name": "\uc81c\uc8fc\uc57d\uc218\ud130(Jejubeerfountain)",
    "brewery_type": "brewpub",
    "address_1": "35, Jungang-ro",
    "address_2": null,
    "address_3": null,
    "city": "Seogwipo-si",
    "state_province": "Jejudo",
    "postal_code": "63592",
    "country": "South Korea",
    "longitude": 126.5617044,
    "latitude": 33.24773328,
    "phone": "064-805-6572",
    "website_url": "http://www.instagram.com/jeju_beer_fountain",
    "state": "Jejudo",
    "street": "35, Jungang-ro"
  },
  {
    "id": "faefcbd2-3178-44c7-9520-de488f8ac4d1",
    "name": "\uce60\ud649\uc2a4 \ube0c\ub8e8\uc789(Chillhops Brewing Co.)",
    "brewery_type": "micro",
    "address_1": "148-3, Dongseo 1-ro",
    "address_2": null,
    "address_3": null,
    "city": "Seosan-si",
    "state_province": "Chungcheongnamdo",
    "postal_code": "31999",
    "country": "South Korea",
    "longitude": 126.4545751,
    "latitude": 36.76696044,
    "phone": "010-3022-4997",
    "website_url": "https://www.instagram.com/chillhopsbrewingco/",
    "state": "Chungcheongnamdo",
    "street": "148-3, Dongseo 1-ro"
  },
  {
    "id": "bc6e84e7-5020-4b1a-b81d-ec55683bc92d",
    "name": "\uce74\ube0c\ub8e8 (Ka-Brew)",
    "brewery_type": "brewpub",
    "address_1": "403, Songpa-daero",
    "address_2": null,
    "address_3": null,
    "city": "Songpa-gu",
    "state_province": "Seoul",
    "postal_code": "05686",
    "country": "South Korea",
    "longitude": 127.1087119,
    "latitude": 37.50309293,
    "phone": "02-3143-4082",
    "website_url": "http://www.kabrew.co.kr/",
    "state": "Seoul",
    "street": "403, Songpa-daero"
  },
  {
    "id": "659c476d-0144-48e3-baf4-d90b2d6c11e6",
    "name": "\uceec\ub7ec\ub4dc(Coloredd)",
    "brewery_type": "brewpub",
    "address_1": "39, Busandaehak-ro 63beon-gil",
    "address_2": null,
    "address_3": null,
    "city": "Geumjeong-gu",
    "state_province": "Busan",
    "postal_code": "46288",
    "country": "South Korea",
    "longitude": 129.084145,
    "latitude": 35.22989272,
    "phone": "051-518-3771",
    "website_url": "https://www.instagram.com/coloredd_brew/",
    "state": "Busan",
    "street": "39, Busandaehak-ro 63beon-gil"
  },
  {
    "id": "9f991b54-eff1-4126-9cc2-b03bfdf9e0ce",
    "name": "\ud06c\ub798\uba38\ub9ac \ube0c\ub8e8\uc5b4\ub9ac(Kraemerlee Brewery)",
    "brewery_type": "brewpub",
    "address_1": "429, Cheonggun-ro",
    "address_2": "Sang-myeon",
    "address_3": null,
    "city": "Gapyeong-gun",
    "state_province": "Gyeonggido",
    "postal_code": "12446",
    "country": "South Korea",
    "longitude": 127.3943665,
    "latitude": 37.7603212,
    "phone": "031-585-5977",
    "website_url": "https://www.instagram.com/kraemerlee/",
    "state": "Gyeonggido",
    "street": "429, Cheonggun-ro"
  },
  {
    "id": "fd23a3cb-6b21-44d3-b40c-008564f2f4f0",
    "name": "\ud06c\ub798\ud504\ud2b8\ube0c\ub85c\uc2a4 \ud0ed\ud558\uc6b0\uc2a4 & \ubc14\ud2c0\uc0f5 (Craftbros Tap House & Bottle Shop)",
    "brewery_type": "brewpub",
    "address_1": "18 Sapyeong-daero 22-gil",
    "address_2": null,
    "address_3": null,
    "city": "Seocho-gu",
    "state_province": "Seoul",
    "postal_code": "06576",
    "country": "South Korea",
    "longitude": 126.9977006,
    "latitude": 37.498793,
    "phone": "02-537-7451",
    "website_url": "http://www.craftbros.co.kr/",
    "state": "Seoul",
    "street": "18 Sapyeong-daero 22-gil"
  },
  {
    "id": "b41b1c36-6f0d-4afb-9574-0d84f1af12d0",
    "name": "\ud14c\ub77c\uc2a4\ud3ec\ub4dc \ube0c\ub8e8\uc789(Tetrapod Brewing)",
    "brewery_type": "brewpub",
    "address_1": "77, Jungang-daero 680beonga-gil",
    "address_2": null,
    "address_3": null,
    "city": "Busanjin-gu",
    "state_province": "Busan",
    "postal_code": "47292",
    "country": "South Korea",
    "longitude": 129.0609993,
    "latitude": 35.15692356,
    "phone": "051-791-1002",
    "website_url": "https://www.instagram.com/tetrapod_brewing_co/",
    "state": "Busan",
    "street": "77, Jungang-daero 680beonga-gil"
  },
  {
    "id": "d67acf79-8ca9-4932-9b34-d6578d83ffaa",
    "name": "\ud23c\ube0c\ub85c\uc774(Turmbrau)",
    "brewery_type": "brewpub",
    "address_1": "1244, Haeun-daero",
    "address_2": null,
    "address_3": null,
    "city": "Haeundae-gu",
    "state_province": "Busan",
    "postal_code": "48069",
    "country": "South Korea",
    "longitude": 129.2059199,
    "latitude": 35.19578923,
    "phone": "050-71342-6297",
    "website_url": "https://www.instagram.com/turmbrau_korea/",
    "state": "Busan",
    "street": "1244, Haeun-daero"
  }
]