[
  {
    "id": "9e7959cb-8292-4892-aa10-6467c2b764b0",
    "name": "BKS Artisan Ales",
    "brewery_type": "micro",
    "address_1": "633 E 63rd St #120",
    "address_2": null,
    "address_3": null,
    "city": "Kansas City",
    "state_province": "Missouri",
    "postal_code": "64110",
    "country": "United States",
    "longitude": -94.493961,
    "latitude": 39.010093,
    "phone": "8166733027",
    "website_url": "http://www.bksartisanales.com",
    "state": "Missouri",
    "street": "633 E 63rd St #120"
  },
  {
    "id": "e018afc5-b867-44d2-b3e6-9f54e66bc5c8",
    "name": "Bl\u00c3\u00bc Dragonfly Brewing",
    "brewery_type": "brewpub",
    "address_1": "301 E 9th St # C",
    "address_2": null,
    "address_3": null,
    "city": "Cimarron",
    "state_province": "New Mexico",
    "postal_code": "87714-4027",
    "country": "United States",
    "longitude": -104.914428,
    "latitude": 36.511427,
    "phone": "9186361095",
    "website_url": null,
    "state": "New Mexico",
    "street": "301 E 9th St # C"
  },
  {
    "id": "64fd68cb-1304-41c8-b42d-0b5e801e7156",
    "name": "Black Acre Brewing Co",
    "brewery_type": "brewpub",
    "address_1": "5632 E Washington St",
    "address_2": null,
    "address_3": null,
    "city": "Indianapolis",
    "state_province": "Indiana",
    "postal_code": "46219-6428",
    "country": "United States",
    "longitude": -86.1452662,
    "latitude": 39.7668669,
    "phone": "3177973316",
    "website_url": "http://www.blackacrebrewing.com",
    "state": "Indiana",
    "street": "5632 E Washington St"
  },
  {
    "id": "6cab717d-2883-4869-ab9a-879f09319efb",
    "name": "Black Beak Brewing",
    "brewery_type": "planning",
    "address_1": null,
    "address_2": null,
    "address_3": null,
    "city": "Denver",
    "state_province": "Colorado",
    "postal_code": "80237-1907",
    "country": "United States",
    "longitude": -104.984696,
    "latitude": 39.7391428,
    "phone": "3032107836",
    "website_url": null,
    "state": "Colorado",
    "street": null
  },
  {
    "id": "77c455db-9445-408f-8447-c4d28830edf9",
    "name": "Black Bear Brewery",
    "brewery_type": "micro",
    "address_1": "19 Mill St Ste 4",
    "address_2": null,
    "address_3": null,
    "city": "Orono",
    "state_province": "Maine",
    "postal_code": "04473-4095",
    "country": "United States",
    "longitude": null,
    "latitude": null,
    "phone": "2078899123",
    "website_url": "http://www.blackbearmicrobrew.com",
    "state": "Maine",
    "street": "19 Mill St Ste 4"
  },
  {
    "id": "2d1c4b89-4d44-4f47-8ea1-b11fdfc247bd",
    "name": "Black Bottle Brewery",
    "brewery_type": "brewpub",
    "address_1": "1611 S College Ave Ste STE1609",
    "address_2": null,
    "address_3": null,
    "city": "Fort Collins",
    "state_province": "Colorado",
    "postal_code": "80525-1074",
    "country": "United States",
    "longitude": null,
    "latitude": null,
    "phone": "9704932337",
    "website_url": "http://www.blackbottlebrewery.com",
    "state": "Colorado",
    "street": "1611 S College Ave Ste STE1609"
  },
  {
    "id": "c616ab6b-bba4-4d23-b341-b325251f3420",
    "name": "Black Bridge Brewery",
    "brewery_type": "micro",
    "address_1": "421 E Beale St",
    "address_2": null,
    "address_3": null,
    "city": "Kingman",
    "state_province": "Arizona",
    "postal_code": "86401-5833",
    "country": "United States",
    "longitude": -114.051737,
    "latitude": 35.1895877,
    "phone": "9283773618",
    "website_url": "http://www.blackbridgebrewery.com",
    "state": "Arizona",
    "street": "421 E Beale St"
  },
  {
    "id": "01a7842a-3139-475e-95e9-e5a671c236ef",
    "name": "Black Cat Brewing",
    "brewery_type": "planning",
    "address_1": null,
    "address_2": null,
    "address_3": null,
    "city": "Boulder",
    "state_province": "Colorado",
    "postal_code": "80302",
    "country": "United States",
    "longitude": -105.2705456,
    "latitude": 40.0149856,
    "phone": null,
    "website_url": "http://www.blackcatbrewing.com",
    "state": "Colorado",
    "street": null
  },
  {
    "id": "fd28030a-631f-410a-b426-9c67c29b3175",
    "name": "Black Circle Brewing Co",
    "brewery_type": "micro",
    "address_1": "2201 E 46th St",
    "address_2": null,
    "address_3": null,
    "city": "Indianapolis",
    "state_province": "Indiana",
    "postal_code": "46205",
    "country": "United States",
    "longitude": -86.123944,
    "latitude": 39.8398813,
    "phone": "3174260143",
    "website_url": "http://www.blackcirclebrewing.com",
    "state": "Indiana",
    "street": "2201 E 46th St"
  },
  {
    "id": "7f459973-0ae7-40d5-825c-a6eaa6f3843a",
    "name": "Black Cloister Brewing Co",
    "brewery_type": "brewpub",
    "address_1": "619 Monroe St",
    "address_2": null,
    "address_3": null,
    "city": "Toledo",
    "state_province": "Ohio",
    "postal_code": "43604-1015",
    "country": "United States",
    "longitude": -83.5399665,
    "latitude": 41.6499863,
    "phone": "4192141500",
    "website_url": "http://www.blackcloister.com",
    "state": "Ohio",
    "street": "619 Monroe St"
  },
  {
    "id": "962e31a8-5230-4bf5-a006-cceed47b46bf",
    "name": "Black Cock Brewing Company",
    "brewery_type": "micro",
    "address_1": "1444 N Batavia St",
    "address_2": null,
    "address_3": null,
    "city": "Orange",
    "state_province": "California",
    "postal_code": "92867-3505",
    "country": "United States",
    "longitude": -117.8620026,
    "latitude": 33.8274902,
    "phone": "7147448410",
    "website_url": null,
    "state": "California",
    "street": "1444 N Batavia St"
  },
  {
    "id": "68534594-0610-4e38-93fa-b8a9e76941c6",
    "name": "Black Creek Brewery",
    "brewery_type": "micro",
    "address_1": "111 Depot St",
    "address_2": null,
    "address_3": null,
    "city": "Roxboro",
    "state_province": "North Carolina",
    "postal_code": "27573-5503",
    "country": "United States",
    "longitude": -78.98146367,
    "latitude": 36.39362085,
    "phone": "9195244319",
    "website_url": null,
    "state": "North Carolina",
    "street": "111 Depot St"
  },
  {
    "id": "73174f3a-40c5-49c4-8394-1a913831f14d",
    "name": "Black Donkey Brewing",
    "brewery_type": "micro",
    "address_1": "Srah Road",
    "address_2": null,
    "address_3": null,
    "city": "Ballinlough",
    "state_province": "Roscommon",
    "postal_code": "F45 KN60",
    "country": "Ireland",
    "longitude": -8.640373685,
    "latitude": 53.74460665,
    "phone": null,
    "website_url": "http://blackdonkeybeer.com/",
    "state": "Roscommon",
    "street": "Srah Road"
  },
  {
    "id": "149e2ad1-8a38-4659-a11a-0b2647d5a788",
    "name": "Black Doubt Brewing Company",
    "brewery_type": "micro",
    "address_1": "452 Old Mammoth Rd, #104",
    "address_2": null,
    "address_3": null,
    "city": "Mammoth Lakes",
    "state_province": "California",
    "postal_code": "93546",
    "country": "United States",
    "longitude": -118.9668019,
    "latitude": 37.6395882,
    "phone": "7605250462",
    "website_url": "http://www.blackdoubtbrewing.com",
    "state": "California",
    "street": "452 Old Mammoth Rd, #104"
  },
  {
    "id": "a539c80f-cfa0-400c-9eb5-a2fe8a882343",
    "name": "Black Eagle Brewery",
    "brewery_type": "micro",
    "address_1": "1600 25th Ave NE",
    "address_2": null,
    "address_3": null,
    "city": "Black Eagle",
    "state_province": "Montana",
    "postal_code": "59414-1070",
    "country": "United States",
    "longitude": -111.279526,
    "latitude": 47.528243,
    "phone": "4068681866",
    "website_url": "http://www.pitstopblackeagle.com",
    "state": "Montana",
    "street": "1600 25th Ave NE"
  },
  {
    "id": "d7ae324d-dcc4-4b52-b857-35dca78f8c37",
    "name": "Black Fire Winery",
    "brewery_type": "micro",
    "address_1": "1261 E Munger Rd",
    "address_2": null,
    "address_3": null,
    "city": "Tecumseh",
    "state_province": "Michigan",
    "postal_code": "49286-8714",
    "country": "United States",
    "longitude": null,
    "latitude": null,
    "phone": "5174249232",
    "website_url": null,
    "state": "Michigan",
    "street": "1261 E Munger Rd"
  },
  {
    "id": "f6cc21c0-039d-4257-9869-b168502185d6",
    "name": "Black Flag Brewing Company",
    "brewery_type": "micro",
    "address_1": "9315 Snowden River Pkwy",
    "address_2": null,
    "address_3": null,
    "city": "Columbia",
    "state_province": "Maryland",
    "postal_code": "21046-2091",
    "country": "United States",
    "longitude": -76.810364,
    "latitude": 39.192524,
    "phone": "4438645139",
    "website_url": "http://www.blackflagbrewingco.com",
    "state": "Maryland",
    "street": "9315 Snowden River Pkwy"
  },
  {
    "id": "866e9938-a7ea-41c1-a2b9-81ecb26aa3b0",
    "name": "Black Fleet Brewing",
    "brewery_type": "micro",
    "address_1": "2302 Fawcett Ave",
    "address_2": null,
    "address_3": null,
    "city": "Tacoma",
    "state_province": "Washington",
    "postal_code": "98402-1402",
    "country": "United States",
    "longitude": -122.44036,
    "latitude": 47.24082,
    "phone": "2533271641",
    "website_url": "http://www.blackfleetbrewing.com",
    "state": "Washington",
    "street": "2302 Fawcett Ave"
  },
  {
    "id": "a0fadb5a-1b4c-4e40-9782-27f06c10a52d",
    "name": "Black Forest Brew Haus",
    "brewery_type": "brewpub",
    "address_1": "2015 New Hwy",
    "address_2": null,
    "address_3": null,
    "city": "Farmingdale",
    "state_province": "New York",
    "postal_code": "11735-1103",
    "country": "United States",
    "longitude": -73.41443291,
    "latitude": 40.7550515,
    "phone": "6313919500",
    "website_url": "http://www.blackforestbrewhaus.com",
    "state": "New York",
    "street": "2015 New Hwy"
  },
  {
    "id": "d3eba4df-b289-4ee6-ada9-da33ef0567aa",
    "name": "Black Forest Brewery",
    "brewery_type": "brewpub",
    "address_1": "301 W Main St",
    "address_2": null,
    "address_3": null,
    "city": "Ephrata",
    "state_province": "Pennsylvania",
    "postal_code": "17522-1713",
    "country": "United States",
    "longitude": -76.183579,
    "latitude": 40.181767,
    "phone": "7174507217",
    "website_url": "http://www.blackforestbrewery.net",
    "state": "Pennsylvania",
    "street": "301 W Main St"
  },
  {
    "id": "c8160b2b-3e43-4db3-bbd8-32f07a0a0060",
    "name": "Black Forest Brewing Company",
    "brewery_type": "brewpub",
    "address_1": "11590 Black Forest Rd Ste 50",
    "address_2": null,
    "address_3": null,
    "city": "Colorado Springs",
    "state_province": "Colorado",
    "postal_code": "80908-6000",
    "country": "United States",
    "longitude": null,
    "latitude": null,
    "phone": "7193962011",
    "website_url": "http://www.blackforestbrewco.com",
    "state": "Colorado",
    "street": "11590 Black Forest Rd Ste 50"
  },
  {
    "id": "aa85b666-63af-42fd-9f3a-0484bfc6666b",
    "name": "Black Frog Brewing Co",
    "brewery_type": "micro",
    "address_1": "831 S McCord Rd",
    "address_2": null,
    "address_3": null,
    "city": "Holland",
    "state_province": "Ohio",
    "postal_code": "43528-8746",
    "country": "United States",
    "longitude": -83.7032185,
    "latitude": 41.6171284,
    "phone": "4193897136",
    "website_url": "http://www.blackfrogbrewery.com",
    "state": "Ohio",
    "street": "831 S McCord Rd"
  },
  {
    "id": "e81bfb16-7efb-4b1f-bad8-9d0eeabc3157",
    "name": "Black Gold Brewing Co",
    "brewery_type": "brewpub",
    "address_1": "508 Center St",
    "address_2": null,
    "address_3": null,
    "city": "Taft",
    "state_province": "California",
    "postal_code": "93268-3109",
    "country": "United States",
    "longitude": -119.4591658,
    "latitude": 35.14109718,
    "phone": "6617656550",
    "website_url": null,
    "state": "California",
    "street": "508 Center St"
  },
  {
    "id": "26d678eb-fcce-4072-95aa-97afa8505925",
    "name": "Black Hammer Brewing",
    "brewery_type": "micro",
    "address_1": "544 Bryant St",
    "address_2": null,
    "address_3": null,
    "city": "San Francisco",
    "state_province": "California",
    "postal_code": "94107-1217",
    "country": "United States",
    "longitude": -122.3969947,
    "latitude": 37.780655,
    "phone": "4155002273",
    "website_url": "http://www.blackhammerbrewing.com",
    "state": "California",
    "street": "544 Bryant St"
  },
  {
    "id": "61d6bc91-4366-49a9-ac55-5eed49482fc7",
    "name": "Black Hat Brew Works",
    "brewery_type": "micro",
    "address_1": "25 Scotland Blvd # 1",
    "address_2": null,
    "address_3": null,
    "city": "Bridgewater",
    "state_province": "Massachusetts",
    "postal_code": "02324-2302",
    "country": "United States",
    "longitude": null,
    "latitude": null,
    "phone": "5088075172",
    "website_url": "http://www.blackhatbrewworks.com",
    "state": "Massachusetts",
    "street": "25 Scotland Blvd # 1"
  },
  {
    "id": "aac970a9-7070-42e1-b11b-c0aa516834e1",
    "name": "Black Hog Brewing Co",
    "brewery_type": "micro",
    "address_1": "115 Hurley Road, Building 9A",
    "address_2": null,
    "address_3": null,
    "city": "Oxford",
    "state_province": "Connecticut",
    "postal_code": "06478-1047",
    "country": "United States",
    "longitude": null,
    "latitude": null,
    "phone": "2032626075",
    "website_url": "http://www.blackhogbrewing.com",
    "state": "Connecticut",
    "street": "115 Hurley Road, Building 9A"
  },
  {
    "id": "d42db334-e706-4f48-b253-cbd3a5d25900",
    "name": "Black Hoof Brewing",
    "brewery_type": "micro",
    "address_1": "11 S King St",
    "address_2": null,
    "address_3": null,
    "city": "Leesburg",
    "state_province": "Virginia",
    "postal_code": "20175-2903",
    "country": "United States",
    "longitude": -77.5648925,
    "latitude": 39.1150351,
    "phone": "5717078014",
    "website_url": null,
    "state": "Virginia",
    "street": "11 S King St"
  },
  {
    "id": "4eac342b-e067-425f-995e-aeb089a10f85",
    "name": "Black Horizon Brewing Company",
    "brewery_type": "micro",
    "address_1": "7560 S Quincy St",
    "address_2": null,
    "address_3": null,
    "city": "Willowbrook",
    "state_province": "Illinois",
    "postal_code": "60527-5545",
    "country": "United States",
    "longitude": null,
    "latitude": null,
    "phone": "6304134964",
    "website_url": "http://www.blackhorizonbrewing.com",
    "state": "Illinois",
    "street": "7560 S Quincy St"
  },
  {
    "id": "7d158044-9d6a-40d2-8bb6-746035b3bc96",
    "name": "Black Horse Brewery",
    "brewery_type": "micro",
    "address_1": "1058 Burton Rd",
    "address_2": null,
    "address_3": null,
    "city": "Show Low",
    "state_province": "Arizona",
    "postal_code": "85901-3924",
    "country": "United States",
    "longitude": null,
    "latitude": null,
    "phone": "9285379349",
    "website_url": "http://www.blackhorsebrewery.us",
    "state": "Arizona",
    "street": "1058 Burton Rd"
  },
  {
    "id": "da6ab5c6-b221-47cd-97dc-eedd9bf5e589",
    "name": "Black Husky Brewing LLC",
    "brewery_type": "micro",
    "address_1": "909 E Locust St",
    "address_2": null,
    "address_3": null,
    "city": "Milwaukee",
    "state_province": "Wisconsin",
    "postal_code": "53212",
    "country": "United States",
    "longitude": -87.90008457,
    "latitude": 43.071024,
    "phone": "4045098855",
    "website_url": "http://www.blackhuskybrewing.com",
    "state": "Wisconsin",
    "street": "909 E Locust St"
  },
  {
    "id": "7812960a-df16-4738-beca-842fbc54d68e",
    "name": "Black Label Brewing Company",
    "brewery_type": "micro",
    "address_1": "19 W Main Ave",
    "address_2": null,
    "address_3": null,
    "city": "Spokane",
    "state_province": "Washington",
    "postal_code": "99201-5124",
    "country": "United States",
    "longitude": -117.4114587,
    "latitude": 47.65900318,
    "phone": "5098227436",
    "website_url": "http://www.blacklabelbrewing.com",
    "state": "Washington",
    "street": "19 W Main Ave"
  },
  {
    "id": "6aa5ecd3-aaec-472c-ba67-c7f8d6b75b40",
    "name": "Black Laboratory Breing",
    "brewery_type": "micro",
    "address_1": "1602 E Houston St Suite 109",
    "address_2": null,
    "address_3": null,
    "city": "San Antonio",
    "state_province": "Texas",
    "postal_code": "78202",
    "country": "United States",
    "longitude": -98.4753507,
    "latitude": 29.4246556,
    "phone": "210-370-3442",
    "website_url": "http://www.blacklaboratorybrewing.com/",
    "state": "Texas",
    "street": "1602 E Houston St Suite 109"
  },
  {
    "id": "4ec0bd38-0ab1-4c4e-84bb-63510b63f4a0",
    "name": "Black Leg Brewery",
    "brewery_type": "micro",
    "address_1": "24750 62nd Ave SE",
    "address_2": null,
    "address_3": null,
    "city": "McKenzie",
    "state_province": "North Dakota",
    "postal_code": "58572-9649",
    "country": "United States",
    "longitude": -100.3978304,
    "latitude": 46.74842764,
    "phone": null,
    "website_url": "http://blacklegranch.com",
    "state": "North Dakota",
    "street": "24750 62nd Ave SE"
  },
  {
    "id": "a0603777-7481-46fd-805e-a00d194829d5",
    "name": "Black Lotus Brewing Co",
    "brewery_type": "brewpub",
    "address_1": "1 E 14 Mile Rd",
    "address_2": null,
    "address_3": null,
    "city": "Clawson",
    "state_province": "Michigan",
    "postal_code": "48017-2132",
    "country": "United States",
    "longitude": -83.141428,
    "latitude": 42.533563,
    "phone": "2485771878",
    "website_url": "http://WWW.BLACKLOTUSBEER.COM",
    "state": "Michigan",
    "street": "1 E 14 Mile Rd"
  },
  {
    "id": "1fab0024-c031-450c-a1b6-48f2a0dd8e9a",
    "name": "Black Magic Brewing",
    "brewery_type": "planning",
    "address_1": null,
    "address_2": null,
    "address_3": null,
    "city": "Fountain Valley",
    "state_province": "California",
    "postal_code": "92708-6431",
    "country": "United States",
    "longitude": -117.9627349,
    "latitude": 33.7038145,
    "phone": null,
    "website_url": null,
    "state": "California",
    "street": null
  },
  {
    "id": "600748ca-dca4-43c4-8187-a0b1d952a597",
    "name": "Black Market Brewing Co",
    "brewery_type": "brewpub",
    "address_1": "41740 Enterprise Cir N Ste 109",
    "address_2": null,
    "address_3": null,
    "city": "Temecula",
    "state_province": "California",
    "postal_code": "92590-5652",
    "country": "United States",
    "longitude": -117.1697859,
    "latitude": 33.5185138,
    "phone": null,
    "website_url": null,
    "state": "California",
    "street": "41740 Enterprise Cir N Ste 109"
  },
  {
    "id": "8f5375c1-cfa2-4f84-8967-6ca771be1ba9",
    "name": "Black Mesa Brewing Company",
    "brewery_type": "micro",
    "address_1": "3901 N Flood Ave",
    "address_2": null,
    "address_3": null,
    "city": "Norman",
    "state_province": "Oklahoma",
    "postal_code": "73069",
    "country": "United States",
    "longitude": -97.4819196,
    "latitude": 35.2761135,
    "phone": "4054081848",
    "website_url": "http://www.blackmesabrewing.com",
    "state": "Oklahoma",
    "street": "3901 N Flood Ave"
  },
  {
    "id": "7868b4db-6b60-49e3-96d5-56912133a9cc",
    "name": "Black Narrows Brewing Company",
    "brewery_type": "micro",
    "address_1": "4522 Chicken City Rd",
    "address_2": null,
    "address_3": null,
    "city": "Chincoteague",
    "state_province": "Virginia",
    "postal_code": "23336-2303",
    "country": "United States",
    "longitude": -75.36219281,
    "latitude": 37.93125647,
    "phone": "7869994877",
    "website_url": "http://www.blacknarrowsbrewing.com",
    "state": "Virginia",
    "street": "4522 Chicken City Rd"
  },
  {
    "id": "d67cae67-6bcf-4a02-92e0-76d81ebfb5b8",
    "name": "Black Page Brewing Co.",
    "brewery_type": "micro",
    "address_1": "210 Glen Park St.",
    "address_2": null,
    "address_3": null,
    "city": "Houston",
    "state_province": "Texas",
    "postal_code": "77009",
    "country": "United States",
    "longitude": null,
    "latitude": null,
    "phone": "7137846001",
    "website_url": "https://blackpagebrewing.com",
    "state": "Texas",
    "street": "210 Glen Park St."
  },
  {
    "id": "d8ddf2ca-5a9c-4d0b-a324-6ce0c0bae06d",
    "name": "Black Plague Brewing",
    "brewery_type": "micro",
    "address_1": "2550 Jason Ct",
    "address_2": null,
    "address_3": null,
    "city": "Oceanside",
    "state_province": "California",
    "postal_code": "92056-3592",
    "country": "United States",
    "longitude": -117.266825,
    "latitude": 33.215571,
    "phone": "7602072949",
    "website_url": "http://www.blackplaguebrewing.com",
    "state": "California",
    "street": "2550 Jason Ct"
  },
  {
    "id": "53e18401-9be7-44b9-9175-01c08f941741",
    "name": "Black Pond Brews",
    "brewery_type": "micro",
    "address_1": "21A Furnace St",
    "address_2": null,
    "address_3": null,
    "city": "Danielson",
    "state_province": "Connecticut",
    "postal_code": "06239-3040",
    "country": "United States",
    "longitude": -71.88394473,
    "latitude": 41.80470085,
    "phone": "8602075295",
    "website_url": "http://www.blackpondbrews.com",
    "state": "Connecticut",
    "street": "21A Furnace St"
  },
  {
    "id": "e12bc89b-26c8-4835-a92d-9caa5ad81750",
    "name": "Black Project Spontaneous & Wild Ales",
    "brewery_type": "micro",
    "address_1": "1290 S Broadway",
    "address_2": null,
    "address_3": null,
    "city": "Denver",
    "state_province": "Colorado",
    "postal_code": "80210-1504",
    "country": "United States",
    "longitude": -104.9872018,
    "latitude": 39.6933607,
    "phone": "7203342873",
    "website_url": "http://www.blackprojectbeer.com",
    "state": "Colorado",
    "street": "1290 S Broadway"
  },
  {
    "id": "ab360d6f-246e-455f-b706-de39ec5ac9ec",
    "name": "Black Raven Brewing Co",
    "brewery_type": "micro",
    "address_1": "14679 NE 95th St",
    "address_2": null,
    "address_3": null,
    "city": "Redmond",
    "state_province": "Washington",
    "postal_code": "98052-2556",
    "country": "United States",
    "longitude": -122.1455096,
    "latitude": 47.6854906,
    "phone": "4258813020",
    "website_url": "http://www.blackravenbrewing.com",
    "state": "Washington",
    "street": "14679 NE 95th St"
  },
  {
    "id": "c8149934-3bc5-4c76-9f21-8b3cbbf31c40",
    "name": "Black Raven Brewing Co Woodinville",
    "brewery_type": "micro",
    "address_1": "15902 Woodinville-Redmond Rd NE",
    "address_2": null,
    "address_3": null,
    "city": "Woodinville",
    "state_province": "Washington",
    "postal_code": "98072-4572",
    "country": "United States",
    "longitude": -122.1554963,
    "latitude": 47.74343078,
    "phone": "4258813020",
    "website_url": "http://www.blackravenbrewing.com",
    "state": "Washington",
    "street": "15902 Woodinville-Redmond Rd NE"
  },
  {
    "id": "4e09e7f2-b9c7-4580-8c6a-1241f8835bf9",
    "name": "Black Sands Brewery",
    "brewery_type": "micro",
    "address_1": "701 Haight St",
    "address_2": null,
    "address_3": null,
    "city": "San Francisco",
    "state_province": "California",
    "postal_code": "94117-3316",
    "country": "United States",
    "longitude": -122.433863,
    "latitude": 37.7715719,
    "phone": "4155345194",
    "website_url": null,
    "state": "California",
    "street": "701 Haight St"
  },
  {
    "id": "5b5235aa-79f1-41e4-97a1-8f9fdfee1657",
    "name": "Black Shirt Brewing Co",
    "brewery_type": "brewpub",
    "address_1": "3719 Walnut St",
    "address_2": null,
    "address_3": null,
    "city": "Denver",
    "state_province": "Colorado",
    "postal_code": "80205-2436",
    "country": "United States",
    "longitude": -104.9729604,
    "latitude": 39.7698142,
    "phone": "3039932799",
    "website_url": "http://www.blackshirtbrewingco.com",
    "state": "Colorado",
    "street": "3719 Walnut St"
  },
  {
    "id": "15855eaa-dfcc-43e4-a0ff-220836e5be63",
    "name": "Black Sky Brewery",
    "brewery_type": "brewpub",
    "address_1": "490 Santa Fe Dr",
    "address_2": null,
    "address_3": null,
    "city": "Denver",
    "state_province": "Colorado",
    "postal_code": "80204-5024",
    "country": "United States",
    "longitude": -104.9983183,
    "latitude": 39.7239431,
    "phone": "9702154536",
    "website_url": "http://www.blackskybrewing.com",
    "state": "Colorado",
    "street": "490 Santa Fe Dr"
  },
  {
    "id": "3a255fa1-c05a-42ce-ad91-181fbe91473d",
    "name": "Black Star Co-op",
    "brewery_type": "brewpub",
    "address_1": "7020 Easy Wind Dr Ste 100",
    "address_2": null,
    "address_3": null,
    "city": "Austin",
    "state_province": "Texas",
    "postal_code": "78752-2373",
    "country": "United States",
    "longitude": -97.718977,
    "latitude": 30.3383262,
    "phone": "5124522337",
    "website_url": "http://www.blackstar.coop",
    "state": "Texas",
    "street": "7020 Easy Wind Dr Ste 100"
  },
  {
    "id": "7cb5d5cc-c608-46a0-8bde-20c063f1bd1d",
    "name": "Black Swan Brewpub",
    "brewery_type": "brewpub",
    "address_1": "2067 E Hadley Rd",
    "address_2": null,
    "address_3": null,
    "city": "Plainfield",
    "state_province": "Indiana",
    "postal_code": "46168-7484",
    "country": "United States",
    "longitude": -86.374141,
    "latitude": 39.674729,
    "phone": "3178387444",
    "website_url": "http://www.blackswanbrewpub.com",
    "state": "Indiana",
    "street": "2067 E Hadley Rd"
  },
  {
    "id": "1a5f4915-b1cf-4b45-a91c-cc1235f50e9f",
    "name": "Black Tooth Brewing Co",
    "brewery_type": "micro",
    "address_1": "312 Broadway St",
    "address_2": null,
    "address_3": null,
    "city": "Sheridan",
    "state_province": "Wyoming",
    "postal_code": "82801-3917",
    "country": "United States",
    "longitude": -106.953506,
    "latitude": 44.80089512,
    "phone": "3076752337",
    "website_url": "http://www.blacktoothbrewingcompany.com",
    "state": "Wyoming",
    "street": "312 Broadway St"
  }
]