[
  {
    "id": "8f33f7f4-d4af-4252-8db0-3acab330b602",
    "name": "Ward House Brewery",
    "brewery_type": "micro",
    "address_1": "111 Elm Ave W",
    "address_2": null,
    "address_3": null,
    "city": "Waseca",
    "state_province": "Minnesota",
    "postal_code": "56093-2433",
    "country": "United States",
    "longitude": null,
    "latitude": null,
    "phone": null,
    "website_url": "http://www.wardhousebrewing.com",
    "state": "Minnesota",
    "street": "111 Elm Ave W"
  },
  {
    "id": "d48f7e45-6ea1-45c2-b0a7-c4e60036d903",
    "name": "Waredaca Brewing Company",
    "brewery_type": "micro",
    "address_1": "4017 Damascus Rd",
    "address_2": null,
    "address_3": null,
    "city": "Gaithersburg",
    "state_province": "Maryland",
    "postal_code": "20882-2105",
    "country": "United States",
    "longitude": null,
    "latitude": null,
    "phone": "2404322255",
    "website_url": "http://www.waredacabrewing.com",
    "state": "Maryland",
    "street": "4017 Damascus Rd"
  },
  {
    "id": "72bfa421-0e54-45a5-877d-3c26cedfae48",
    "name": "Warehouse Gourmet Bistro & Brew Pub",
    "brewery_type": "micro",
    "address_1": "7 Pennsylvania Ave",
    "address_2": null,
    "address_3": null,
    "city": "Hanover",
    "state_province": "Pennsylvania",
    "postal_code": "17331-2432",
    "country": "United States",
    "longitude": -76.98976977,
    "latitude": 39.80232948,
    "phone": "7174519898",
    "website_url": "http://www.warehousegourmet.net",
    "state": "Pennsylvania",
    "street": "7 Pennsylvania Ave"
  },
  {
    "id": "c4631ee5-2531-4cce-881f-9232c75002fa",
    "name": "Warfield Distillery and Brewery",
    "brewery_type": "brewpub",
    "address_1": "280 N. Main St.",
    "address_2": null,
    "address_3": null,
    "city": "Ketchum",
    "state_province": "Idaho",
    "postal_code": "83340-2759",
    "country": "United States",
    "longitude": -114.36394,
    "latitude": 43.681482,
    "phone": "2087262739",
    "website_url": "http://www.warfielddistillery.com",
    "state": "Idaho",
    "street": "280 N. Main St."
  },
  {
    "id": "12af83ba-36ce-4066-b886-af36123e0644",
    "name": "Warped Wing Brewing Co",
    "brewery_type": "micro",
    "address_1": "26 Wyandot St",
    "address_2": null,
    "address_3": null,
    "city": "Dayton",
    "state_province": "Ohio",
    "postal_code": "45402-2145",
    "country": "United States",
    "longitude": null,
    "latitude": null,
    "phone": "9372227003",
    "website_url": "http://www.warpedwing.com",
    "state": "Ohio",
    "street": "26 Wyandot St"
  },
  {
    "id": "6401037b-c1b1-42f4-98fa-1189857bc6cc",
    "name": "WarPigs USA Brewing Co.",
    "brewery_type": "contract",
    "address_1": "9750 Indiana Pkwy",
    "address_2": null,
    "address_3": null,
    "city": "Munster",
    "state_province": "Indiana",
    "postal_code": "46321-4004",
    "country": "United States",
    "longitude": null,
    "latitude": null,
    "phone": "2199223565",
    "website_url": "http://warpigs.com",
    "state": "Indiana",
    "street": "9750 Indiana Pkwy"
  },
  {
    "id": "f1eff6f6-0871-4a67-96b5-4c5815147056",
    "name": "Wartega",
    "brewery_type": "micro",
    "address_1": "33 35th St Unit 6A",
    "address_2": null,
    "address_3": null,
    "city": "Brooklyn",
    "state_province": "New York",
    "postal_code": "11232-2210",
    "country": "United States",
    "longitude": null,
    "latitude": null,
    "phone": "9173971171",
    "website_url": "http://www.wartega.com",
    "state": "New York",
    "street": "33 35th St Unit 6A"
  },
  {
    "id": "e7ac801e-29e3-4357-89b7-5c1e907f8f81",
    "name": "Wasatch Brew Pub - Park City",
    "brewery_type": "micro",
    "address_1": "250 Main St",
    "address_2": null,
    "address_3": null,
    "city": "Park City",
    "state_province": "Utah",
    "postal_code": "84060-5113",
    "country": "United States",
    "longitude": -111.9933029,
    "latitude": 40.6418424,
    "phone": "4356490900",
    "website_url": "http://www.wasatchbeers.com",
    "state": "Utah",
    "street": "250 Main St"
  },
  {
    "id": "bcc3a506-1067-482c-90a4-0979423987d9",
    "name": "Wasatch Brew Pub - SLC Airport",
    "brewery_type": "brewpub",
    "address_1": "2930 W Terminal Dr",
    "address_2": "Concourse B Level 2",
    "address_3": null,
    "city": "Salt Lake City",
    "state_province": "Utah",
    "postal_code": "84116",
    "country": "United States",
    "longitude": -111.990646,
    "latitude": 8411640.789,
    "phone": "8018839033",
    "website_url": "https://www.saltlakebrewingco.com/wasatch",
    "state": "Utah",
    "street": "2930 W Terminal Dr"
  },
  {
    "id": "3be60e54-c794-4df5-b7af-cae8e7b5df1e",
    "name": "Wasatch Brew Pub - Sugarhouse",
    "brewery_type": "brewpub",
    "address_1": "2110 S Highland Dr",
    "address_2": null,
    "address_3": null,
    "city": "Salt Lake City",
    "state_province": "Utah",
    "postal_code": "84106-2807",
    "country": "United States",
    "longitude": -111.8503182,
    "latitude": 40.6987539,
    "phone": "8017831127",
    "website_url": "http://www.wasatchbeers.com",
    "state": "Utah",
    "street": "2110 S Highland Dr"
  },
  {
    "id": "9b3c11f7-2b67-49b9-98f4-3fecf1d4e6dc",
    "name": "Washington Brewing Co",
    "brewery_type": "brewpub",
    "address_1": "28 E Maiden St",
    "address_2": null,
    "address_3": null,
    "city": "Washington",
    "state_province": "Pennsylvania",
    "postal_code": "15301-4912",
    "country": "United States",
    "longitude": -80.02076781,
    "latitude": 40.07308431,
    "phone": "7242225050",
    "website_url": "http://thewashingtonbrewingcompany.com",
    "state": "Pennsylvania",
    "street": "28 E Maiden St"
  },
  {
    "id": "d2f3ee61-b49c-4392-b40c-f35eafab445f",
    "name": "Wasser Brewing Company",
    "brewery_type": "brewpub",
    "address_1": "102 E Franklin St",
    "address_2": null,
    "address_3": null,
    "city": "Greencastle",
    "state_province": "Indiana",
    "postal_code": "46135-1220",
    "country": "United States",
    "longitude": -86.86331023,
    "latitude": 39.64467171,
    "phone": "7653019363",
    "website_url": "http://www.wasserbrewing.com",
    "state": "Indiana",
    "street": "102 E Franklin St"
  },
  {
    "id": "a4e4c217-4509-4a3a-a9c1-31e24ada83ae",
    "name": "Wasserhund Brewing Company",
    "brewery_type": "brewpub",
    "address_1": "1805 Laskin Rd Ste 102",
    "address_2": null,
    "address_3": null,
    "city": "Virginia Beach",
    "state_province": "Virginia",
    "postal_code": "23454-4553",
    "country": "United States",
    "longitude": -76.02762147,
    "latitude": 36.849165,
    "phone": "7573511326",
    "website_url": "http://www.wasserhundbrewing.com",
    "state": "Virginia",
    "street": "1805 Laskin Rd Ste 102"
  },
  {
    "id": "7290db73-1ca8-48bd-b2a7-2e2d3ee41fc1",
    "name": "Water Buffalo Brewery",
    "brewery_type": "micro",
    "address_1": "136 Russet Rd",
    "address_2": null,
    "address_3": null,
    "city": "Walla Walla",
    "state_province": "Washington",
    "postal_code": "99362-8253",
    "country": "United States",
    "longitude": -118.4060748,
    "latitude": 46.05220327,
    "phone": "5092407139",
    "website_url": "http://www.waterbuffalobrewery.com",
    "state": "Washington",
    "street": "136 Russet Rd"
  },
  {
    "id": "0a9c77ee-1b34-4746-8c96-33c22a20d95c",
    "name": "Water Street Brewery",
    "brewery_type": "micro",
    "address_1": "1101 N Water St",
    "address_2": null,
    "address_3": null,
    "city": "Milwaukee",
    "state_province": "Wisconsin",
    "postal_code": "53202-3107",
    "country": "United States",
    "longitude": -87.9112223,
    "latitude": 43.0447248,
    "phone": "4142721195",
    "website_url": "http://www.waterstreetbrewery.com",
    "state": "Wisconsin",
    "street": "1101 N Water St"
  },
  {
    "id": "ff58cf5e-a4d6-4cfb-9a20-fc43f8d219fa",
    "name": "Water Street Brewery - Grafton",
    "brewery_type": "brewpub",
    "address_1": "1251 Gateway Dr 143 & Highway 60",
    "address_2": null,
    "address_3": null,
    "city": "Grafton",
    "state_province": "Wisconsin",
    "postal_code": "53024-9336",
    "country": "United States",
    "longitude": null,
    "latitude": null,
    "phone": "2623752222",
    "website_url": "http://www.waterstreetbrewery.com",
    "state": "Wisconsin",
    "street": "1251 Gateway Dr 143 & Highway 60"
  },
  {
    "id": "8c82cec9-aaad-4f63-acd9-8bd13b1b0f60",
    "name": "Water Street Brewery - Lake County",
    "brewery_type": "brewpub",
    "address_1": "3191 Golf Rd",
    "address_2": null,
    "address_3": null,
    "city": "Delafield",
    "state_province": "Wisconsin",
    "postal_code": "53018-2156",
    "country": "United States",
    "longitude": null,
    "latitude": null,
    "phone": "2626467878",
    "website_url": "http://www.waterstreetbrewery.com",
    "state": "Wisconsin",
    "street": "3191 Golf Rd"
  },
  {
    "id": "3d232e50-e58a-4343-a372-6885c76c38c0",
    "name": "Water Street Brewery - Oak Creek",
    "brewery_type": "brewpub",
    "address_1": "140 W Town Square Way",
    "address_2": null,
    "address_3": null,
    "city": "Oak Creek",
    "state_province": "Wisconsin",
    "postal_code": "53154-6811",
    "country": "United States",
    "longitude": -87.91210007,
    "latitude": 42.90064865,
    "phone": "4143015288",
    "website_url": null,
    "state": "Wisconsin",
    "street": "140 W Town Square Way"
  },
  {
    "id": "7d0c32f8-09a9-4363-944f-3a836c4d8b17",
    "name": "Water Street Brewing Co",
    "brewery_type": "brewpub",
    "address_1": "168 Water St Fl 1",
    "address_2": null,
    "address_3": null,
    "city": "Binghamton",
    "state_province": "New York",
    "postal_code": "13901-2736",
    "country": "United States",
    "longitude": null,
    "latitude": null,
    "phone": "6072174546",
    "website_url": "http://www.waterstreetbrewingco.com",
    "state": "New York",
    "street": "168 Water St Fl 1"
  },
  {
    "id": "d6e518a0-56f4-49ea-b073-3348d9e25faa",
    "name": "Water's End Brewery",
    "brewery_type": "micro",
    "address_1": "12425 Dillingham Sq",
    "address_2": null,
    "address_3": null,
    "city": "Lake Ridge",
    "state_province": "Virginia",
    "postal_code": "22192-5252",
    "country": "United States",
    "longitude": -77.31791007,
    "latitude": 38.68474967,
    "phone": "5409075689",
    "website_url": "http://watersendbrewery.com",
    "state": "Virginia",
    "street": "12425 Dillingham Sq"
  },
  {
    "id": "82cb77d5-b49e-43c4-b604-2ba532006d06",
    "name": "Waterfront Brewery LLC",
    "brewery_type": "brewpub",
    "address_1": "201 William St",
    "address_2": null,
    "address_3": null,
    "city": "Key West",
    "state_province": "Florida",
    "postal_code": "33040-6679",
    "country": "United States",
    "longitude": -81.801344,
    "latitude": 24.561016,
    "phone": "3054402270",
    "website_url": "http://www.thewaterfrontbrewery.com",
    "state": "Florida",
    "street": "201 William St"
  },
  {
    "id": "540ec31e-ebbf-40d9-858a-09f23e1ff802",
    "name": "Waterline Brewing Co.",
    "brewery_type": "micro",
    "address_1": "721 Surrey St",
    "address_2": null,
    "address_3": null,
    "city": "Wilmington",
    "state_province": "North Carolina",
    "postal_code": "28401-5043",
    "country": "United States",
    "longitude": -77.94884067,
    "latitude": 34.22609746,
    "phone": "9107778955",
    "website_url": "http://www.waterlinebrewing.com",
    "state": "North Carolina",
    "street": "721 Surrey St"
  },
  {
    "id": "e758d0d5-5e1e-4eb5-acfc-d8354602cc19",
    "name": "Waterman Brewing Company",
    "brewery_type": "micro",
    "address_1": "9824 Dino Dr Unit 150",
    "address_2": null,
    "address_3": null,
    "city": "Elk Grove",
    "state_province": "California",
    "postal_code": "95624-1277",
    "country": "United States",
    "longitude": -121.3572043,
    "latitude": 38.40045408,
    "phone": "9167142337",
    "website_url": "http://www.watermanbrewing.com",
    "state": "California",
    "street": "9824 Dino Dr Unit 150"
  },
  {
    "id": "02813c09-43d2-4f5e-a098-0b69a1278ca9",
    "name": "Waterman's Brewing Co",
    "brewery_type": "brewpub",
    "address_1": "1610 Pavillion Pl",
    "address_2": null,
    "address_3": null,
    "city": "Wilmington",
    "state_province": "North Carolina",
    "postal_code": "28403-3735",
    "country": "United States",
    "longitude": null,
    "latitude": null,
    "phone": "9108393103",
    "website_url": "http://www.watermansbrewing.com",
    "state": "North Carolina",
    "street": "1610 Pavillion Pl"
  },
  {
    "id": "309cfb01-0cde-4775-91c6-95e492b5eb4b",
    "name": "Watermark Brewing Company",
    "brewery_type": "micro",
    "address_1": "5781 Saint Joseph Ave",
    "address_2": null,
    "address_3": null,
    "city": "Stevensville",
    "state_province": "Michigan",
    "postal_code": "49127-1238",
    "country": "United States",
    "longitude": -86.51963025,
    "latitude": 42.01286668,
    "phone": "2692810872",
    "website_url": "http://www.watermarkbrewing.com",
    "state": "Michigan",
    "street": "5781 Saint Joseph Ave"
  },
  {
    "id": "3a80fe8b-9d4f-43dc-81a9-4145c5132bcb",
    "name": "Watertown Brewing Company",
    "brewery_type": "micro",
    "address_1": "113 E Kemp Ave",
    "address_2": null,
    "address_3": null,
    "city": "Watertown",
    "state_province": "South Dakota",
    "postal_code": "57201-3641",
    "country": "United States",
    "longitude": -97.11158716,
    "latitude": 44.90104997,
    "phone": "6058782739",
    "website_url": "http://watertownbrewing.com",
    "state": "South Dakota",
    "street": "113 E Kemp Ave"
  },
  {
    "id": "e2eef525-02a8-47d0-951c-05fead8bcb7d",
    "name": "Watts Brewing Company",
    "brewery_type": "micro",
    "address_1": "15510 Redmond-Woodinville Rd NE #E110",
    "address_2": null,
    "address_3": null,
    "city": "Woodinville",
    "state_province": "Washington",
    "postal_code": "98072-6998",
    "country": "United States",
    "longitude": -122.15388414426,
    "latitude": 47.739993903523,
    "phone": "2066583646",
    "website_url": "http://www.wattsbrewingcompany.com",
    "state": "Washington",
    "street": "15510 Redmond-Woodinville Rd NE #E110"
  },
  {
    "id": "7796b50f-6d32-4253-8650-c7c254abba71",
    "name": "Wavelength Brewing Company",
    "brewery_type": "micro",
    "address_1": "236 Main St",
    "address_2": null,
    "address_3": null,
    "city": "Vista",
    "state_province": "California",
    "postal_code": "92084-6008",
    "country": "United States",
    "longitude": -117.2418841,
    "latitude": 33.2028185,
    "phone": "7608209283",
    "website_url": "http://www.wavelengthbrewco.com",
    "state": "California",
    "street": "236 Main St"
  },
  {
    "id": "b0b2d8dd-742f-40ab-8b17-fb335084e5bd",
    "name": "Waverly Brewing Company",
    "brewery_type": "micro",
    "address_1": "1625-C Union Ave",
    "address_2": null,
    "address_3": null,
    "city": "Baltimore",
    "state_province": "Maryland",
    "postal_code": "21211",
    "country": "United States",
    "longitude": null,
    "latitude": null,
    "phone": "4434385765",
    "website_url": "http://www.waverlybrewingcompany.com",
    "state": "Maryland",
    "street": "1625-C Union Ave"
  },
  {
    "id": "3486d742-3bd5-449a-b66e-d3a881c3c103",
    "name": "Wayfinder Beer",
    "brewery_type": "brewpub",
    "address_1": "304 SE 2nd Ave",
    "address_2": null,
    "address_3": null,
    "city": "Portland",
    "state_province": "Oregon",
    "postal_code": "97214-1008",
    "country": "United States",
    "longitude": -122.6634881,
    "latitude": 45.5208914,
    "phone": "5037182337",
    "website_url": "http://www.wayfinder.beer",
    "state": "Oregon",
    "street": "304 SE 2nd Ave"
  },
  {
    "id": "8e46e558-55b6-4c93-bf99-2ba3f2ba2a59",
    "name": "Waypost Brewing Co.",
    "brewery_type": "planning",
    "address_1": null,
    "address_2": null,
    "address_3": null,
    "city": "Fennville",
    "state_province": "Michigan",
    "postal_code": "49408",
    "country": "United States",
    "longitude": null,
    "latitude": null,
    "phone": "6169162362",
    "website_url": "http://waypostbeer.com",
    "state": "Michigan",
    "street": null
  },
  {
    "id": "542d689d-77a4-41ad-9ab6-1f8e8c906b1e",
    "name": "Wayward Owl Brewing Company",
    "brewery_type": "micro",
    "address_1": "3940 Thalia St",
    "address_2": null,
    "address_3": null,
    "city": "New Orleans",
    "state_province": "Louisiana",
    "postal_code": "70125-2008",
    "country": "United States",
    "longitude": -90.09759137,
    "latitude": 29.9521547,
    "phone": "5048271646",
    "website_url": "http://www.waywardowlbrewing.com",
    "state": "Louisiana",
    "street": "3940 Thalia St"
  },
  {
    "id": "8c7c9ef9-1232-4e9d-8bf4-ba02e30cbc78",
    "name": "Wayzata Brew Works, LLC",
    "brewery_type": "micro",
    "address_1": "294 Grove Lane E, ste 150",
    "address_2": null,
    "address_3": null,
    "city": "wayzata",
    "state_province": "Minnesota",
    "postal_code": "55391",
    "country": "United States",
    "longitude": null,
    "latitude": null,
    "phone": "9527371023",
    "website_url": "http://www.wayzatabrewworks.com",
    "state": "Minnesota",
    "street": "294 Grove Lane E, ste 150"
  },
  {
    "id": "4a48f4f8-fa5f-48d1-9576-b9fff7d87e63",
    "name": "Wayzata Brew Works, LLC.",
    "brewery_type": "proprietor",
    "address_1": "294 Grove Ln E",
    "address_2": null,
    "address_3": null,
    "city": "Wayzata",
    "state_province": "Minnesota",
    "postal_code": "55391-1680",
    "country": "United States",
    "longitude": -93.5172166,
    "latitude": 44.9696023,
    "phone": "9527371023",
    "website_url": "http://www.wayzatabrewworks.com/",
    "state": "Minnesota",
    "street": "294 Grove Ln E"
  },
  {
    "id": "a828db31-d32a-4fb3-a96b-46ba8c1cb9f8",
    "name": "Weasel Boy Brewing Co  LLC",
    "brewery_type": "brewpub",
    "address_1": "126 Muskingum Ave Unit E",
    "address_2": null,
    "address_3": null,
    "city": "Zanesville",
    "state_province": "Ohio",
    "postal_code": "43701-4921",
    "country": "United States",
    "longitude": null,
    "latitude": null,
    "phone": "7404553767",
    "website_url": "http://www.weaselboybrewing.com",
    "state": "Ohio",
    "street": "126 Muskingum Ave Unit E"
  },
  {
    "id": "c5b50d77-0a38-43e3-82fc-c240281c0139",
    "name": "Weathered Ground Brewery",
    "brewery_type": "micro",
    "address_1": "2027 Flat Top Rd",
    "address_2": null,
    "address_3": null,
    "city": "Ghent",
    "state_province": "West Virginia",
    "postal_code": "25843-9303",
    "country": "United States",
    "longitude": -81.09682583,
    "latitude": 37.64833857,
    "phone": "3047166230",
    "website_url": "http://www.weatheredgroundbrewery.com",
    "state": "West Virginia",
    "street": "2027 Flat Top Rd"
  },
  {
    "id": "2e8178de-963e-47fe-bb90-55cd67f2224c",
    "name": "Weathered Souls Brewing Co.",
    "brewery_type": "brewpub",
    "address_1": "606 Embassy Oaks Ste 500",
    "address_2": null,
    "address_3": null,
    "city": "San Antonio",
    "state_province": "Texas",
    "postal_code": "78216-1501",
    "country": "United States",
    "longitude": null,
    "latitude": null,
    "phone": "7047706605",
    "website_url": "http://www.weatheredsouls.beer",
    "state": "Texas",
    "street": "606 Embassy Oaks Ste 500"
  },
  {
    "id": "d6b31994-a389-40bc-8b34-f37c71c69030",
    "name": "WeBe Brewing Company",
    "brewery_type": "micro",
    "address_1": "796 Pre-Emption Road",
    "address_2": null,
    "address_3": null,
    "city": "Geneva",
    "state_province": "New York",
    "postal_code": "14456",
    "country": "United States",
    "longitude": -77.01110326,
    "latitude": 42.86463714,
    "phone": "3153254834",
    "website_url": "http://www.WeBeBrewing.com",
    "state": "New York",
    "street": "796 Pre-Emption Road"
  },
  {
    "id": "cbe89f10-6763-4ed1-90d0-80cabea11a29",
    "name": "Wedge Brewing Co",
    "brewery_type": "micro",
    "address_1": "37 Paynes Way Ste 100",
    "address_2": null,
    "address_3": null,
    "city": "Asheville",
    "state_province": "North Carolina",
    "postal_code": "28801-2626",
    "country": "United States",
    "longitude": -82.56659201,
    "latitude": 35.5865571,
    "phone": "8285052792",
    "website_url": "http://www.wedgebrewing.com",
    "state": "North Carolina",
    "street": "37 Paynes Way Ste 100"
  },
  {
    "id": "8968d98d-b553-4b7d-ae11-1b60a0a323a1",
    "name": "Weeping Radish Farm Brewery",
    "brewery_type": "micro",
    "address_1": "6810 Caratoke Hwy",
    "address_2": null,
    "address_3": null,
    "city": "Grandy",
    "state_province": "North Carolina",
    "postal_code": "27939-9635",
    "country": "United States",
    "longitude": -75.891944,
    "latitude": 36.253775,
    "phone": "2524915205",
    "website_url": "http://www.weepingradish.com",
    "state": "North Carolina",
    "street": "6810 Caratoke Hwy"
  },
  {
    "id": "9fa40256-171d-4372-ab21-1d87863f677c",
    "name": "Weilbacher Brewery",
    "brewery_type": "planning",
    "address_1": null,
    "address_2": null,
    "address_3": null,
    "city": "New Braunfels",
    "state_province": "Texas",
    "postal_code": "78130-5104",
    "country": "United States",
    "longitude": null,
    "latitude": null,
    "phone": "5126637507",
    "website_url": "http://www.weilbacherbeer.com",
    "state": "Texas",
    "street": null
  },
  {
    "id": "70f8c3ef-94c7-4e2f-8954-711bdb684bcb",
    "name": "WeldWerks Brewing Co.",
    "brewery_type": "micro",
    "address_1": "508 8th Ave",
    "address_2": null,
    "address_3": null,
    "city": "Greeley",
    "state_province": "Colorado",
    "postal_code": "80631-3921",
    "country": "United States",
    "longitude": -104.6911497,
    "latitude": 40.3998251,
    "phone": "9705185226",
    "website_url": "http://www.weldwerksbrewing.com",
    "state": "Colorado",
    "street": "508 8th Ave"
  },
  {
    "id": "41170ddd-2eab-483e-9dec-acf1db56e852",
    "name": "Well 80 Brewing Company",
    "brewery_type": "brewpub",
    "address_1": "514 4th Ave E",
    "address_2": null,
    "address_3": null,
    "city": "Olympia",
    "state_province": "Washington",
    "postal_code": "98501-1111",
    "country": "United States",
    "longitude": -122.8964287,
    "latitude": 47.04534486,
    "phone": "3609156653",
    "website_url": "http://www.well80.com",
    "state": "Washington",
    "street": "514 4th Ave E"
  },
  {
    "id": "e7f0a2c0-dd17-48ff-8d9f-5ab8b6803bb1",
    "name": "Wellhead Restaurant/Brewpub",
    "brewery_type": "brewpub",
    "address_1": "332 W Main St",
    "address_2": null,
    "address_3": null,
    "city": "Artesia",
    "state_province": "New Mexico",
    "postal_code": "88210-2161",
    "country": "United States",
    "longitude": -104.399337,
    "latitude": 32.842417,
    "phone": "5757460640",
    "website_url": "http://www.thewellhead.com",
    "state": "New Mexico",
    "street": "332 W Main St"
  },
  {
    "id": "6b197016-089f-4fa7-ac77-4d08c03035c2",
    "name": "Wellspent Brewing Company",
    "brewery_type": "micro",
    "address_1": "2917 Olive Street",
    "address_2": null,
    "address_3": null,
    "city": "Saint Louis",
    "state_province": "Missouri",
    "postal_code": "63103",
    "country": "United States",
    "longitude": -90.22073676,
    "latitude": 38.6348785,
    "phone": "3143280505",
    "website_url": "http://www.wellspentbeer.com",
    "state": "Missouri",
    "street": "2917 Olive Street"
  },
  {
    "id": "4f92a80e-b6ec-43a8-bdfe-0156c015c343",
    "name": "Welltown Brewing",
    "brewery_type": "micro",
    "address_1": "114 S. Archer Street",
    "address_2": null,
    "address_3": null,
    "city": "Tulsa",
    "state_province": "Oklahoma",
    "postal_code": "74103-2202",
    "country": "United States",
    "longitude": -95.9950548,
    "latitude": 36.1565497,
    "phone": "9182218893",
    "website_url": "http://www.welltownbrewing.com",
    "state": "Oklahoma",
    "street": "114 S. Archer Street"
  },
  {
    "id": "4f20644c-efbe-4c66-932e-712507f9e99e",
    "name": "Welpman Springs Brewing Company, LLC.",
    "brewery_type": "closed",
    "address_1": "517 Hatchery Rd",
    "address_2": null,
    "address_3": null,
    "city": "Stover",
    "state_province": "Missouri",
    "postal_code": "65078-1132",
    "country": "United States",
    "longitude": null,
    "latitude": null,
    "phone": "5733772343",
    "website_url": "http://www.welpmanspringsbrewing.weebly.com",
    "state": "Missouri",
    "street": "517 Hatchery Rd"
  },
  {
    "id": "ee1c61ff-a24e-44db-87ac-a22a0add4559",
    "name": "Weltons Brewery",
    "brewery_type": "micro",
    "address_1": "Foundry Lane",
    "address_2": null,
    "address_3": null,
    "city": "Horsham",
    "state_province": "West Sussex",
    "postal_code": "RH13 5PX",
    "country": "England",
    "longitude": -0.315544,
    "latitude": 51.070853,
    "phone": "1403242901",
    "website_url": "https://weltonsbeer.co.uk/",
    "state": "West Sussex",
    "street": "Foundry Lane"
  },
  {
    "id": "9049078f-8094-4082-95b7-8a3173469ad2",
    "name": "Wenatchee Valley Brewing Co.",
    "brewery_type": "micro",
    "address_1": "108 Island Vw",
    "address_2": null,
    "address_3": null,
    "city": "Wenatchee",
    "state_province": "Washington",
    "postal_code": "98801-2039",
    "country": "United States",
    "longitude": -120.31472591233,
    "latitude": 47.43503279883,
    "phone": "5098888088",
    "website_url": "http://wenatcheevalleybrewing.com/",
    "state": "Washington",
    "street": "108 Island Vw"
  },
  {
    "id": "376ea613-f4d4-400e-8bda-93cffe5e7314",
    "name": "Werk Force Brewing Co",
    "brewery_type": "micro",
    "address_1": "14903 S Center St # 107",
    "address_2": null,
    "address_3": null,
    "city": "Plainfield",
    "state_province": "Illinois",
    "postal_code": "60544-2177",
    "country": "United States",
    "longitude": null,
    "latitude": null,
    "phone": "8155315557",
    "website_url": "http://www.werkforcebrewing.com",
    "state": "Illinois",
    "street": "14903 S Center St # 107"
  }
]