[
  {
    "id": "9432a764-13ba-4672-83f8-1e2012dd660b",
    "name": "Stark Brewing Company",
    "brewery_type": "brewpub",
    "address_1": "500 North Commercial St",
    "address_2": null,
    "address_3": null,
    "city": "Manchester",
    "state_province": "New Hampshire",
    "postal_code": "03101-1151",
    "country": "United States",
    "longitude": -71.4676557,
    "latitude": 42.9945554,
    "phone": "6036254444",
    "website_url": "http://www.starkbrewingcompany.com",
    "state": "New Hampshire",
    "street": "500 North Commercial St"
  },
  {
    "id": "dc52c24c-dd41-4c5f-b25f-7969dbc1a035",
    "name": "Starpoint Brewing, LLC",
    "brewery_type": "micro",
    "address_1": "901 Clarence Dr",
    "address_2": null,
    "address_3": null,
    "city": "Chapel Hill",
    "state_province": "North Carolina",
    "postal_code": "27516-3145",
    "country": "United States",
    "longitude": null,
    "latitude": null,
    "phone": "9195232302",
    "website_url": "http://starpointbrewing.com",
    "state": "North Carolina",
    "street": "901 Clarence Dr"
  },
  {
    "id": "a9441b9a-abbf-4b32-ba73-ee112330ecbc",
    "name": "Starpoint Brewing, LLC / Beer Study",
    "brewery_type": "micro",
    "address_1": "2501 University Dr Ste 4",
    "address_2": null,
    "address_3": null,
    "city": "Chapel Hill",
    "state_province": "North Carolina",
    "postal_code": "22707",
    "country": "United States",
    "longitude": null,
    "latitude": null,
    "phone": "9842197538",
    "website_url": "http://www.drinkdurham.com",
    "state": "North Carolina",
    "street": "2501 University Dr Ste 4"
  },
  {
    "id": "c483ea80-d10a-497f-9f02-47e8a4b23861",
    "name": "Starr Brothers Brewing Co.",
    "brewery_type": "brewpub",
    "address_1": "5700 San Antonio Dr NE Ste B1",
    "address_2": null,
    "address_3": null,
    "city": "Albuquerque",
    "state_province": "New Mexico",
    "postal_code": "87109-4179",
    "country": "United States",
    "longitude": null,
    "latitude": null,
    "phone": "5054922752",
    "website_url": "http://starrbrothersbrewing.com",
    "state": "New Mexico",
    "street": "5700 San Antonio Dr NE Ste B1"
  },
  {
    "id": "87832f67-9efa-4d30-9a10-f52fce61d062",
    "name": "Starr Hill Brewery LLC",
    "brewery_type": "regional",
    "address_1": "5391 Three Notch D Rd",
    "address_2": null,
    "address_3": null,
    "city": "Crozet",
    "state_province": "Virginia",
    "postal_code": "22932-3181",
    "country": "United States",
    "longitude": null,
    "latitude": null,
    "phone": "4348235671",
    "website_url": "http://www.starrhill.com",
    "state": "Virginia",
    "street": "5391 Three Notch D Rd"
  },
  {
    "id": "7c9fbe58-ea1a-4dd3-bb0f-f1ae386357bd",
    "name": "Starr Hill Pilot Brewery & Side Stage",
    "brewery_type": "micro",
    "address_1": "6 Old Whitmore Ave SE",
    "address_2": null,
    "address_3": null,
    "city": "Roanoke",
    "state_province": "Virginia",
    "postal_code": "24016-1212",
    "country": "United States",
    "longitude": null,
    "latitude": null,
    "phone": "4348235671",
    "website_url": null,
    "state": "Virginia",
    "street": "6 Old Whitmore Ave SE"
  },
  {
    "id": "11c5fe19-a115-4284-bae8-b24ba3841f35",
    "name": "Starry Eyed Brewing Company",
    "brewery_type": "micro",
    "address_1": "16757 11th St NE",
    "address_2": null,
    "address_3": null,
    "city": "Little Falls",
    "state_province": "Minnesota",
    "postal_code": "56345-2203",
    "country": "United States",
    "longitude": -94.3451474,
    "latitude": 45.9831733,
    "phone": "3202320382",
    "website_url": "http://www.starryeyedbrewing.com",
    "state": "Minnesota",
    "street": "16757 11th St NE"
  },
  {
    "id": "851420af-9b77-498f-ac1b-43daddc03941",
    "name": "Start Line Brewing Company",
    "brewery_type": "micro",
    "address_1": "151R Hayden Rowe St",
    "address_2": null,
    "address_3": null,
    "city": "Hopkinton",
    "state_province": "Massachusetts",
    "postal_code": "01748-2511",
    "country": "United States",
    "longitude": -71.51323676,
    "latitude": 42.21031634,
    "phone": "5087612044",
    "website_url": "http://www.startlinebrewing.com",
    "state": "Massachusetts",
    "street": "151R Hayden Rowe St"
  },
  {
    "id": "481a0ead-5e95-451e-a431-ba8972b7e5ea",
    "name": "Starving Artist Brewing",
    "brewery_type": "micro",
    "address_1": "634 S Stiles Rd",
    "address_2": null,
    "address_3": null,
    "city": "Ludington",
    "state_province": "Michigan",
    "postal_code": "49431-9311",
    "country": "United States",
    "longitude": null,
    "latitude": null,
    "phone": "2317941399",
    "website_url": "http://starvingartist.beer",
    "state": "Michigan",
    "street": "634 S Stiles Rd"
  },
  {
    "id": "91420d9d-1087-4602-b078-780f33fa6f05",
    "name": "Stash Brewing Co",
    "brewery_type": "closed",
    "address_1": "3782 Winding Creek Ln",
    "address_2": null,
    "address_3": null,
    "city": "Garden Valley",
    "state_province": "California",
    "postal_code": "95633-9773",
    "country": "United States",
    "longitude": -120.8784951,
    "latitude": 38.8402775,
    "phone": "4156804181",
    "website_url": "http://stashbrewingco.com",
    "state": "California",
    "street": "3782 Winding Creek Ln"
  },
  {
    "id": "436846b7-4538-4d89-b919-2396c7f00ab8",
    "name": "State 48 Barrel and Lager House",
    "brewery_type": "planning",
    "address_1": null,
    "address_2": null,
    "address_3": null,
    "city": "Scottsdale",
    "state_province": "Arizona",
    "postal_code": "85260-1924",
    "country": "United States",
    "longitude": -111.8992365,
    "latitude": 33.5091215,
    "phone": null,
    "website_url": null,
    "state": "Arizona",
    "street": null
  },
  {
    "id": "6260eac2-6949-4c19-aec9-739c2cdcf849",
    "name": "State 48 Brewery",
    "brewery_type": "planning",
    "address_1": null,
    "address_2": null,
    "address_3": null,
    "city": "Phoenix",
    "state_province": "Arizona",
    "postal_code": "85003-1626",
    "country": "United States",
    "longitude": -112.0773456,
    "latitude": 33.4485866,
    "phone": null,
    "website_url": null,
    "state": "Arizona",
    "street": null
  },
  {
    "id": "733fcd37-636e-469f-b8fa-6b928d009d89",
    "name": "State 48 Brewery",
    "brewery_type": "brewpub",
    "address_1": "13823 W Bell Rd",
    "address_2": null,
    "address_3": null,
    "city": "Surprise",
    "state_province": "Arizona",
    "postal_code": "85374-3873",
    "country": "United States",
    "longitude": -112.3578138,
    "latitude": 33.63822125,
    "phone": "6235841095",
    "website_url": null,
    "state": "Arizona",
    "street": "13823 W Bell Rd"
  },
  {
    "id": "1f1449bb-4f21-4fa7-b542-625e13ad02d5",
    "name": "State Brewing Co LLC",
    "brewery_type": "closed",
    "address_1": "1237 W 134th St Ste 2",
    "address_2": null,
    "address_3": null,
    "city": "Gardena",
    "state_province": "California",
    "postal_code": "90247-1962",
    "country": "United States",
    "longitude": -118.2978732,
    "latitude": 33.91111274,
    "phone": "3108198179",
    "website_url": "http://www.statebrewingco.com",
    "state": "California",
    "street": "1237 W 134th St Ste 2"
  },
  {
    "id": "f72d12e9-ae13-4184-952c-3ea501798e94",
    "name": "State Room Brewery",
    "brewery_type": "brewpub",
    "address_1": "1132 4th St",
    "address_2": null,
    "address_3": null,
    "city": "San Rafael",
    "state_province": "California",
    "postal_code": "94901-3007",
    "country": "United States",
    "longitude": -122.5286585,
    "latitude": 37.97327448,
    "phone": "4152957929",
    "website_url": "http://stateroombrewery.com",
    "state": "California",
    "street": "1132 4th St"
  },
  {
    "id": "aa3e7b92-9943-4fc3-ab99-0c68e8045088",
    "name": "Stateline Brewery",
    "brewery_type": "brewpub",
    "address_1": "4118 Lake Tahoe Blvd Ste 1",
    "address_2": null,
    "address_3": null,
    "city": "South Lake Tahoe",
    "state_province": "California",
    "postal_code": "96150-6990",
    "country": "United States",
    "longitude": -119.9424674,
    "latitude": 38.95801631,
    "phone": "5305429000",
    "website_url": "http://www.statelinebrewery.com",
    "state": "California",
    "street": "4118 Lake Tahoe Blvd Ste 1"
  },
  {
    "id": "d04514b9-1c70-4e28-a603-cb7a70da3045",
    "name": "Staten Island Beer Company",
    "brewery_type": "micro",
    "address_1": "20 Kinsey Pl",
    "address_2": null,
    "address_3": null,
    "city": "Staten Island",
    "state_province": "New York",
    "postal_code": "10303-1427",
    "country": "United States",
    "longitude": -74.17033729,
    "latitude": 40.62874743,
    "phone": "7183908445",
    "website_url": "http://www.sibeerco.com",
    "state": "New York",
    "street": "20 Kinsey Pl"
  },
  {
    "id": "11977488-1872-4b1b-9e28-f9c68f9db873",
    "name": "Station 26 Brewing Co",
    "brewery_type": "micro",
    "address_1": "7045 E 38th Ave",
    "address_2": null,
    "address_3": null,
    "city": "Denver",
    "state_province": "Colorado",
    "postal_code": "80207-1541",
    "country": "United States",
    "longitude": -104.9062608,
    "latitude": 39.76935335,
    "phone": null,
    "website_url": "http://www.station26brewing.co",
    "state": "Colorado",
    "street": "7045 E 38th Ave"
  },
  {
    "id": "d11fa007-74a5-456a-b508-bce3dfe51414",
    "name": "Stats Brewpub",
    "brewery_type": "brewpub",
    "address_1": "300 Marietta St NW",
    "address_2": null,
    "address_3": null,
    "city": "Atlanta",
    "state_province": "Georgia",
    "postal_code": "30313-1632",
    "country": "United States",
    "longitude": -84.3964736,
    "latitude": 33.7615549,
    "phone": "7705700160",
    "website_url": "http://StatsATL.com",
    "state": "Georgia",
    "street": "300 Marietta St NW"
  },
  {
    "id": "1cebb6fc-f76e-432e-a55d-a58c3d1dbffd",
    "name": "Staunton River Brewing Company",
    "brewery_type": "micro",
    "address_1": "1571 Mount Calvary Rd",
    "address_2": null,
    "address_3": null,
    "city": "Brookneal",
    "state_province": "Virginia",
    "postal_code": "24528-3156",
    "country": "United States",
    "longitude": null,
    "latitude": null,
    "phone": "4343769463",
    "website_url": "http://www.stauntonriverbrewing.com",
    "state": "Virginia",
    "street": "1571 Mount Calvary Rd"
  },
  {
    "id": "ae5ab620-975f-4ee3-8625-07b93d9ff0f6",
    "name": "Steadfast Beer Co",
    "brewery_type": "contract",
    "address_1": "1756 Western Ave Rear",
    "address_2": null,
    "address_3": null,
    "city": "Albany",
    "state_province": "New York",
    "postal_code": "12203-4414",
    "country": "United States",
    "longitude": null,
    "latitude": null,
    "phone": null,
    "website_url": "http://www.steadfastbeer.com",
    "state": "New York",
    "street": "1756 Western Ave Rear"
  },
  {
    "id": "2a69f497-409e-4c1f-bfd2-0c51be6c0287",
    "name": "Steady Brewing",
    "brewery_type": "micro",
    "address_1": "2936 Clark Ave",
    "address_2": null,
    "address_3": null,
    "city": "Long Beach",
    "state_province": "California",
    "postal_code": "90815",
    "country": "United States",
    "longitude": -118.133923,
    "latitude": 33.825078,
    "phone": "5623516793",
    "website_url": "http://Www.steadybrewing.com",
    "state": "California",
    "street": "2936 Clark Ave"
  },
  {
    "id": "e4fcbf74-5b11-4e1b-8e90-854a041b5bda",
    "name": "Steady Habit Brewing Company",
    "brewery_type": "closed",
    "address_1": "95 Bridge Rd",
    "address_2": null,
    "address_3": null,
    "city": "Haddam",
    "state_province": "Connecticut",
    "postal_code": "06438-1354",
    "country": "United States",
    "longitude": null,
    "latitude": null,
    "phone": "8607775041",
    "website_url": null,
    "state": "Connecticut",
    "street": "95 Bridge Rd"
  },
  {
    "id": "fb49c03e-5117-4969-87ad-4ae6f1b71831",
    "name": "Steam Bell Beer Works",
    "brewery_type": "micro",
    "address_1": "1717 Oak Lake Blvd E",
    "address_2": null,
    "address_3": null,
    "city": "Midlothian",
    "state_province": "Virginia",
    "postal_code": "23112-3995",
    "country": "United States",
    "longitude": null,
    "latitude": null,
    "phone": "8047281876",
    "website_url": "http://www.steambell.beer",
    "state": "Virginia",
    "street": "1717 Oak Lake Blvd E"
  },
  {
    "id": "8de57d40-c837-4d77-9275-e827ddc43675",
    "name": "Steam Donkey Brewing Co",
    "brewery_type": "micro",
    "address_1": "101 E Wishkah St",
    "address_2": null,
    "address_3": null,
    "city": "Aberdeen",
    "state_province": "Washington",
    "postal_code": "98520-6503",
    "country": "United States",
    "longitude": -123.81773,
    "latitude": 46.974242,
    "phone": "3606379431",
    "website_url": "http://Steamdonkeybrewing.com",
    "state": "Washington",
    "street": "101 E Wishkah St"
  },
  {
    "id": "f0ccfae1-90ea-44bb-8b23-9c57fb4aa836",
    "name": "Steam Plant Grill",
    "brewery_type": "brewpub",
    "address_1": "159 S Lincoln St Ste 1",
    "address_2": null,
    "address_3": null,
    "city": "Spokane",
    "state_province": "Washington",
    "postal_code": "99201-4409",
    "country": "United States",
    "longitude": -117.42472914426,
    "latitude": 47.65537693449,
    "phone": "5097773900",
    "website_url": "http://www.steamplantspokane.com",
    "state": "Washington",
    "street": "159 S Lincoln St Ste 1"
  },
  {
    "id": "c04f39d4-df5f-48d4-9645-148072eeb9f5",
    "name": "Steam Theory Brewing Co",
    "brewery_type": "planning",
    "address_1": null,
    "address_2": null,
    "address_3": null,
    "city": "Dallas",
    "state_province": "Texas",
    "postal_code": "75212-4101",
    "country": "United States",
    "longitude": null,
    "latitude": null,
    "phone": null,
    "website_url": "http://www.steamtheorybrewing.com",
    "state": "Texas",
    "street": null
  },
  {
    "id": "279c975d-899d-45a9-9655-ab335b6ebf60",
    "name": "Steampunk Brew Works",
    "brewery_type": "micro",
    "address_1": "231 Lamp and Lantern Vlg",
    "address_2": null,
    "address_3": null,
    "city": "Chesterfield",
    "state_province": "Missouri",
    "postal_code": "63017-8209",
    "country": "United States",
    "longitude": -90.517873,
    "latitude": 38.625963,
    "phone": "6362308277",
    "website_url": "http://www.steampunkbrewworks.com",
    "state": "Missouri",
    "street": "231 Lamp and Lantern Vlg"
  },
  {
    "id": "a6d2caab-e4de-42dc-8ff0-8daceeb843f5",
    "name": "Steamworks Brewing Co",
    "brewery_type": "brewpub",
    "address_1": "801 E 2nd Ave",
    "address_2": null,
    "address_3": null,
    "city": "Durango",
    "state_province": "Colorado",
    "postal_code": "81301-5425",
    "country": "United States",
    "longitude": -107.87979,
    "latitude": 37.272176,
    "phone": "9702599200",
    "website_url": "http://www.steamworksbrewing.com",
    "state": "Colorado",
    "street": "801 E 2nd Ave"
  },
  {
    "id": "e1bcecf4-738e-41e0-a2c8-c0fca901a0e2",
    "name": "Steel Bender Brewyard",
    "brewery_type": "brewpub",
    "address_1": "8305 2nd St NW",
    "address_2": null,
    "address_3": null,
    "city": "Los Ranchos de Albuquerque",
    "state_province": "New Mexico",
    "postal_code": "87114-1038",
    "country": "United States",
    "longitude": null,
    "latitude": null,
    "phone": "5054333537",
    "website_url": "http://www.steelbenderbrewyard.com",
    "state": "New Mexico",
    "street": "8305 2nd St NW"
  },
  {
    "id": "4c64c6ac-e0aa-4b2b-bec9-121539fc21ec",
    "name": "Steel Bonnet Brewing Co",
    "brewery_type": "micro",
    "address_1": "20 Victor Sq Ste B",
    "address_2": null,
    "address_3": null,
    "city": "Scotts Valley",
    "state_province": "California",
    "postal_code": "95066-3518",
    "country": "United States",
    "longitude": -122.0061729,
    "latitude": 37.06188758,
    "phone": "8314548429",
    "website_url": "http://www.steelbon.net",
    "state": "California",
    "street": "20 Victor Sq Ste B"
  },
  {
    "id": "259c6bad-d77b-4e96-99ba-78873517c6ca",
    "name": "Steel Hands Brewing",
    "brewery_type": "planning",
    "address_1": null,
    "address_2": null,
    "address_3": null,
    "city": "Cayce",
    "state_province": "South Carolina",
    "postal_code": "29033-3439",
    "country": "United States",
    "longitude": null,
    "latitude": null,
    "phone": "8039200592",
    "website_url": null,
    "state": "South Carolina",
    "street": null
  },
  {
    "id": "1638e0aa-5017-4c87-9b60-4de2a5b4d8f4",
    "name": "Steel Squared Brewing Company",
    "brewery_type": "contract",
    "address_1": "1597 Tiffany Ct",
    "address_2": null,
    "address_3": null,
    "city": "de Pere",
    "state_province": "Wisconsin",
    "postal_code": "54115-9042",
    "country": "United States",
    "longitude": null,
    "latitude": null,
    "phone": null,
    "website_url": null,
    "state": "Wisconsin",
    "street": "1597 Tiffany Ct"
  },
  {
    "id": "8016ba19-ba7a-4ea1-bd8f-86203aa8fa08",
    "name": "Steel String Craft Brewery",
    "brewery_type": "brewpub",
    "address_1": "106 S Greensboro St Ste A",
    "address_2": null,
    "address_3": null,
    "city": "Carrboro",
    "state_province": "North Carolina",
    "postal_code": "27510-2266",
    "country": "United States",
    "longitude": null,
    "latitude": null,
    "phone": "9192407215",
    "website_url": "http://www.steelstringbrewery.com",
    "state": "North Carolina",
    "street": "106 S Greensboro St Ste A"
  },
  {
    "id": "d469044a-3e41-4b21-8112-582d47a656a7",
    "name": "Steel Toe Brewing",
    "brewery_type": "micro",
    "address_1": "4848 W 35th St",
    "address_2": null,
    "address_3": null,
    "city": "St Louis Park",
    "state_province": "Minnesota",
    "postal_code": "55416-2610",
    "country": "United States",
    "longitude": -93.34180586,
    "latitude": 44.94042645,
    "phone": "9529559965",
    "website_url": "http://www.steeltoebrewing.com",
    "state": "Minnesota",
    "street": "4848 W 35th St"
  },
  {
    "id": "15971ca8-5993-4fb0-8fe3-f68f2860d00a",
    "name": "Steele and Hops Public House",
    "brewery_type": "brewpub",
    "address_1": "1901 Mendocino Ave",
    "address_2": null,
    "address_3": null,
    "city": "Santa Rosa",
    "state_province": "California",
    "postal_code": "95401",
    "country": "United States",
    "longitude": -122.717258,
    "latitude": 38.459216,
    "phone": "7075232201",
    "website_url": "http://www.steeleandhops.com",
    "state": "California",
    "street": "1901 Mendocino Ave"
  },
  {
    "id": "7a9a8bce-cd3d-4518-9647-82f6b4408abb",
    "name": "SteelHead Aleworks",
    "brewery_type": "micro",
    "address_1": null,
    "address_2": null,
    "address_3": null,
    "city": "Mukwonago",
    "state_province": "Wisconsin",
    "postal_code": "53149",
    "country": "United States",
    "longitude": null,
    "latitude": null,
    "phone": null,
    "website_url": "http://www.stealheadaleworks.com",
    "state": "Wisconsin",
    "street": null
  },
  {
    "id": "49822141-1c9d-4fd3-8218-6315d80d0c9f",
    "name": "Steelhead Brewing Co - Burlingame Station",
    "brewery_type": "brewpub",
    "address_1": "333 California Dr",
    "address_2": null,
    "address_3": null,
    "city": "Burlingame",
    "state_province": "California",
    "postal_code": "94010-4114",
    "country": "United States",
    "longitude": -122.3462607,
    "latitude": 37.5799728,
    "phone": "6503446050",
    "website_url": "http://www.steelheadbrewery.com",
    "state": "California",
    "street": "333 California Dr"
  },
  {
    "id": "41226f84-764d-4250-9993-2ef81a7472d9",
    "name": "Steens Mountain Brewing Company",
    "brewery_type": "micro",
    "address_1": "673 B W Monroe St",
    "address_2": null,
    "address_3": null,
    "city": "Burns",
    "state_province": "Oregon",
    "postal_code": "97720",
    "country": "United States",
    "longitude": -119.060813,
    "latitude": 43.585639,
    "phone": "5415891159",
    "website_url": null,
    "state": "Oregon",
    "street": "673 B W Monroe St"
  },
  {
    "id": "9164b9c4-f14f-41ef-851f-994b79502e3d",
    "name": "Steeple Brewing Co",
    "brewery_type": "micro",
    "address_1": "717 W 1st St",
    "address_2": null,
    "address_3": null,
    "city": "Hastings",
    "state_province": "Nebraska",
    "postal_code": "68901",
    "country": "United States",
    "longitude": -98.39024973,
    "latitude": 40.58418233,
    "phone": "4025194205",
    "website_url": "http://www.steeplebrewing.com",
    "state": "Nebraska",
    "street": "717 W 1st St"
  },
  {
    "id": "4142b73a-3079-4c57-ac64-9577f134a13b",
    "name": "Stein Brewing Company",
    "brewery_type": "planning",
    "address_1": null,
    "address_2": null,
    "address_3": null,
    "city": "Mount Vernon",
    "state_province": "Ohio",
    "postal_code": "43050-3323",
    "country": "United States",
    "longitude": null,
    "latitude": null,
    "phone": null,
    "website_url": "http://www.SteinBrewCo.com",
    "state": "Ohio",
    "street": null
  },
  {
    "id": "7bfc0b84-5f81-4277-80ee-ea3633c6d1d4",
    "name": "Stein Brewing Company",
    "brewery_type": "micro",
    "address_1": "2516 49th St",
    "address_2": null,
    "address_3": null,
    "city": "Boulder",
    "state_province": "Colorado",
    "postal_code": "80301-2455",
    "country": "United States",
    "longitude": -105.2378323,
    "latitude": 40.0238083,
    "phone": "3033960384",
    "website_url": "http://www.jwellsbrewery.com",
    "state": "Colorado",
    "street": "2516 49th St"
  },
  {
    "id": "061fff88-4a8a-4a81-8a99-2ac2d203732c",
    "name": "Steinhardt Brewing Company",
    "brewery_type": "micro",
    "address_1": "5710 Jefferson Blvd",
    "address_2": null,
    "address_3": null,
    "city": "Frederick",
    "state_province": "Maryland",
    "postal_code": "21703-6947",
    "country": "United States",
    "longitude": -77.512519,
    "latitude": 39.391045,
    "phone": null,
    "website_url": "http://www.steinhardtbrewing.com",
    "state": "Maryland",
    "street": "5710 Jefferson Blvd"
  },
  {
    "id": "17086f05-6d04-4e38-8924-8b16ad921480",
    "name": "Stellwagen Beer Company",
    "brewery_type": "planning",
    "address_1": null,
    "address_2": null,
    "address_3": null,
    "city": "Marshfield",
    "state_province": "Massachusetts",
    "postal_code": "02050",
    "country": "United States",
    "longitude": null,
    "latitude": null,
    "phone": "7817899162",
    "website_url": "http://www.stellwagenbeer.com",
    "state": "Massachusetts",
    "street": null
  },
  {
    "id": "0d1246aa-303a-4e8f-83a8-bf1410ec1279",
    "name": "Stemma Brewing Co",
    "brewery_type": "micro",
    "address_1": "2039 Moore St.",
    "address_2": null,
    "address_3": null,
    "city": "Bellingham",
    "state_province": "Washington",
    "postal_code": "98229",
    "country": "United States",
    "longitude": -122.46103,
    "latitude": 48.75759,
    "phone": "3607468385",
    "website_url": "https://www.stemmabrewing.com/",
    "state": "Washington",
    "street": "2039 Moore St."
  },
  {
    "id": "c4e6598e-6254-4585-9294-66cbdcbc4b79",
    "name": "Stereo Brewing Co",
    "brewery_type": "micro",
    "address_1": "950 S Via Rodeo",
    "address_2": null,
    "address_3": null,
    "city": "Placentia",
    "state_province": "California",
    "postal_code": "92870-6775",
    "country": "United States",
    "longitude": -117.8200802,
    "latitude": 33.86330957,
    "phone": "7149933390",
    "website_url": "http://www.stereobrewing.com",
    "state": "California",
    "street": "950 S Via Rodeo"
  },
  {
    "id": "2119dc54-184b-4f1e-ada6-f085576e3760",
    "name": "Sterling Beer Co.",
    "brewery_type": "contract",
    "address_1": "3214 Preston Hwy",
    "address_2": null,
    "address_3": null,
    "city": "Louisville",
    "state_province": "Kentucky",
    "postal_code": "40213-1330",
    "country": "United States",
    "longitude": -85.7347014,
    "latitude": 38.2019083,
    "phone": "5022338485",
    "website_url": "http://www.sterlingbeer.com",
    "state": "Kentucky",
    "street": "3214 Preston Hwy"
  },
  {
    "id": "a47291a8-90f1-4b37-b517-e857fbf66b5f",
    "name": "Sterling Pig Brewery",
    "brewery_type": "brewpub",
    "address_1": "609 W State St",
    "address_2": null,
    "address_3": null,
    "city": "Media",
    "state_province": "Pennsylvania",
    "postal_code": "19063-2641",
    "country": "United States",
    "longitude": -75.3949477,
    "latitude": 39.918688,
    "phone": "4844442526",
    "website_url": "http://www.sterlingpigbrewery.com",
    "state": "Pennsylvania",
    "street": "609 W State St"
  },
  {
    "id": "c91229a8-b327-4d38-94e9-473265759cb1",
    "name": "Stesti Brewing Company",
    "brewery_type": "micro",
    "address_1": "1314 FM 2915",
    "address_2": null,
    "address_3": null,
    "city": "Lovelady",
    "state_province": "Texas",
    "postal_code": "75851",
    "country": "United States",
    "longitude": null,
    "latitude": null,
    "phone": "9362046858",
    "website_url": null,
    "state": "Texas",
    "street": "1314 FM 2915"
  },
  {
    "id": "8e78d6ea-2ed7-4489-b050-cb3b0456cea1",
    "name": "Steuben Brewing Company",
    "brewery_type": "micro",
    "address_1": "10286 Judson Rd",
    "address_2": null,
    "address_3": null,
    "city": "Hammondsport",
    "state_province": "New York",
    "postal_code": "14840-9668",
    "country": "United States",
    "longitude": null,
    "latitude": null,
    "phone": "6072798874",
    "website_url": "http://www.steubenbrewingcompany.com",
    "state": "New York",
    "street": "10286 Judson Rd"
  }
]