[
  {
    "id": "07070d73-6cfd-409b-ac55-e8bb95d19884",
    "name": "Karst Brewing LLC",
    "brewery_type": "micro",
    "address_1": "315 1st St",
    "address_2": null,
    "address_3": null,
    "city": "Fountain",
    "state_province": "Minnesota",
    "postal_code": "55935-8816",
    "country": "United States",
    "longitude": -92.13521386,
    "latitude": 43.73997404,
    "phone": "6127476367",
    "website_url": "http://www.karstbrewed.com",
    "state": "Minnesota",
    "street": "315 1st St"
  },
  {
    "id": "89f65ec7-dd3b-4449-a9fe-3cc3b16ce365",
    "name": "Kassik's Brewery",
    "brewery_type": "micro",
    "address_1": "47160 Spruce Haven St",
    "address_2": null,
    "address_3": null,
    "city": "Kenai",
    "state_province": "Alaska",
    "postal_code": "99611-9677",
    "country": "United States",
    "longitude": -151.307721,
    "latitude": 60.663773,
    "phone": null,
    "website_url": null,
    "state": "Alaska",
    "street": "47160 Spruce Haven St"
  },
  {
    "id": "0e970da0-ccda-4d50-a8bf-4e84181cc790",
    "name": "Kastaway Brewing Co",
    "brewery_type": "planning",
    "address_1": null,
    "address_2": null,
    "address_3": null,
    "city": "Katy",
    "state_province": "Texas",
    "postal_code": "77493",
    "country": "United States",
    "longitude": null,
    "latitude": null,
    "phone": null,
    "website_url": null,
    "state": "Texas",
    "street": null
  },
  {
    "id": "0ec19b32-9ede-4830-be24-e417a317ef43",
    "name": "Katabatic Brewing Co",
    "brewery_type": "micro",
    "address_1": "117 W Park St",
    "address_2": null,
    "address_3": null,
    "city": "Livingston",
    "state_province": "Montana",
    "postal_code": "59047-2626",
    "country": "United States",
    "longitude": null,
    "latitude": null,
    "phone": "4063332855",
    "website_url": "http://www.katabaticbrewing.com",
    "state": "Montana",
    "street": "117 W Park St"
  },
  {
    "id": "ca8100c4-aeed-4481-bc51-10d2fcd733b6",
    "name": "Kathrin's Biergarten",
    "brewery_type": "brewpub",
    "address_1": "4810 Granite Dr Ste 1A",
    "address_2": null,
    "address_3": null,
    "city": "Rocklin",
    "state_province": "California",
    "postal_code": "95677",
    "country": "United States",
    "longitude": -121.2241825,
    "latitude": 38.79092485,
    "phone": "9162517502",
    "website_url": "http://www.kathrinsbiergarten.com",
    "state": "California",
    "street": "4810 Granite Dr Ste 1A"
  },
  {
    "id": "581746ff-1964-4836-8176-966bf9cd3bd7",
    "name": "Kauai Beer Company",
    "brewery_type": "brewpub",
    "address_1": "4265 Rice St",
    "address_2": null,
    "address_3": null,
    "city": "Lihue",
    "state_province": "Hawaii",
    "postal_code": "96766",
    "country": "United States",
    "longitude": -159.3647876,
    "latitude": 21.9722854,
    "phone": "8082452337",
    "website_url": "http://www.kauaibeer.com",
    "state": "Hawaii",
    "street": "4265 Rice St"
  },
  {
    "id": "9374fec3-c538-4132-a158-9543aedd32df",
    "name": "Kauai Island Brewery",
    "brewery_type": "brewpub",
    "address_1": "4350 Waialo Rd",
    "address_2": null,
    "address_3": null,
    "city": "Eleele",
    "state_province": "Hawaii",
    "postal_code": "96705",
    "country": "United States",
    "longitude": -159.586522,
    "latitude": 21.901641,
    "phone": "8083350006",
    "website_url": "http://www.kauaiislandbrewing.com",
    "state": "Hawaii",
    "street": "4350 Waialo Rd"
  },
  {
    "id": "0b07d04e-8ede-4294-aeb7-a9cc759fd537",
    "name": "Kaweah Brewing Co.",
    "brewery_type": "micro",
    "address_1": "1054 E Walnut Ave",
    "address_2": null,
    "address_3": null,
    "city": "Tulare",
    "state_province": "California",
    "postal_code": "93274",
    "country": "United States",
    "longitude": -119.3349798,
    "latitude": 36.19307993,
    "phone": "5599725573",
    "website_url": "http://www.kaweahbrewing.com",
    "state": "California",
    "street": "1054 E Walnut Ave"
  },
  {
    "id": "c0eadf1a-e33e-4721-8e7c-d9e1c6835582",
    "name": "Keegan Ales",
    "brewery_type": "micro",
    "address_1": "20 Saint James St",
    "address_2": null,
    "address_3": null,
    "city": "Kingston",
    "state_province": "New York",
    "postal_code": "12401-4534",
    "country": "United States",
    "longitude": -74.012151,
    "latitude": 41.931636,
    "phone": "8453312739",
    "website_url": "http://www.keeganales.com",
    "state": "New York",
    "street": "20 Saint James St"
  },
  {
    "id": "4abee17c-99ad-42b6-ab38-348e1ec56c19",
    "name": "Keen Brewing",
    "brewery_type": "planning",
    "address_1": null,
    "address_2": null,
    "address_3": null,
    "city": "Jacksonville",
    "state_province": "Florida",
    "postal_code": "32204-1806",
    "country": "United States",
    "longitude": null,
    "latitude": null,
    "phone": "9044698266",
    "website_url": null,
    "state": "Florida",
    "street": null
  },
  {
    "id": "42acde68-870f-4212-ab63-12e3ec609dd8",
    "name": "Keg & Lantern Brewing Co",
    "brewery_type": "brewpub",
    "address_1": "97 Nassau Ave",
    "address_2": null,
    "address_3": null,
    "city": "Brooklyn",
    "state_province": "New York",
    "postal_code": "11222-3081",
    "country": "United States",
    "longitude": -73.95031963,
    "latitude": 40.7241037,
    "phone": "7183895050",
    "website_url": "http://www.kegandlanternbrooklyn.com",
    "state": "New York",
    "street": "97 Nassau Ave"
  },
  {
    "id": "cd1bd913-e951-4679-9314-4ed1ad3a7736",
    "name": "Keg Creek Brewing Company",
    "brewery_type": "micro",
    "address_1": "22381 221st S",
    "address_2": null,
    "address_3": null,
    "city": "Glenwood",
    "state_province": "Iowa",
    "postal_code": "51534-5183",
    "country": "United States",
    "longitude": -95.7611617,
    "latitude": 41.0257584,
    "phone": "7125209029",
    "website_url": "http://www.kegcreekbrewing.com",
    "state": "Iowa",
    "street": "22381 221st S"
  },
  {
    "id": "bbc7ea1e-ff95-4eb7-b896-8b98686af71d",
    "name": "Keg Grove Brewing Company",
    "brewery_type": "micro",
    "address_1": "712 E Empire St Ste 2",
    "address_2": null,
    "address_3": null,
    "city": "Bloomington",
    "state_province": "Illinois",
    "postal_code": "61701-3252",
    "country": "United States",
    "longitude": null,
    "latitude": null,
    "phone": null,
    "website_url": "http://keggrovebrewing.com",
    "state": "Illinois",
    "street": "712 E Empire St Ste 2"
  },
  {
    "id": "9b79a515-29de-4d79-a0a7-ff48563be76a",
    "name": "Kegg Brewing Company",
    "brewery_type": "micro",
    "address_1": "117 Faust Ln",
    "address_2": null,
    "address_3": null,
    "city": "Champion",
    "state_province": "Pennsylvania",
    "postal_code": "15622-2107",
    "country": "United States",
    "longitude": null,
    "latitude": null,
    "phone": "7249722350",
    "website_url": null,
    "state": "Pennsylvania",
    "street": "117 Faust Ln"
  },
  {
    "id": "218545f9-4d45-424e-be42-1e9fca19dc5c",
    "name": "Kei Bar",
    "brewery_type": "bar",
    "address_1": "378 East Coast Road",
    "address_2": null,
    "address_3": null,
    "city": "Singapore",
    "state_province": "Singapore",
    "postal_code": "428985",
    "country": "Singapore",
    "longitude": 1.3087788892434,
    "latitude": 103.9112709,
    "phone": "+65 8292 6363",
    "website_url": null,
    "state": "Singapore",
    "street": "378 East Coast Road"
  },
  {
    "id": "e14e681c-4337-471a-b579-e2cadb3e4119",
    "name": "Kells Brew Pub",
    "brewery_type": "brewpub",
    "address_1": "210 NW 21st Ave",
    "address_2": null,
    "address_3": null,
    "city": "Portland",
    "state_province": "Oregon",
    "postal_code": "97209-1004",
    "country": "United States",
    "longitude": -122.6941546,
    "latitude": 45.52447285,
    "phone": "5037197175",
    "website_url": "http://Kellsbrewpub.com",
    "state": "Oregon",
    "street": "210 NW 21st Ave"
  },
  {
    "id": "cbc66631-1113-4224-bcd2-148fe61e2bca",
    "name": "Kelly Green Brewing Co.",
    "brewery_type": "micro",
    "address_1": "154 S Broadway # 156",
    "address_2": null,
    "address_3": null,
    "city": "Pitman",
    "state_province": "New Jersey",
    "postal_code": "08071-2232",
    "country": "United States",
    "longitude": null,
    "latitude": null,
    "phone": "8562702876",
    "website_url": "http://www.kellygreenbrewing.com",
    "state": "New Jersey",
    "street": "154 S Broadway # 156"
  },
  {
    "id": "50914ed3-6bd6-40d5-bcf7-f1bbebb1c6ab",
    "name": "Kellys Brewpub",
    "brewery_type": "brewpub",
    "address_1": "3222 Central Ave SE",
    "address_2": null,
    "address_3": null,
    "city": "Albuquerque",
    "state_province": "New Mexico",
    "postal_code": "87106-1458",
    "country": "United States",
    "longitude": -106.6085695,
    "latitude": 35.0800666,
    "phone": "5052622739",
    "website_url": "http://www.kellysbrewpub.com",
    "state": "New Mexico",
    "street": "3222 Central Ave SE"
  },
  {
    "id": "c7eb5f72-f903-4578-bc8d-9ca20592d23c",
    "name": "Kelsen Brewing Company",
    "brewery_type": "brewpub",
    "address_1": "80 N High St Unit 3",
    "address_2": null,
    "address_3": null,
    "city": "Derry",
    "state_province": "New Hampshire",
    "postal_code": "03038-2272",
    "country": "United States",
    "longitude": null,
    "latitude": null,
    "phone": "6039653078",
    "website_url": "http://www.kelsenbrewing.com",
    "state": "New Hampshire",
    "street": "80 N High St Unit 3"
  },
  {
    "id": "48d6fc6c-48a8-4e73-bb2b-6ae47c3f6361",
    "name": "Kelsey Block Brewing Company",
    "brewery_type": "brewpub",
    "address_1": "41 N Main St",
    "address_2": null,
    "address_3": null,
    "city": "Three Rivers",
    "state_province": "Michigan",
    "postal_code": "49093-1531",
    "country": "United States",
    "longitude": -85.63333961,
    "latitude": 41.94474661,
    "phone": "2697183667",
    "website_url": "http://www.kelseyblock.com",
    "state": "Michigan",
    "street": "41 N Main St"
  },
  {
    "id": "54f07de5-d4d1-4d16-b216-02c11d7ee98b",
    "name": "Kelsey Creek Brewing",
    "brewery_type": "micro",
    "address_1": "3945 Main St",
    "address_2": null,
    "address_3": null,
    "city": "Kelseyville",
    "state_province": "California",
    "postal_code": "95451-7424",
    "country": "United States",
    "longitude": -122.8382903,
    "latitude": 38.97782568,
    "phone": "7072792311",
    "website_url": "http://www.kelseycreekbrewing.com",
    "state": "California",
    "street": "3945 Main St"
  },
  {
    "id": "f41dff48-d079-4852-9416-9a79d64f32fd",
    "name": "KelSo Beer Company",
    "brewery_type": "contract",
    "address_1": "529 Waverly Ave",
    "address_2": null,
    "address_3": null,
    "city": "Brooklyn",
    "state_province": "New York",
    "postal_code": "11238-2701",
    "country": "United States",
    "longitude": -73.96564,
    "latitude": 40.68267586,
    "phone": null,
    "website_url": "http://www.kelsoofbrooklyn.com",
    "state": "New York",
    "street": "529 Waverly Ave"
  },
  {
    "id": "2c53eb34-d7da-4310-b8c2-3457d13874b7",
    "name": "Kenai River Brewing Co",
    "brewery_type": "brewpub",
    "address_1": "308 Homestead Ln",
    "address_2": null,
    "address_3": null,
    "city": "Soldotna",
    "state_province": "Alaska",
    "postal_code": "99669-8010",
    "country": "United States",
    "longitude": -151.0561141,
    "latitude": 60.4850753,
    "phone": "9072622337",
    "website_url": "http://www.kenairiverbrewing.com",
    "state": "Alaska",
    "street": "308 Homestead Ln"
  },
  {
    "id": "45567ad8-a070-473e-a129-4e2e7a57e070",
    "name": "Kennebec River Brewery",
    "brewery_type": "brewpub",
    "address_1": "1771 US Rte 201",
    "address_2": null,
    "address_3": null,
    "city": "West Forks",
    "state_province": "Maine",
    "postal_code": "04985-0100",
    "country": "United States",
    "longitude": null,
    "latitude": null,
    "phone": "8007657238",
    "website_url": "http://www.northernoutdoors.com",
    "state": "Maine",
    "street": "1771 US Rte 201"
  },
  {
    "id": "27672b6b-dcfb-42eb-841d-6634524fb542",
    "name": "Kennebunkport Brewery / Federal Jacks",
    "brewery_type": "brewpub",
    "address_1": "8 Western Ave Ste 6",
    "address_2": null,
    "address_3": null,
    "city": "Kennebunk",
    "state_province": "Maine",
    "postal_code": "04043-7756",
    "country": "United States",
    "longitude": null,
    "latitude": null,
    "phone": "2079674311",
    "website_url": "http://www.federaljacks.com",
    "state": "Maine",
    "street": "8 Western Ave Ste 6"
  },
  {
    "id": "b5afa137-0ed6-42c1-953c-5e496af7e3dc",
    "name": "Kennedy Vineyard",
    "brewery_type": "micro",
    "address_1": "3911 State Route 722",
    "address_2": null,
    "address_3": null,
    "city": "New Madison",
    "state_province": "Ohio",
    "postal_code": "45346",
    "country": "United States",
    "longitude": null,
    "latitude": null,
    "phone": "9372738381",
    "website_url": "http://www.kennedyvineyard.net",
    "state": "Ohio",
    "street": "3911 State Route 722"
  },
  {
    "id": "7cbb7b60-b351-43c0-af7a-f5c7555992ad",
    "name": "Kennett Brewing Company",
    "brewery_type": "brewpub",
    "address_1": "109 S Broad St Ste 2",
    "address_2": null,
    "address_3": null,
    "city": "Kennett Square",
    "state_province": "Pennsylvania",
    "postal_code": "19348-3101",
    "country": "United States",
    "longitude": null,
    "latitude": null,
    "phone": "6104440440",
    "website_url": "http://www.kennettbrewingcompany.com",
    "state": "Pennsylvania",
    "street": "109 S Broad St Ste 2"
  },
  {
    "id": "e421437b-f78e-463b-8e75-760210be1021",
    "name": "Kensington Barrel Project",
    "brewery_type": "planning",
    "address_1": null,
    "address_2": null,
    "address_3": null,
    "city": "Philadelphia",
    "state_province": "Pennsylvania",
    "postal_code": "19134",
    "country": "United States",
    "longitude": null,
    "latitude": null,
    "phone": "16199488705",
    "website_url": "http://www.kensingtonbarrelproject.com",
    "state": "Pennsylvania",
    "street": null
  },
  {
    "id": "1440dc29-7dcd-446d-a9ac-c53f32b1baeb",
    "name": "Kent Falls Brewing Company",
    "brewery_type": "micro",
    "address_1": null,
    "address_2": null,
    "address_3": null,
    "city": "Kent",
    "state_province": "Connecticut",
    "postal_code": "06757",
    "country": "United States",
    "longitude": null,
    "latitude": null,
    "phone": "8603989645",
    "website_url": null,
    "state": "Connecticut",
    "street": null
  },
  {
    "id": "6a54d32a-99b0-4824-8779-f403c3ca8d26",
    "name": "Kern River Brewing Co",
    "brewery_type": "brewpub",
    "address_1": "13415 Sierra Way",
    "address_2": null,
    "address_3": null,
    "city": "Kernville",
    "state_province": "California",
    "postal_code": "93238-9714",
    "country": "United States",
    "longitude": -118.4192013,
    "latitude": 35.75768083,
    "phone": "7603762337",
    "website_url": "http://www.kernriverbrewingcompany.com",
    "state": "California",
    "street": "13415 Sierra Way"
  },
  {
    "id": "3d05adb6-96f4-4f39-8d89-68954bf26620",
    "name": "Kernersville Brewing Company",
    "brewery_type": "micro",
    "address_1": "210 N Main St",
    "address_2": null,
    "address_3": null,
    "city": "Kernersville",
    "state_province": "North Carolina",
    "postal_code": "27284-4004",
    "country": "United States",
    "longitude": -80.07181578,
    "latitude": 36.12191605,
    "phone": "3368167283",
    "website_url": null,
    "state": "North Carolina",
    "street": "210 N Main St"
  },
  {
    "id": "9ec5dc47-15d0-463a-90ba-40b06610a65f",
    "name": "Kettle and Spoke Brewery, LLC",
    "brewery_type": "micro",
    "address_1": "2500 47th St Ste 12",
    "address_2": null,
    "address_3": null,
    "city": "Boulder",
    "state_province": "Colorado",
    "postal_code": "80301-2335",
    "country": "United States",
    "longitude": null,
    "latitude": null,
    "phone": "7196509697",
    "website_url": "http://www.kettleandspoke.com",
    "state": "Colorado",
    "street": "2500 47th St Ste 12"
  },
  {
    "id": "ea45c0c1-0366-4353-be3e-0562f6564ab0",
    "name": "Kettle House Brewing Co.",
    "brewery_type": "regional",
    "address_1": "605 Coldsmoke Ave",
    "address_2": null,
    "address_3": null,
    "city": "Bonner",
    "state_province": "Montana",
    "postal_code": "59823-8504",
    "country": "United States",
    "longitude": null,
    "latitude": null,
    "phone": "4067281660",
    "website_url": "http://www.kettlehouse.com",
    "state": "Montana",
    "street": "605 Coldsmoke Ave"
  },
  {
    "id": "7818c5b5-3446-4c29-80ac-e0e51cc5bccc",
    "name": "Kettlehead Brewing Company",
    "brewery_type": "brewpub",
    "address_1": "407 W Main St",
    "address_2": null,
    "address_3": null,
    "city": "Tilton",
    "state_province": "New Hampshire",
    "postal_code": "03276-5012",
    "country": "United States",
    "longitude": -71.60013898,
    "latitude": 43.44219881,
    "phone": "6033258266",
    "website_url": "http://www.kettleheadbrewing.com",
    "state": "New Hampshire",
    "street": "407 W Main St"
  },
  {
    "id": "bae6b4b7-c453-45b9-8a33-857174f66bea",
    "name": "Kettlehouse Brewing Co - Bonner Brewery",
    "brewery_type": "micro",
    "address_1": "605 Coldsmoke Ave",
    "address_2": null,
    "address_3": null,
    "city": "Bonner",
    "state_province": "Montana",
    "postal_code": "59823-8504",
    "country": "United States",
    "longitude": null,
    "latitude": null,
    "phone": "4067281660",
    "website_url": null,
    "state": "Montana",
    "street": "605 Coldsmoke Ave"
  },
  {
    "id": "b09bd2f0-5b16-4ab1-8e0b-f305b6371ec6",
    "name": "Kettlehouse Brewing Co - Southside",
    "brewery_type": "micro",
    "address_1": "602 Myrtle St",
    "address_2": null,
    "address_3": null,
    "city": "Missoula",
    "state_province": "Montana",
    "postal_code": "59801-2704",
    "country": "United States",
    "longitude": -113.9987621,
    "latitude": 46.8655748,
    "phone": "4067281660",
    "website_url": "http://www.kettlehouse.com",
    "state": "Montana",
    "street": "602 Myrtle St"
  },
  {
    "id": "d26aba38-c5d5-4245-8d5e-349521c781f2",
    "name": "Keuka Brewing Co",
    "brewery_type": "micro",
    "address_1": "8572 Briglin Rd",
    "address_2": null,
    "address_3": null,
    "city": "Hammondsport",
    "state_province": "New York",
    "postal_code": "14840-9633",
    "country": "United States",
    "longitude": null,
    "latitude": null,
    "phone": "6078684648",
    "website_url": "http://www.keukabrewingcompany.com",
    "state": "New York",
    "street": "8572 Briglin Rd"
  },
  {
    "id": "bfe89204-c3f6-4a97-b084-d45bd61e09c2",
    "name": "Keweenaw Brewing Co",
    "brewery_type": "micro",
    "address_1": "408 Shelden Ave",
    "address_2": null,
    "address_3": null,
    "city": "Houghton",
    "state_province": "Michigan",
    "postal_code": "49931-2138",
    "country": "United States",
    "longitude": -88.5687729,
    "latitude": 47.1219857,
    "phone": "9064825596",
    "website_url": "http://www.keweenawbrewing.com",
    "state": "Michigan",
    "street": "408 Shelden Ave"
  },
  {
    "id": "84d261cb-a580-4ae6-bc2d-4a95246a91e3",
    "name": "Keweenaw Brewing Co - Production Facility",
    "brewery_type": "micro",
    "address_1": "408 Shelden Ave",
    "address_2": null,
    "address_3": null,
    "city": "Houghton",
    "state_province": "Michigan",
    "postal_code": "49931",
    "country": "United States",
    "longitude": -88.5687729,
    "latitude": 47.1219857,
    "phone": "9064821937",
    "website_url": "http://www.keweenawbrewing.com",
    "state": "Michigan",
    "street": "408 Shelden Ave"
  },
  {
    "id": "5328dad1-5eb2-4d03-83d7-4754d185cb55",
    "name": "Key Brewing Co.",
    "brewery_type": "micro",
    "address_1": "2500 Grays Rd",
    "address_2": null,
    "address_3": null,
    "city": "Dundalk",
    "state_province": "Maryland",
    "postal_code": "21222-5044",
    "country": "United States",
    "longitude": null,
    "latitude": null,
    "phone": null,
    "website_url": null,
    "state": "Maryland",
    "street": "2500 Grays Rd"
  },
  {
    "id": "7ed3f061-489d-43af-a990-1b944405bf3f",
    "name": "Key City Brewing Co.",
    "brewery_type": "brewpub",
    "address_1": "1311 Washington St.",
    "address_2": null,
    "address_3": null,
    "city": "Vicksburg",
    "state_province": "Mississippi",
    "postal_code": "39180",
    "country": "United States",
    "longitude": -90.88216445,
    "latitude": 32.34927291,
    "phone": "6264871330",
    "website_url": "http://keycitybeer.com",
    "state": "Mississippi",
    "street": "1311 Washington St."
  },
  {
    "id": "2d416c88-05cf-467a-a144-c056c5d8caeb",
    "name": "Keyhole Valley Brewing",
    "brewery_type": "closed",
    "address_1": null,
    "address_2": null,
    "address_3": null,
    "city": "Shelton",
    "state_province": "Washington",
    "postal_code": "98584",
    "country": "United States",
    "longitude": null,
    "latitude": null,
    "phone": null,
    "website_url": "http://www.keyholevalleybrewing.com",
    "state": "Washington",
    "street": null
  },
  {
    "id": "5f6a21d7-310c-4b7e-9448-b3443056f8c2",
    "name": "Khoffner Brewery LTD",
    "brewery_type": "micro",
    "address_1": "1110 NE 8th Avenue Bay #1",
    "address_2": null,
    "address_3": null,
    "city": "Fort Lauderdale",
    "state_province": "Florida",
    "postal_code": "33304",
    "country": "United States",
    "longitude": null,
    "latitude": null,
    "phone": "7547018860",
    "website_url": "http://www.khoffner.us",
    "state": "Florida",
    "street": "1110 NE 8th Avenue Bay #1"
  },
  {
    "id": "43345a90-663e-4e85-9434-777cc8be53e1",
    "name": "Kickback Brewery",
    "brewery_type": "micro",
    "address_1": "934 Osgood Hill Rd",
    "address_2": null,
    "address_3": null,
    "city": "Westford",
    "state_province": "Vermont",
    "postal_code": "05494-9740",
    "country": "United States",
    "longitude": -72.99402467,
    "latitude": 44.582023,
    "phone": "8029994997",
    "website_url": "http://www.kickbackbrewery.com",
    "state": "Vermont",
    "street": "934 Osgood Hill Rd"
  },
  {
    "id": "b5901cf4-8a11-4fac-a4e7-5297c96258a0",
    "name": "Kickstand Brewing Co",
    "brewery_type": "brewpub",
    "address_1": "3050 Union Lake Rd Ste 4A",
    "address_2": null,
    "address_3": null,
    "city": "Commerce Township",
    "state_province": "Michigan",
    "postal_code": "48382-4543",
    "country": "United States",
    "longitude": null,
    "latitude": null,
    "phone": "2483015941",
    "website_url": "http://www.kickstandbrewingco.com",
    "state": "Michigan",
    "street": "3050 Union Lake Rd Ste 4A"
  },
  {
    "id": "48c6f977-9987-4d38-9894-1ba67492c650",
    "name": "Kiitos Brewing",
    "brewery_type": "micro",
    "address_1": "608 W 700 S",
    "address_2": null,
    "address_3": null,
    "city": "Salt Lake City",
    "state_province": "Utah",
    "postal_code": "84104-1016",
    "country": "United States",
    "longitude": -111.895509,
    "latitude": 40.75505333,
    "phone": "8012013942",
    "website_url": "http://www.kiitosbrewing.com",
    "state": "Utah",
    "street": "608 W 700 S"
  },
  {
    "id": "e5feb9e8-459d-46d0-845e-cdb52c2f5f3f",
    "name": "Kildare Brewing Company",
    "brewery_type": "micro",
    "address_1": "Canal View",
    "address_2": null,
    "address_3": null,
    "city": "Sallins",
    "state_province": "Kildare",
    "postal_code": "W91 DFK2",
    "country": "Ireland",
    "longitude": -6.6668728,
    "latitude": 53.2494668,
    "phone": "35345850500",
    "website_url": "https://www.kildarebrewing.ie/",
    "state": "Kildare",
    "street": "Canal View"
  },
  {
    "id": "80c6ae17-20f4-45a1-ac71-bb5fe6f821fa",
    "name": "Killarney Brewing Company",
    "brewery_type": "micro",
    "address_1": "Muckross Rd ",
    "address_2": null,
    "address_3": null,
    "city": "Killarney",
    "state_province": "Kerry",
    "postal_code": "V93 RC95",
    "country": "Ireland",
    "longitude": -9.5092943,
    "latitude": 52.0543192,
    "phone": "353646636505",
    "website_url": "http://www.killarneybrewing.com/",
    "state": "Kerry",
    "street": "Muckross Rd "
  },
  {
    "id": "c6ba8d58-a482-428b-bd1e-6efc2f49911e",
    "name": "Kills Boro Brewing Company",
    "brewery_type": "micro",
    "address_1": "62 Van Duzer St",
    "address_2": null,
    "address_3": null,
    "city": "Staten Island",
    "state_province": "New York",
    "postal_code": "10301-3226",
    "country": "United States",
    "longitude": -74.07740788,
    "latitude": 40.636479,
    "phone": "3472778680",
    "website_url": "http://www.killsboro.com",
    "state": "New York",
    "street": "62 Van Duzer St"
  },
  {
    "id": "bebd0907-2a5a-4bb5-9a9a-1ff1cbb8bd0d",
    "name": "Kilowatt Brewing",
    "brewery_type": "micro",
    "address_1": "7576 Clairemont Mesa Blvd",
    "address_2": null,
    "address_3": null,
    "city": "San Diego",
    "state_province": "California",
    "postal_code": "92111-1504",
    "country": "United States",
    "longitude": -117.208801,
    "latitude": 32.8276353,
    "phone": "8587153998",
    "website_url": "http://www.kilowatt.beer",
    "state": "California",
    "street": "7576 Clairemont Mesa Blvd"
  }
]