[
  {
    "id": "2913aacb-935e-49a5-94cc-8bfa9121e015",
    "name": "Imprint Beer Company",
    "brewery_type": "micro",
    "address_1": "1500 Industry Rd Ste O",
    "address_2": null,
    "address_3": null,
    "city": "Hatfield",
    "state_province": "Pennsylvania",
    "postal_code": "19440-3271",
    "country": "United States",
    "longitude": null,
    "latitude": null,
    "phone": "2676403004",
    "website_url": "http://www.imprintbeer.com",
    "state": "Pennsylvania",
    "street": "1500 Industry Rd Ste O"
  },
  {
    "id": "2c4ebd88-700d-4707-bd5f-af7dcb121f75",
    "name": "In the Loop Brewing",
    "brewery_type": "micro",
    "address_1": "3338 Land O Lakes Blvd",
    "address_2": null,
    "address_3": null,
    "city": "Land O Lakes",
    "state_province": "Florida",
    "postal_code": "34639-4408",
    "country": "United States",
    "longitude": -82.46279799,
    "latitude": 28.20530858,
    "phone": "8139979189",
    "website_url": "http://www.intheloopbrewingcompany.com",
    "state": "Florida",
    "street": "3338 Land O Lakes Blvd"
  },
  {
    "id": "257bd673-0171-49b2-bf70-f9400cd08c86",
    "name": "In the Shadow Brewing",
    "brewery_type": "micro",
    "address_1": "19731 Old Burn Rd",
    "address_2": null,
    "address_3": null,
    "city": "Arlington",
    "state_province": "Washington",
    "postal_code": "98223",
    "country": "United States",
    "longitude": -122.1126057,
    "latitude": 48.17567366,
    "phone": "4258769253",
    "website_url": "https://www.itsbrewing.com",
    "state": "Washington",
    "street": "19731 Old Burn Rd"
  },
  {
    "id": "ef7d4225-1ebe-40a3-86d8-9cc79a1fc609",
    "name": "In the Woods Brewing and Spirits",
    "brewery_type": "planning",
    "address_1": null,
    "address_2": null,
    "address_3": null,
    "city": "Groveton",
    "state_province": "New Hampshire",
    "postal_code": "03582",
    "country": "United States",
    "longitude": null,
    "latitude": null,
    "phone": null,
    "website_url": null,
    "state": "New Hampshire",
    "street": null
  },
  {
    "id": "80edf45a-d8dd-458e-9e56-5ca871a77e80",
    "name": "In-Law Brewing Co",
    "brewery_type": "micro",
    "address_1": "5868 County Route 14",
    "address_2": null,
    "address_3": null,
    "city": "Chase Mills",
    "state_province": "New York",
    "postal_code": "13621-3102",
    "country": "United States",
    "longitude": -75.04830452,
    "latitude": 44.88140997,
    "phone": null,
    "website_url": "http://www.in-lawbrewingcompany.com",
    "state": "New York",
    "street": "5868 County Route 14"
  },
  {
    "id": "cfc5db6b-e633-4f32-bc38-eab080adfbd3",
    "name": "Inbound Brewco",
    "brewery_type": "micro",
    "address_1": "701 N 5th St",
    "address_2": null,
    "address_3": null,
    "city": "Minneapolis",
    "state_province": "Minnesota",
    "postal_code": "55401-1124",
    "country": "United States",
    "longitude": -93.28068766,
    "latitude": 44.98529275,
    "phone": "6126158243",
    "website_url": "http://www.inboundbrew.co",
    "state": "Minnesota",
    "street": "701 N 5th St"
  },
  {
    "id": "c59530fc-3d03-4185-b54e-870d616f379e",
    "name": "Inc 82 Brewing",
    "brewery_type": "brewpub",
    "address_1": "7370 San Ramon Rd",
    "address_2": null,
    "address_3": null,
    "city": "Dublin",
    "state_province": "California",
    "postal_code": "94568-2336",
    "country": "United States",
    "longitude": -121.9377474,
    "latitude": 37.7059588,
    "phone": "9255608344",
    "website_url": "http://www.inc82.com",
    "state": "California",
    "street": "7370 San Ramon Rd"
  },
  {
    "id": "b1327f23-762d-4110-9dca-ead7e2cfc42d",
    "name": "Incantation Brewing",
    "brewery_type": "micro",
    "address_1": "4233 S Buckley Rd",
    "address_2": null,
    "address_3": null,
    "city": "Aurora",
    "state_province": "Colorado",
    "postal_code": "80013-2947",
    "country": "United States",
    "longitude": -104.7915508,
    "latitude": 39.63993222,
    "phone": "3039035254",
    "website_url": "https://www.incantation.beer/",
    "state": "Colorado",
    "street": "4233 S Buckley Rd"
  },
  {
    "id": "5d027860-dc1f-407a-9d80-b887f6ec3b84",
    "name": "Incendiary Brewing Company",
    "brewery_type": "planning",
    "address_1": null,
    "address_2": null,
    "address_3": null,
    "city": "Winston Salem",
    "state_province": "North Carolina",
    "postal_code": "27101",
    "country": "United States",
    "longitude": null,
    "latitude": null,
    "phone": "3369999999",
    "website_url": "http://www.incendiarybrewing.com",
    "state": "North Carolina",
    "street": null
  },
  {
    "id": "391b3231-8293-4030-a8ff-d0c2a2af6e0e",
    "name": "Incline Brewing",
    "brewery_type": "planning",
    "address_1": null,
    "address_2": null,
    "address_3": null,
    "city": "Larkspur",
    "state_province": "Colorado",
    "postal_code": "80118-8721",
    "country": "United States",
    "longitude": null,
    "latitude": null,
    "phone": null,
    "website_url": null,
    "state": "Colorado",
    "street": null
  },
  {
    "id": "c63bd7c9-1614-4494-8893-077f4e21151e",
    "name": "Indeed Brewing Co",
    "brewery_type": "regional",
    "address_1": "711 15th Ave NE Ste 102",
    "address_2": null,
    "address_3": null,
    "city": "Minneapolis",
    "state_province": "Minnesota",
    "postal_code": "55413-3103",
    "country": "United States",
    "longitude": null,
    "latitude": null,
    "phone": "6128435090",
    "website_url": "http://www.indeedbrewing.com",
    "state": "Minnesota",
    "street": "711 15th Ave NE Ste 102"
  },
  {
    "id": "17e75f2d-a365-4ad0-99a7-4e5b4ca3088c",
    "name": "Independence Brewing",
    "brewery_type": "regional",
    "address_1": "3913 Todd Ln Ste 607",
    "address_2": null,
    "address_3": null,
    "city": "Austin",
    "state_province": "Texas",
    "postal_code": "78744-1061",
    "country": "United States",
    "longitude": -97.7361012,
    "latitude": 30.2111313,
    "phone": "5127070099",
    "website_url": "http://www.independencebrewing.com",
    "state": "Texas",
    "street": "3913 Todd Ln Ste 607"
  },
  {
    "id": "c54a8c94-38ec-45b9-a641-e2782a61f6b7",
    "name": "Independent Brewing Co",
    "brewery_type": "micro",
    "address_1": "444 Harrison St",
    "address_2": null,
    "address_3": null,
    "city": "Oakland",
    "state_province": "California",
    "postal_code": "94607-4118",
    "country": "United States",
    "longitude": -122.2711853,
    "latitude": 37.7964297,
    "phone": null,
    "website_url": null,
    "state": "California",
    "street": "444 Harrison St"
  },
  {
    "id": "903fc6d6-d574-4b60-aaee-4ca4ea06c9a5",
    "name": "Independent Brewing Company",
    "brewery_type": "micro",
    "address_1": "418 N Main St",
    "address_2": null,
    "address_3": null,
    "city": "Bel Air",
    "state_province": "Maryland",
    "postal_code": "21014-3509",
    "country": "United States",
    "longitude": -76.35647784,
    "latitude": 39.53986125,
    "phone": "4108368313",
    "website_url": null,
    "state": "Maryland",
    "street": "418 N Main St"
  },
  {
    "id": "73357541-682f-4a38-89c0-599682ed8dbc",
    "name": "Independent Fermentations Brewing",
    "brewery_type": "micro",
    "address_1": "127 Camelot Dr Ste 3",
    "address_2": null,
    "address_3": null,
    "city": "Plymouth",
    "state_province": "Massachusetts",
    "postal_code": "02360-3039",
    "country": "United States",
    "longitude": null,
    "latitude": null,
    "phone": "5087464634",
    "website_url": "http://www.independentfermentations.com",
    "state": "Massachusetts",
    "street": "127 Camelot Dr Ste 3"
  },
  {
    "id": "7df04f36-9a89-4cff-8ed2-19eb90019a76",
    "name": "Indian Joe Brewing",
    "brewery_type": "micro",
    "address_1": "2123 Industrial Ct",
    "address_2": null,
    "address_3": null,
    "city": "Vista",
    "state_province": "California",
    "postal_code": "92081-7900",
    "country": "United States",
    "longitude": -117.2204292,
    "latitude": 33.1694168,
    "phone": "7602953945",
    "website_url": "http://www.indianjoebrewing.com",
    "state": "California",
    "street": "2123 Industrial Ct"
  },
  {
    "id": "84f1650a-80f6-47d0-9af0-b469e846829d",
    "name": "Indian Ladder Farmstead Brewery and Cidery",
    "brewery_type": "micro",
    "address_1": "342 Altamont Rd",
    "address_2": null,
    "address_3": null,
    "city": "Altamont",
    "state_province": "New York",
    "postal_code": "12009-3500",
    "country": "United States",
    "longitude": null,
    "latitude": null,
    "phone": "5185771484",
    "website_url": "http://www.ilfcb.com",
    "state": "New York",
    "street": "342 Altamont Rd"
  },
  {
    "id": "fb6a0065-5bf8-4a97-8036-bba568020d92",
    "name": "Indian Springs Brewing Company",
    "brewery_type": "proprietor",
    "address_1": "109 E Main St",
    "address_2": null,
    "address_3": null,
    "city": "Neosho",
    "state_province": "Missouri",
    "postal_code": "64850-1810",
    "country": "United States",
    "longitude": -94.36740902,
    "latitude": 36.86853698,
    "phone": "4174549498",
    "website_url": "http://www.indianspringsbrewing.com",
    "state": "Missouri",
    "street": "109 E Main St"
  },
  {
    "id": "8be1fd6d-0452-4ec6-b6d9-4990a6993d28",
    "name": "Indian Valley Brewing",
    "brewery_type": "micro",
    "address_1": "14 Commercial Blvd Ste 125",
    "address_2": null,
    "address_3": null,
    "city": "Novato",
    "state_province": "California",
    "postal_code": "94949-6110",
    "country": "United States",
    "longitude": -122.5350144,
    "latitude": 38.06828367,
    "phone": "4153014983",
    "website_url": "http://www.indianvalleybrewing.com",
    "state": "California",
    "street": "14 Commercial Blvd Ste 125"
  },
  {
    "id": "7693e499-882f-448f-86a8-5527fbc22961",
    "name": "Indian Wells Brewing Co",
    "brewery_type": "micro",
    "address_1": "2565 State Highway 14",
    "address_2": null,
    "address_3": null,
    "city": "Inyokern",
    "state_province": "California",
    "postal_code": "93527-2700",
    "country": "United States",
    "longitude": -117.8727845,
    "latitude": 35.6675286,
    "phone": "7603775989",
    "website_url": "http://www.mojave-red.com",
    "state": "California",
    "street": "2565 State Highway 14"
  },
  {
    "id": "14b7019d-d662-4403-b315-7466e59d39a3",
    "name": "Indiana City Brewing",
    "brewery_type": "micro",
    "address_1": "24 Shelby Street",
    "address_2": null,
    "address_3": null,
    "city": "Indianapolis",
    "state_province": "Indiana",
    "postal_code": "46202-3941",
    "country": "United States",
    "longitude": -86.141258,
    "latitude": 39.7661102,
    "phone": "3176431103",
    "website_url": "http://indianacitybeer.com",
    "state": "Indiana",
    "street": "24 Shelby Street"
  },
  {
    "id": "dcb29c7b-b8ee-4ae0-a762-aa0df714dddd",
    "name": "Indie Brewing Company",
    "brewery_type": "micro",
    "address_1": "2350 Sunrise St",
    "address_2": null,
    "address_3": null,
    "city": "Los Angeles",
    "state_province": "California",
    "postal_code": "90023-1036",
    "country": "United States",
    "longitude": -118.2227391,
    "latitude": 34.0358529,
    "phone": "3233544285",
    "website_url": "http://indiebrewco.com",
    "state": "California",
    "street": "2350 Sunrise St"
  },
  {
    "id": "24e29ba9-71d6-4125-9921-96512e6944d5",
    "name": "Indigo Reef Brewing Company",
    "brewery_type": "micro",
    "address_1": "2079 Wambaw Creek Unit 1",
    "address_2": null,
    "address_3": null,
    "city": "Charleston",
    "state_province": "South Carolina",
    "postal_code": "29492",
    "country": "United States",
    "longitude": -79.90995,
    "latitude": 32.90352,
    "phone": "8438676015",
    "website_url": "https://www.indigoreefbrewing.com/",
    "state": "South Carolina",
    "street": "2079 Wambaw Creek Unit 1"
  },
  {
    "id": "f683b809-ff71-4f95-99a1-febed584ac36",
    "name": "Industrial Arts Brewing Co.",
    "brewery_type": "micro",
    "address_1": "55 W Railroad Ave # 25W",
    "address_2": null,
    "address_3": null,
    "city": "Garnerville",
    "state_province": "New York",
    "postal_code": "10923-1261",
    "country": "United States",
    "longitude": null,
    "latitude": null,
    "phone": "8459428776",
    "website_url": "http://www.industrialartsbrewing.com",
    "state": "New York",
    "street": "55 W Railroad Ave # 25W"
  },
  {
    "id": "25da3374-54cf-4773-bec9-dc400671af73",
    "name": "Industrial Revolution Brewing Company",
    "brewery_type": "micro",
    "address_1": "285 Cheesman St",
    "address_2": null,
    "address_3": null,
    "city": "Erie",
    "state_province": "Colorado",
    "postal_code": "80516-8464",
    "country": "United States",
    "longitude": -105.0477556,
    "latitude": 40.05161529,
    "phone": "3038281200",
    "website_url": null,
    "state": "Colorado",
    "street": "285 Cheesman St"
  },
  {
    "id": "dc0256fa-9a1f-4758-a2c0-73175c17ae2d",
    "name": "Industry Brewery",
    "brewery_type": "planning",
    "address_1": null,
    "address_2": null,
    "address_3": null,
    "city": "Houston",
    "state_province": "Texas",
    "postal_code": "77024-7146",
    "country": "United States",
    "longitude": null,
    "latitude": null,
    "phone": "7138514130",
    "website_url": null,
    "state": "Texas",
    "street": null
  },
  {
    "id": "1ac07781-e350-4498-a472-95cf83790adf",
    "name": "Industry Brewing",
    "brewery_type": "brewpub",
    "address_1": "8012 N Hale Ave",
    "address_2": null,
    "address_3": null,
    "city": "Peoria",
    "state_province": "Illinois",
    "postal_code": "61615-2050",
    "country": "United States",
    "longitude": -89.60764563,
    "latitude": 40.78613406,
    "phone": "3098392930",
    "website_url": "http://www.spicehospgroup.com",
    "state": "Illinois",
    "street": "8012 N Hale Ave"
  },
  {
    "id": "93d9f4fb-7f29-4f3b-bac7-c9e9cca9600e",
    "name": "Infamous Brewing",
    "brewery_type": "micro",
    "address_1": "4602 Weletka Dr",
    "address_2": null,
    "address_3": null,
    "city": "Austin",
    "state_province": "Texas",
    "postal_code": "78734-1829",
    "country": "United States",
    "longitude": null,
    "latitude": null,
    "phone": "5124878786",
    "website_url": "http://www.infamousbrewing.com",
    "state": "Texas",
    "street": "4602 Weletka Dr"
  },
  {
    "id": "c169996a-d5d7-4499-b868-ca921a80d2a6",
    "name": "Infinite Ale Works",
    "brewery_type": "micro",
    "address_1": "304 S Magnolia Ave",
    "address_2": null,
    "address_3": null,
    "city": "Ocala",
    "state_province": "Florida",
    "postal_code": "34471-1158",
    "country": "United States",
    "longitude": -82.1362315,
    "latitude": 29.1244956,
    "phone": "3525726083",
    "website_url": "http://InfiniteAleWorks.com",
    "state": "Florida",
    "street": "304 S Magnolia Ave"
  },
  {
    "id": "2cea348d-f05f-471b-a911-79a5ed5b4262",
    "name": "Infusion Brewing Company - Benson",
    "brewery_type": "micro",
    "address_1": "6115 Maple St",
    "address_2": null,
    "address_3": null,
    "city": "Omaha",
    "state_province": "Nebraska",
    "postal_code": "68104-4043",
    "country": "United States",
    "longitude": -96.007724,
    "latitude": 41.284907,
    "phone": "4029342064",
    "website_url": "http://www.infusionbrewing.com",
    "state": "Nebraska",
    "street": "6115 Maple St"
  },
  {
    "id": "8f012711-6e6e-4f02-ab5c-e67a5c6e5c44",
    "name": "Infusion Brewing Company - Southwest",
    "brewery_type": "micro",
    "address_1": "6271 S 118th St",
    "address_2": null,
    "address_3": null,
    "city": "Omaha",
    "state_province": "Nebraska",
    "postal_code": "68137-3574",
    "country": "United States",
    "longitude": -96.0980711,
    "latitude": 41.2077948,
    "phone": "4029342064",
    "website_url": "http://www.infusionbrewing.com",
    "state": "Nebraska",
    "street": "6271 S 118th St"
  },
  {
    "id": "64aa273d-2bdc-4bc8-a501-99905a1d070d",
    "name": "Infusion Brewing Company of Trinity",
    "brewery_type": "micro",
    "address_1": "7813 Mitchell Blvd",
    "address_2": null,
    "address_3": null,
    "city": "New Port Richey",
    "state_province": "Florida",
    "postal_code": "34655-4723",
    "country": "United States",
    "longitude": null,
    "latitude": null,
    "phone": "7273124512",
    "website_url": null,
    "state": "Florida",
    "street": "7813 Mitchell Blvd"
  },
  {
    "id": "0f10f6cc-b446-4348-97e7-38533986a0ad",
    "name": "Ingenious Brewing Company",
    "brewery_type": "micro",
    "address_1": "1986 S Houston Ave",
    "address_2": null,
    "address_3": null,
    "city": "Humble",
    "state_province": "Texas",
    "postal_code": "77396-1507",
    "country": "United States",
    "longitude": -95.2633815,
    "latitude": 29.9748544,
    "phone": "8324122142",
    "website_url": "http://www.ingeniousbeer.com",
    "state": "Texas",
    "street": "1986 S Houston Ave"
  },
  {
    "id": "21cbcded-b764-49d4-898c-92a18dd1983f",
    "name": "Inland Ale Works Brewing Co",
    "brewery_type": "micro",
    "address_1": "505 1st St",
    "address_2": null,
    "address_3": null,
    "city": "Cheney",
    "state_province": "Washington",
    "postal_code": "99004",
    "country": "United States",
    "longitude": -117.5746659,
    "latitude": 47.48762493,
    "phone": "5092352037",
    "website_url": "https://inlandaleworksbrewing.square.site",
    "state": "Washington",
    "street": "505 1st St"
  },
  {
    "id": "d2a69eb1-5b6b-417b-b5d1-6d8b9e46702d",
    "name": "Inland Empire Brewing Co",
    "brewery_type": "proprietor",
    "address_1": "1710 Palmyrita Ave Ste 11",
    "address_2": null,
    "address_3": null,
    "city": "Riverside",
    "state_province": "California",
    "postal_code": "92507-1627",
    "country": "United States",
    "longitude": -117.3485896,
    "latitude": 34.00435346,
    "phone": "9516437687",
    "website_url": "http://www.iebrew.com",
    "state": "California",
    "street": "1710 Palmyrita Ave Ste 11"
  },
  {
    "id": "3e68be75-66a6-4974-9eab-3e5ee34a2717",
    "name": "Inland Wharf Brewing Company",
    "brewery_type": "micro",
    "address_1": "26440 Jefferson Ave Ste A",
    "address_2": null,
    "address_3": null,
    "city": "Murrieta",
    "state_province": "California",
    "postal_code": "92562-6951",
    "country": "United States",
    "longitude": -117.1781802,
    "latitude": 33.5346449,
    "phone": "9516967999",
    "website_url": "http://www.inlandwharfbrewing.com",
    "state": "California",
    "street": "26440 Jefferson Ave Ste A"
  },
  {
    "id": "de007555-83ec-4b44-b54c-32c0befded7d",
    "name": "Inlet Brewing Co",
    "brewery_type": "proprietor",
    "address_1": "4448 Nicole Cir",
    "address_2": null,
    "address_3": null,
    "city": "Jupiter",
    "state_province": "Florida",
    "postal_code": "33469",
    "country": "United States",
    "longitude": -80.10011389,
    "latitude": 26.96003048,
    "phone": "5613390004",
    "website_url": "http://www.inletbrewingco.com",
    "state": "Florida",
    "street": "4448 Nicole Cir"
  },
  {
    "id": "9c5f000c-f091-43c8-9bef-8a7031edbc30",
    "name": "Inn On Peaks Island Brewery, The",
    "brewery_type": "brewpub",
    "address_1": "33 Island Ave",
    "address_2": null,
    "address_3": null,
    "city": "Peaks Island",
    "state_province": "Maine",
    "postal_code": "04108-1333",
    "country": "United States",
    "longitude": -70.1979666,
    "latitude": 43.65417851,
    "phone": "2077665100",
    "website_url": "http://www.innonpeaks.com",
    "state": "Maine",
    "street": "33 Island Ave"
  },
  {
    "id": "bddf12ae-541c-4c95-8b14-0f107296582c",
    "name": "Inner Compass Brewing",
    "brewery_type": "micro",
    "address_1": "300 E 2nd St",
    "address_2": null,
    "address_3": null,
    "city": "Sanford",
    "state_province": "Florida",
    "postal_code": "32771-1312",
    "country": "United States",
    "longitude": -81.270294,
    "latitude": 28.810888,
    "phone": "4074071792",
    "website_url": "http://www.innercompassbrewing.com",
    "state": "Florida",
    "street": "300 E 2nd St"
  },
  {
    "id": "c15aae1a-0782-4cf8-8a03-00e986ba7511",
    "name": "InnerSpace Brewing Company",
    "brewery_type": "micro",
    "address_1": "2414 Clinton Ave W",
    "address_2": null,
    "address_3": null,
    "city": "Huntsville",
    "state_province": "Alabama",
    "postal_code": "35805-3014",
    "country": "United States",
    "longitude": -86.5932014,
    "latitude": 34.7277523,
    "phone": "2564895599",
    "website_url": "http://www.innerspacebrewing.com",
    "state": "Alabama",
    "street": "2414 Clinton Ave W"
  },
  {
    "id": "f52e5cfe-99ba-4c8b-ad2a-2bba33c29e24",
    "name": "Innovation Brew Works",
    "brewery_type": "micro",
    "address_1": "3650 W Temple Ave Bldg 220A",
    "address_2": null,
    "address_3": null,
    "city": "Pomona",
    "state_province": "California",
    "postal_code": "91768-2582",
    "country": "United States",
    "longitude": -117.8148645,
    "latitude": 34.05000627,
    "phone": "9098692788",
    "website_url": "http://www.ibrewworks.com/",
    "state": "California",
    "street": "3650 W Temple Ave Bldg 220A"
  },
  {
    "id": "e4cad2e2-73fb-4fa2-9705-85a1507acfca",
    "name": "Innovation Brewing",
    "brewery_type": "brewpub",
    "address_1": "414 W Main St",
    "address_2": null,
    "address_3": null,
    "city": "Sylva",
    "state_province": "North Carolina",
    "postal_code": "28779-5548",
    "country": "United States",
    "longitude": -83.22208589,
    "latitude": 35.37361923,
    "phone": "8285869678",
    "website_url": "http://www.innovationbrewing.com",
    "state": "North Carolina",
    "street": "414 W Main St"
  },
  {
    "id": "a1740e03-084e-4970-8a36-6a2b9653a92f",
    "name": "Inoculum Ale Works",
    "brewery_type": "micro",
    "address_1": "1320 Commercial Way",
    "address_2": null,
    "address_3": null,
    "city": "Spring Hill",
    "state_province": "Florida",
    "postal_code": "34606",
    "country": "United States",
    "longitude": -82.551896,
    "latitude": 28.6060793,
    "phone": null,
    "website_url": "http://www.inoculumaleworks.com",
    "state": "Florida",
    "street": "1320 Commercial Way"
  },
  {
    "id": "a0d63612-aa12-440a-89fe-da702b1bbeec",
    "name": "Inside Passage Brewing Company LLC",
    "brewery_type": "closed",
    "address_1": null,
    "address_2": null,
    "address_3": null,
    "city": "Ketchikan",
    "state_province": "Alaska",
    "postal_code": "99901-6502",
    "country": "United States",
    "longitude": -131.6466819,
    "latitude": 55.3430696,
    "phone": "5133240762",
    "website_url": null,
    "state": "Alaska",
    "street": null
  },
  {
    "id": "0fd5160d-52eb-4624-a69c-4553618bf8d6",
    "name": "Inside The Five Brewing",
    "brewery_type": "brewpub",
    "address_1": "5703 Main St",
    "address_2": null,
    "address_3": null,
    "city": "Sylvania",
    "state_province": "Ohio",
    "postal_code": "43560-4901",
    "country": "United States",
    "longitude": -83.70328149,
    "latitude": 41.71726502,
    "phone": "5674087212",
    "website_url": "http://www.insidethefive.com",
    "state": "Ohio",
    "street": "5703 Main St"
  },
  {
    "id": "c7a00c2e-2404-40ca-9157-3819026eac99",
    "name": "Insight Brewing Company",
    "brewery_type": "micro",
    "address_1": "2821 E Hennepin Ave",
    "address_2": null,
    "address_3": null,
    "city": "Minneapolis",
    "state_province": "Minnesota",
    "postal_code": "55413-2916",
    "country": "United States",
    "longitude": -93.2702061,
    "latitude": 44.9812702,
    "phone": null,
    "website_url": null,
    "state": "Minnesota",
    "street": "2821 E Hennepin Ave"
  },
  {
    "id": "f85daa7e-055a-4649-96e5-9f0527548728",
    "name": "Institution Ale Company",
    "brewery_type": "brewpub",
    "address_1": "3841 Mission Oaks Blvd",
    "address_2": null,
    "address_3": null,
    "city": "Camarillo",
    "state_province": "California",
    "postal_code": "93012-5036",
    "country": "United States",
    "longitude": -119.0203372,
    "latitude": 34.21646691,
    "phone": "8054823777",
    "website_url": "http://www.institutionales.com",
    "state": "California",
    "street": "3841 Mission Oaks Blvd"
  },
  {
    "id": "e2c014f0-d1c8-43cc-a8c7-639fa846abcb",
    "name": "Insurgent Brewing Co. LLC",
    "brewery_type": "micro",
    "address_1": "990 N State Route 89 Ste B",
    "address_2": null,
    "address_3": null,
    "city": "Chino Valley",
    "state_province": "Arizona",
    "postal_code": "86323-5139",
    "country": "United States",
    "longitude": null,
    "latitude": null,
    "phone": "9289254773",
    "website_url": "http://www.insurgentbrewingco.com",
    "state": "Arizona",
    "street": "990 N State Route 89 Ste B"
  },
  {
    "id": "9131dabf-d066-425f-bd88-cb0c3a26952b",
    "name": "Insurrection Aleworks",
    "brewery_type": "micro",
    "address_1": "1635 E Railroad St",
    "address_2": null,
    "address_3": null,
    "city": "Heidelberg",
    "state_province": "Pennsylvania",
    "postal_code": "15106-4026",
    "country": "United States",
    "longitude": -80.08755441,
    "latitude": 40.39264014,
    "phone": "4122762030",
    "website_url": "http://insurrectionaleworks.com",
    "state": "Pennsylvania",
    "street": "1635 E Railroad St"
  },
  {
    "id": "acd68c1e-2f4c-4cc4-a68c-91e0b4c996e7",
    "name": "Interboro Spirits And Ales",
    "brewery_type": "brewpub",
    "address_1": "942 Grand St",
    "address_2": null,
    "address_3": null,
    "city": "Brooklyn",
    "state_province": "New York",
    "postal_code": "11211-2707",
    "country": "United States",
    "longitude": -73.9369567,
    "latitude": 40.7126813,
    "phone": "6462455417",
    "website_url": "http://www.interboro.nyc",
    "state": "New York",
    "street": "942 Grand St"
  }
]