[
  {
    "id": "398dfc78-dc36-4579-9f18-7240f4bf24a3",
    "name": "Winery @Springvale",
    "brewery_type": "bar",
    "address_1": "907 East Coast Road",
    "address_2": "Springvale",
    "address_3": "#01-03",
    "city": "Singapore",
    "state_province": "Singapore",
    "postal_code": "459107",
    "country": "Singapore",
    "longitude": 1.3129317454798,
    "latitude": 103.9246936,
    "phone": "+65 9643 3188",
    "website_url": "https://www.thewinery.com.sg/siglap/",
    "state": "Singapore",
    "street": "907 East Coast Road"
  },
  {
    "id": "66dad51b-f958-4aed-b924-8838dbc68937",
    "name": "Winery Tapas Bar @Chijmes",
    "brewery_type": "bar",
    "address_1": "30 Victoria Street",
    "address_2": "Chijmes",
    "address_3": "#B1-05",
    "city": "Singapore",
    "state_province": "Singapore",
    "postal_code": "187996",
    "country": "Singapore",
    "longitude": 1.2951320828701,
    "latitude": 103.85270133069,
    "phone": "+65 8388 8850",
    "website_url": "https://www.thewinery.com.sg/chijmes/",
    "state": "Singapore",
    "street": "30 Victoria Street"
  },
  {
    "id": "a9fe8387-5dd3-48b5-87a3-79eb9e64b7b4",
    "name": "Wingman Brewers",
    "brewery_type": "closed",
    "address_1": "509 1/2 Puyallup Ave",
    "address_2": null,
    "address_3": null,
    "city": "Tacoma",
    "state_province": "Washington",
    "postal_code": "98421-1318",
    "country": "United States",
    "longitude": -122.4291133,
    "latitude": 47.24075878,
    "phone": "2532565240",
    "website_url": "http://www.wingmanbrewers.com",
    "state": "Washington",
    "street": "509 1/2 Puyallup Ave"
  },
  {
    "id": "45e09697-d154-4da0-96bc-63900f0ede6d",
    "name": "Winner\u00e2\u0080\u0099s Circle Brewing Company",
    "brewery_type": "contract",
    "address_1": "21 Whistler Court Apt 4",
    "address_2": null,
    "address_3": null,
    "city": "Saratoga Springs",
    "state_province": "New York",
    "postal_code": "12866",
    "country": "United States",
    "longitude": null,
    "latitude": null,
    "phone": "5183657864",
    "website_url": "http://www.winnerscirclebeer.com",
    "state": "New York",
    "street": "21 Whistler Court Apt 4"
  },
  {
    "id": "2dabc038-a32f-400d-ac09-84b369df1528",
    "name": "Winter Hill Brewing Company",
    "brewery_type": "brewpub",
    "address_1": "328 Broadway",
    "address_2": null,
    "address_3": null,
    "city": "Somerville",
    "state_province": "Massachusetts",
    "postal_code": "02145-2803",
    "country": "United States",
    "longitude": null,
    "latitude": null,
    "phone": "6177182337",
    "website_url": "http://www.winterhillbrewing.com",
    "state": "Massachusetts",
    "street": "328 Broadway"
  },
  {
    "id": "e1b4b1c8-ea94-48e8-986e-38e025510a75",
    "name": "Wiretap Brewing Corporation",
    "brewery_type": "micro",
    "address_1": "341B South Avenue 17",
    "address_2": null,
    "address_3": null,
    "city": "Los Angeles",
    "state_province": "California",
    "postal_code": "90031",
    "country": "United States",
    "longitude": -118.2220376,
    "latitude": 34.06852346,
    "phone": null,
    "website_url": "http://www.wiretapbrewing.com",
    "state": "California",
    "street": "341B South Avenue 17"
  },
  {
    "id": "16a14354-1767-4c6d-ae83-d0d069c1275e",
    "name": "Wisconsin Brewing Co",
    "brewery_type": "regional",
    "address_1": "1079 American Way",
    "address_2": null,
    "address_3": null,
    "city": "Verona",
    "state_province": "Wisconsin",
    "postal_code": "53593-9384",
    "country": "United States",
    "longitude": -89.50895494,
    "latitude": 42.9688832,
    "phone": "6088481079",
    "website_url": "http://www.wisconsinbrewingcompany.com",
    "state": "Wisconsin",
    "street": "1079 American Way"
  },
  {
    "id": "c0c7f8b9-433c-4c64-a993-c348b2ef174d",
    "name": "Wisconsin Dells Brewing Company",
    "brewery_type": "brewpub",
    "address_1": "110 Wisconsin Dells Pkwy S",
    "address_2": null,
    "address_3": null,
    "city": "Wisconsin Dells",
    "state_province": "Wisconsin",
    "postal_code": "53965-8304",
    "country": "United States",
    "longitude": null,
    "latitude": null,
    "phone": "6082541122",
    "website_url": "http://www.dellsmoosejaw.com",
    "state": "Wisconsin",
    "street": "110 Wisconsin Dells Pkwy S"
  },
  {
    "id": "23c65942-1fb9-414b-93f9-b0d083673440",
    "name": "Wise Man Brewing",
    "brewery_type": "micro",
    "address_1": "826 Angelo Brothers Ave",
    "address_2": null,
    "address_3": null,
    "city": "Winston-Salem",
    "state_province": "North Carolina",
    "postal_code": "27101",
    "country": "United States",
    "longitude": null,
    "latitude": null,
    "phone": "3367250008",
    "website_url": "http://www.wisemanbrewing.com",
    "state": "North Carolina",
    "street": "826 Angelo Brothers Ave"
  },
  {
    "id": "bbf13bec-6169-4eec-8827-fc09b2829d26",
    "name": "Wiseacre Brewing Co",
    "brewery_type": "micro",
    "address_1": "2783 Broad Ave",
    "address_2": null,
    "address_3": null,
    "city": "Memphis",
    "state_province": "Tennessee",
    "postal_code": "38112-2834",
    "country": "United States",
    "longitude": -89.96849701,
    "latitude": 35.14755725,
    "phone": "9018887000",
    "website_url": "http://www.wiseacrebrew.com",
    "state": "Tennessee",
    "street": "2783 Broad Ave"
  },
  {
    "id": "6098bdc3-b15b-4b11-ae3c-753503b64abd",
    "name": "Wishful Acres Farm and Brewery",
    "brewery_type": "micro",
    "address_1": "4679 N Flansburg Rd",
    "address_2": null,
    "address_3": null,
    "city": "Lena",
    "state_province": "Illinois",
    "postal_code": "61048",
    "country": "United States",
    "longitude": null,
    "latitude": null,
    "phone": "8159902380",
    "website_url": "http://www.wishfulacresfarm.com",
    "state": "Illinois",
    "street": "4679 N Flansburg Rd"
  },
  {
    "id": "498d083a-c992-4bd1-9ff7-39c7ea644cb6",
    "name": "Wissahickon Brewing Company",
    "brewery_type": "micro",
    "address_1": "3705 W School House Ln",
    "address_2": null,
    "address_3": null,
    "city": "Philadelphia",
    "state_province": "Pennsylvania",
    "postal_code": "19129-1738",
    "country": "United States",
    "longitude": -75.20047033,
    "latitude": 40.013655,
    "phone": "2154838833",
    "website_url": "http://www.wissahickonbrew.com",
    "state": "Pennsylvania",
    "street": "3705 W School House Ln"
  },
  {
    "id": "0f56a5a3-f2d8-4295-8104-6ff8a61a7195",
    "name": "Wit's End Brewing Co",
    "brewery_type": "micro",
    "address_1": "1330 Zuni St Ste N",
    "address_2": null,
    "address_3": null,
    "city": "Denver",
    "state_province": "Colorado",
    "postal_code": "80204-2328",
    "country": "United States",
    "longitude": null,
    "latitude": null,
    "phone": "3033599119",
    "website_url": "http://www.witsendbrewing.com",
    "state": "Colorado",
    "street": "1330 Zuni St Ste N"
  },
  {
    "id": "fd24f694-6436-458c-a0d5-d35ab5ff4497",
    "name": "Witch's Hat Brewing",
    "brewery_type": "micro",
    "address_1": "601 S Lafayette St",
    "address_2": null,
    "address_3": null,
    "city": "South Lyon",
    "state_province": "Michigan",
    "postal_code": "48178-1453",
    "country": "United States",
    "longitude": -83.65099308,
    "latitude": 42.45542522,
    "phone": "2484862595",
    "website_url": "http://www.witchshatbrewing.com",
    "state": "Michigan",
    "street": "601 S Lafayette St"
  },
  {
    "id": "da71bf07-faa7-41e4-a45a-b3e24a4f2f12",
    "name": "Witchdoctor Brewing Company",
    "brewery_type": "micro",
    "address_1": "168 Center St",
    "address_2": null,
    "address_3": null,
    "city": "Southington",
    "state_province": "Connecticut",
    "postal_code": "06489",
    "country": "United States",
    "longitude": -72.88142555,
    "latitude": 41.60169813,
    "phone": "8604261924",
    "website_url": "http://www.witchdoctorbrewing.com",
    "state": "Connecticut",
    "street": "168 Center St"
  },
  {
    "id": "d5a5e1ba-5fde-4c6a-b2e2-d0cb96757489",
    "name": "Wizards of Williams Hops Garden and Craft Brewery",
    "brewery_type": "planning",
    "address_1": null,
    "address_2": null,
    "address_3": null,
    "city": "Williams",
    "state_province": "Oregon",
    "postal_code": "97545",
    "country": "United States",
    "longitude": null,
    "latitude": null,
    "phone": "5414156191",
    "website_url": null,
    "state": "Oregon",
    "street": null
  },
  {
    "id": "96336a37-ba9a-4d1f-ab36-667c60dbcd06",
    "name": "Wm Roesch Brewing Company",
    "brewery_type": "micro",
    "address_1": "250 SE 3rd St",
    "address_2": null,
    "address_3": null,
    "city": "Pendleton",
    "state_province": "Oregon",
    "postal_code": "97801-2503",
    "country": "United States",
    "longitude": -118.7842506,
    "latitude": 45.6730681,
    "phone": "5413773511",
    "website_url": null,
    "state": "Oregon",
    "street": "250 SE 3rd St"
  },
  {
    "id": "646c7e47-1f06-46e0-803f-8f989e95186b",
    "name": "Wolf Branch Brewing Co.",
    "brewery_type": "micro",
    "address_1": "119 N Bay St",
    "address_2": null,
    "address_3": null,
    "city": "Eustis",
    "state_province": "Florida",
    "postal_code": "32726-3402",
    "country": "United States",
    "longitude": -81.68556847,
    "latitude": 28.85386984,
    "phone": "4072761510",
    "website_url": "http://www.wolfbranchbrewing.com",
    "state": "Florida",
    "street": "119 N Bay St"
  },
  {
    "id": "8af9aa93-cf66-48a2-b1fc-c354ad102e5f",
    "name": "Wolf Brewing Company",
    "brewery_type": "planning",
    "address_1": null,
    "address_2": null,
    "address_3": null,
    "city": "Harrisburg",
    "state_province": "Pennsylvania",
    "postal_code": "17112-1550",
    "country": "United States",
    "longitude": null,
    "latitude": null,
    "phone": "7176452752",
    "website_url": "http://www.wolfbrewingco.com",
    "state": "Pennsylvania",
    "street": null
  },
  {
    "id": "1bf86666-1f70-4201-a1e9-6fd3bc965cc6",
    "name": "Wolf Creek Brewery",
    "brewery_type": "micro",
    "address_1": "25108 Rye Canyon Loop",
    "address_2": null,
    "address_3": null,
    "city": "Valencia",
    "state_province": "California",
    "postal_code": "91355-5004",
    "country": "United States",
    "longitude": -118.5807868,
    "latitude": 34.45556243,
    "phone": "6612639653",
    "website_url": null,
    "state": "California",
    "street": "25108 Rye Canyon Loop"
  },
  {
    "id": "34137eaa-54b5-4b39-a98e-aaefd70f725b",
    "name": "Wolf Hills Brewing Co",
    "brewery_type": "micro",
    "address_1": "350 Park St SE",
    "address_2": null,
    "address_3": null,
    "city": "Abingdon",
    "state_province": "Virginia",
    "postal_code": "24210-3314",
    "country": "United States",
    "longitude": -81.966309,
    "latitude": 36.7123245,
    "phone": "2762067562",
    "website_url": "http://www.wolfhillsbrewing.com",
    "state": "Virginia",
    "street": "350 Park St SE"
  },
  {
    "id": "d362f9fe-3375-46e8-a846-62cf28e85f89",
    "name": "Wolf Hollow Brewing Company",
    "brewery_type": "micro",
    "address_1": "6882 Amsterdam Rd",
    "address_2": null,
    "address_3": null,
    "city": "Schenectady",
    "state_province": "New York",
    "postal_code": "12302",
    "country": "United States",
    "longitude": -74.0809254,
    "latitude": 42.8969263,
    "phone": "5182144093",
    "website_url": "http://www.wolfhollowbrewing.com",
    "state": "New York",
    "street": "6882 Amsterdam Rd"
  },
  {
    "id": "767b679f-1675-45ff-b431-964d8eeae698",
    "name": "Wolf Tree Brewery",
    "brewery_type": "micro",
    "address_1": "4590 SE Harborton St",
    "address_2": null,
    "address_3": null,
    "city": "Newport",
    "state_province": "Oregon",
    "postal_code": "97366",
    "country": "United States",
    "longitude": -124.043444,
    "latitude": 44.60395753,
    "phone": "4588689151",
    "website_url": "http://www.wolftreebrewery.com",
    "state": "Oregon",
    "street": "4590 SE Harborton St"
  },
  {
    "id": "632d6d8c-2f43-479e-aca7-a843624023c7",
    "name": "Wolf's Ridge Brewing",
    "brewery_type": "micro",
    "address_1": "215 N 4th St",
    "address_2": null,
    "address_3": null,
    "city": "Columbus",
    "state_province": "Ohio",
    "postal_code": "43215-2510",
    "country": "United States",
    "longitude": -82.99517953,
    "latitude": 39.9577586,
    "phone": "6144293936",
    "website_url": "http://www.wolfsridgebrewing.com",
    "state": "Ohio",
    "street": "215 N 4th St"
  },
  {
    "id": "000f8870-232f-499b-9841-ee5c2b95fc1d",
    "name": "Wolftrack Brewing Company",
    "brewery_type": "micro",
    "address_1": "505 King St",
    "address_2": null,
    "address_3": null,
    "city": "Cottonwood",
    "state_province": "Idaho",
    "postal_code": "83522-5066",
    "country": "United States",
    "longitude": -116.3497034,
    "latitude": 46.04894954,
    "phone": "2085071187",
    "website_url": "https://www.facebook.com/Wolftrack-Brewing-and-Tasting-Den-467890926648903",
    "state": "Idaho",
    "street": "505 King St"
  },
  {
    "id": "932f3a05-590e-49dc-bba5-0c6c7c174125",
    "name": "Wolverine State Brewing Co",
    "brewery_type": "brewpub",
    "address_1": "2019 W Stadium Blvd # 103",
    "address_2": null,
    "address_3": null,
    "city": "Ann Arbor",
    "state_province": "Michigan",
    "postal_code": "48103-4557",
    "country": "United States",
    "longitude": -83.7745473,
    "latitude": 42.2694316,
    "phone": "7343692990",
    "website_url": "http://www.wolverinebeer.com",
    "state": "Michigan",
    "street": "2019 W Stadium Blvd # 103"
  },
  {
    "id": "7a32d777-2288-4665-bcf4-9810ccbb85c0",
    "name": "Wolves & People Farmhouse Brewery",
    "brewery_type": "micro",
    "address_1": "30203 NE Benjamin Rd",
    "address_2": null,
    "address_3": null,
    "city": "Newberg",
    "state_province": "Oregon",
    "postal_code": "97132-6910",
    "country": "United States",
    "longitude": -122.9288409,
    "latitude": 45.31485946,
    "phone": "5034876873",
    "website_url": "http://www.wolvesandpeople.com",
    "state": "Oregon",
    "street": "30203 NE Benjamin Rd"
  },
  {
    "id": "a8b3f717-bb25-4cfb-abb0-294596b190b6",
    "name": "Wonderland Brewing Co.",
    "brewery_type": "micro",
    "address_1": "5450 W 120th Ave",
    "address_2": null,
    "address_3": null,
    "city": "Broomfield",
    "state_province": "Colorado",
    "postal_code": "80020-5913",
    "country": "United States",
    "longitude": -105.0560819,
    "latitude": 39.91349895,
    "phone": "3039530400",
    "website_url": "http://www.wonderlandbrewing.com",
    "state": "Colorado",
    "street": "5450 W 120th Ave"
  },
  {
    "id": "e58f2bb3-b382-4000-9977-ac2f5030da96",
    "name": "Wonky Brew Factory",
    "brewery_type": "planning",
    "address_1": null,
    "address_2": null,
    "address_3": null,
    "city": "Aurora",
    "state_province": "Illinois",
    "postal_code": "60506-5749",
    "country": "United States",
    "longitude": null,
    "latitude": null,
    "phone": null,
    "website_url": null,
    "state": "Illinois",
    "street": null
  },
  {
    "id": "7907c24f-b644-4e25-a1f5-4a5c6d71523c",
    "name": "Wood Boat Brewery",
    "brewery_type": "brewpub",
    "address_1": "625 Mary St Ste A",
    "address_2": null,
    "address_3": null,
    "city": "Clayton",
    "state_province": "New York",
    "postal_code": "13624-1131",
    "country": "United States",
    "longitude": null,
    "latitude": null,
    "phone": "3156863233",
    "website_url": "http://www.woodboatbrewery.com",
    "state": "New York",
    "street": "625 Mary St Ste A"
  },
  {
    "id": "08d6f6e4-d86e-42e2-9d2c-e6ca880851f9",
    "name": "Wood Kettle Brewing",
    "brewery_type": "brewpub",
    "address_1": "1192 Manitou Rd",
    "address_2": null,
    "address_3": null,
    "city": "Hilton",
    "state_province": "New York",
    "postal_code": "14468-9331",
    "country": "United States",
    "longitude": null,
    "latitude": null,
    "phone": "5853664183",
    "website_url": null,
    "state": "New York",
    "street": "1192 Manitou Rd"
  },
  {
    "id": "158b3651-e46b-4d58-a88a-37c1666d701a",
    "name": "Wood Key Brewing",
    "brewery_type": "micro",
    "address_1": "22 Kilbarrack Avenue",
    "address_2": "Kilbarrack",
    "address_3": "Dublin 5",
    "city": "Dublin",
    "state_province": "Dublin",
    "postal_code": "D05 VW89",
    "country": "Ireland",
    "longitude": -6.1515127,
    "latitude": 53.3853135,
    "phone": "353851372499",
    "website_url": null,
    "state": "Dublin",
    "street": "22 Kilbarrack Avenue"
  },
  {
    "id": "5f1adaec-b15f-459f-a8c9-76fd67bc9cd3",
    "name": "Wood Ridge Farm Brewery",
    "brewery_type": "micro",
    "address_1": "151 Old Ridge Rd",
    "address_2": null,
    "address_3": null,
    "city": "Lovingston",
    "state_province": "Virginia",
    "postal_code": "22949-2550",
    "country": "United States",
    "longitude": null,
    "latitude": null,
    "phone": "4344226225",
    "website_url": null,
    "state": "Virginia",
    "street": "151 Old Ridge Rd"
  },
  {
    "id": "449f255b-3b62-4cce-95f7-03fd57e76c9e",
    "name": "Woodbine Farm Brewery",
    "brewery_type": "planning",
    "address_1": null,
    "address_2": null,
    "address_3": null,
    "city": "Manassas",
    "state_province": "Virginia",
    "postal_code": "20112",
    "country": "United States",
    "longitude": null,
    "latitude": null,
    "phone": "5712057460",
    "website_url": "http://Woodbinefarmandbrewery.com",
    "state": "Virginia",
    "street": null
  },
  {
    "id": "1734f46b-14ba-4dec-a254-5be95c4bab5d",
    "name": "Woodbury Brewing Company",
    "brewery_type": "brewpub",
    "address_1": "738 Main St",
    "address_2": null,
    "address_3": null,
    "city": "Woodbury",
    "state_province": "Connecticut",
    "postal_code": "06798-0083",
    "country": "United States",
    "longitude": -73.2070509,
    "latitude": 41.5385323,
    "phone": "2039108955",
    "website_url": "http://www.woodburybrewingcompany.com",
    "state": "Connecticut",
    "street": "738 Main St"
  },
  {
    "id": "4924fb50-adeb-4611-884b-54be9c24fa55",
    "name": "Woodcock Brothers Brewing",
    "brewery_type": "brewpub",
    "address_1": "638 Lake St",
    "address_2": null,
    "address_3": null,
    "city": "Wilson",
    "state_province": "New York",
    "postal_code": "14172-9600",
    "country": "United States",
    "longitude": -78.825882,
    "latitude": 43.299013,
    "phone": "7163334000",
    "website_url": "http://www.woodcockbrothersbrewery.com",
    "state": "New York",
    "street": "638 Lake St"
  },
  {
    "id": "97d5fb29-b30d-453a-9d47-f0351366f49d",
    "name": "Woodcreek Brewing Company",
    "brewery_type": "micro",
    "address_1": "1400 E Interstate 30 Ste A",
    "address_2": null,
    "address_3": null,
    "city": "Rockwall",
    "state_province": "Texas",
    "postal_code": "75087-6234",
    "country": "United States",
    "longitude": null,
    "latitude": null,
    "phone": "9725890048",
    "website_url": "http://www.woodcreekbrewing.com",
    "state": "Texas",
    "street": "1400 E Interstate 30 Ste A"
  },
  {
    "id": "e9625858-9a23-4aa5-847f-27c06ed5938a",
    "name": "Wooden Bear Brewing Co",
    "brewery_type": "micro",
    "address_1": "21 W North St",
    "address_2": null,
    "address_3": null,
    "city": "Greenfield",
    "state_province": "Indiana",
    "postal_code": "46140-2171",
    "country": "United States",
    "longitude": -85.77122303,
    "latitude": 39.78597726,
    "phone": "3173181221",
    "website_url": "http://www.woodenbearbrewing.com",
    "state": "Indiana",
    "street": "21 W North St"
  },
  {
    "id": "f0aec029-6d8f-4e95-81ab-ed9292bbbdbe",
    "name": "Wooden Cask Brewing Company",
    "brewery_type": "micro",
    "address_1": "629 York St",
    "address_2": null,
    "address_3": null,
    "city": "Newport",
    "state_province": "Kentucky",
    "postal_code": "41071-1815",
    "country": "United States",
    "longitude": -84.49457871,
    "latitude": 39.09061257,
    "phone": "8592612172",
    "website_url": "http://www.woodencask.com",
    "state": "Kentucky",
    "street": "629 York St"
  },
  {
    "id": "ae267bbc-95bf-4a45-a8ff-6e7b9a9e88a0",
    "name": "Wooden Hill Brewing Company",
    "brewery_type": "brewpub",
    "address_1": "7421 Bush Lake Road",
    "address_2": null,
    "address_3": null,
    "city": "Edina",
    "state_province": "Minnesota",
    "postal_code": "55439",
    "country": "United States",
    "longitude": -93.3596061,
    "latitude": 44.86781169,
    "phone": "9529609663",
    "website_url": "http://www.woodenhillbrewing.com",
    "state": "Minnesota",
    "street": "7421 Bush Lake Road"
  },
  {
    "id": "432aa140-cfe4-4a0b-be34-03401efd5a50",
    "name": "Wooden Legs Brewing Co",
    "brewery_type": "brewpub",
    "address_1": "309 5th St Ste 100",
    "address_2": null,
    "address_3": null,
    "city": "Brookings",
    "state_province": "South Dakota",
    "postal_code": "57006-1963",
    "country": "United States",
    "longitude": -96.7996148,
    "latitude": 44.3104741,
    "phone": "6056922337",
    "website_url": "http://www.woodenlegsbrewing.com",
    "state": "South Dakota",
    "street": "309 5th St Ste 100"
  },
  {
    "id": "13bf0163-6103-4307-a4ed-70309601bc0e",
    "name": "Wooden Robot",
    "brewery_type": "micro",
    "address_1": "1440 S Tryon St Ste 110",
    "address_2": null,
    "address_3": null,
    "city": "Charlotte",
    "state_province": "North Carolina",
    "postal_code": "28203-4263",
    "country": "United States",
    "longitude": null,
    "latitude": null,
    "phone": "7723594993",
    "website_url": "http://www.woodenrobotbrewery.com",
    "state": "North Carolina",
    "street": "1440 S Tryon St Ste 110"
  },
  {
    "id": "c346bd50-0c32-4700-816e-b8aa8d111630",
    "name": "Wooden Robot",
    "brewery_type": "planning",
    "address_1": null,
    "address_2": null,
    "address_3": null,
    "city": "Charlotte",
    "state_province": "North Carolina",
    "postal_code": "28203-4263",
    "country": "United States",
    "longitude": null,
    "latitude": null,
    "phone": "7723594993",
    "website_url": null,
    "state": "North Carolina",
    "street": null
  },
  {
    "id": "4df98b72-a45e-414f-a813-909bdc077119",
    "name": "Wooden Skiff Beer Co.",
    "brewery_type": "contract",
    "address_1": null,
    "address_2": null,
    "address_3": null,
    "city": "Buffalo",
    "state_province": "New York",
    "postal_code": "14216-3611",
    "country": "United States",
    "longitude": null,
    "latitude": null,
    "phone": "7062285064",
    "website_url": "http://www.woodenskiff.com",
    "state": "New York",
    "street": null
  },
  {
    "id": "972dc278-a3a6-4dbd-acd0-4f6c8fc22343",
    "name": "Wooden Skiff Beer Company",
    "brewery_type": "micro",
    "address_1": "141 Island Dr Ste 16",
    "address_2": null,
    "address_3": null,
    "city": "Hilton Head Island",
    "state_province": "South Carolina",
    "postal_code": "29926-4500",
    "country": "United States",
    "longitude": null,
    "latitude": null,
    "phone": "8432904364",
    "website_url": "http://www.woodenskiffbrewing.com",
    "state": "South Carolina",
    "street": "141 Island Dr Ste 16"
  },
  {
    "id": "b45e7a44-c0b8-4d09-b766-36c0130a1a8b",
    "name": "Woodfour Brewing Company",
    "brewery_type": "brewpub",
    "address_1": "6780 Depot St Ste 160",
    "address_2": null,
    "address_3": null,
    "city": "Sebastopol",
    "state_province": "California",
    "postal_code": "95472-3462",
    "country": "United States",
    "longitude": -122.8211041,
    "latitude": 38.4033133,
    "phone": "7078233144",
    "website_url": null,
    "state": "California",
    "street": "6780 Depot St Ste 160"
  },
  {
    "id": "a588faa2-58f8-47cf-b361-07fba19fd3d1",
    "name": "WoodGrain Brewing Company",
    "brewery_type": "micro",
    "address_1": "101 S Phillips Ave Ste 100",
    "address_2": null,
    "address_3": null,
    "city": "Sioux Falls",
    "state_province": "South Dakota",
    "postal_code": "57104-6719",
    "country": "United States",
    "longitude": -96.72722416,
    "latitude": 43.54728383,
    "phone": "6053105316",
    "website_url": "http://www.woodgrainbrew.com",
    "state": "South Dakota",
    "street": "101 S Phillips Ave Ste 100"
  },
  {
    "id": "2d4ca2bd-4f74-4623-8c93-2564ebd9e2b9",
    "name": "Woodhouse Blending & Brewing",
    "brewery_type": "planning",
    "address_1": null,
    "address_2": null,
    "address_3": null,
    "city": "Santa Cruz",
    "state_province": "California",
    "postal_code": "95060-",
    "country": "United States",
    "longitude": -122.0297182,
    "latitude": 36.974201,
    "phone": "6198889489",
    "website_url": null,
    "state": "California",
    "street": null
  },
  {
    "id": "5c63fefc-72aa-4fe0-8bc2-0bf89c54ab04",
    "name": "Woodland Empire Ale Craft",
    "brewery_type": "micro",
    "address_1": "1114 W Front St",
    "address_2": null,
    "address_3": null,
    "city": "Boise",
    "state_province": "Idaho",
    "postal_code": "83702-6951",
    "country": "United States",
    "longitude": -116.2086811,
    "latitude": 43.616091,
    "phone": "2086029318",
    "website_url": "http://www.woodlandempire.com",
    "state": "Idaho",
    "street": "1114 W Front St"
  },
  {
    "id": "0ab6358c-dc9b-498f-aea5-255663a02be3",
    "name": "Woodland Farm Brewery",
    "brewery_type": "micro",
    "address_1": "6002 Trenton Rd",
    "address_2": null,
    "address_3": null,
    "city": "Utica",
    "state_province": "New York",
    "postal_code": "13502-6224",
    "country": "United States",
    "longitude": -75.212678,
    "latitude": 43.148929,
    "phone": "3158643051",
    "website_url": "http://www.woodlandbeer.com",
    "state": "New York",
    "street": "6002 Trenton Rd"
  }
]