[
  {
    "id": "c534e94c-c5bf-4738-bd28-5c91120bbf51",
    "name": "Moon River Brewing Co",
    "brewery_type": "brewpub",
    "address_1": "21 W Bay St",
    "address_2": null,
    "address_3": null,
    "city": "Savannah",
    "state_province": "Georgia",
    "postal_code": "31401-1106",
    "country": "United States",
    "longitude": -81.09178578,
    "latitude": 32.08098573,
    "phone": "9124470943",
    "website_url": "http://www.moonriverbrewing.com",
    "state": "Georgia",
    "street": "21 W Bay St"
  },
  {
    "id": "9bf8c8f9-ee9a-49b5-b80b-2a8cdb5ec407",
    "name": "Moon Tower Sudworks",
    "brewery_type": "brewpub",
    "address_1": "3004 Canal St",
    "address_2": null,
    "address_3": null,
    "city": "Houston",
    "state_province": "Texas",
    "postal_code": "77003-1627",
    "country": "United States",
    "longitude": -95.3409715,
    "latitude": 29.7543105,
    "phone": "8322660105",
    "website_url": "http://www.damngoodfoodcoldassbeer.com",
    "state": "Texas",
    "street": "3004 Canal St"
  },
  {
    "id": "7342cee2-55da-469a-9d5b-b7d5905dec81",
    "name": "Moonlight Brewing Co",
    "brewery_type": "large",
    "address_1": "3350 Coffey Ln Ste A",
    "address_2": null,
    "address_3": null,
    "city": "Santa Rosa",
    "state_province": "California",
    "postal_code": "95403-7412",
    "country": "United States",
    "longitude": -122.7445804,
    "latitude": 38.47188347,
    "phone": "7075282537",
    "website_url": "http://www.moonlightbrewing.com",
    "state": "California",
    "street": "3350 Coffey Ln Ste A"
  },
  {
    "id": "e1408cf3-3932-4ca7-bbfa-4f5fda95ade3",
    "name": "Moonlight Meadery/Hidden Moon Brewing",
    "brewery_type": "closed",
    "address_1": "23 Londonderry Rd Unit 17",
    "address_2": null,
    "address_3": null,
    "city": "Londonderry",
    "state_province": "New Hampshire",
    "postal_code": "03053-3314",
    "country": "United States",
    "longitude": null,
    "latitude": null,
    "phone": "6032162162",
    "website_url": "http://www.moonlightmeadery.com",
    "state": "New Hampshire",
    "street": "23 Londonderry Rd Unit 17"
  },
  {
    "id": "869baabc-5532-4bc8-b85c-7d96b9e584eb",
    "name": "Moonlight Pizza",
    "brewery_type": "brewpub",
    "address_1": "242 F St",
    "address_2": null,
    "address_3": null,
    "city": "Salida",
    "state_province": "Colorado",
    "postal_code": "81201-2104",
    "country": "United States",
    "longitude": -105.9931616,
    "latitude": 38.53502271,
    "phone": "7195394277",
    "website_url": "http://www.moonlightpizza.biz",
    "state": "Colorado",
    "street": "242 F St"
  },
  {
    "id": "4a3e3e24-96f3-4194-b154-2bf6107adae6",
    "name": "Moonraker Brewing Co",
    "brewery_type": "micro",
    "address_1": "12970 Earhart Ave Ste 100",
    "address_2": null,
    "address_3": null,
    "city": "Auburn",
    "state_province": "California",
    "postal_code": "95602-9022",
    "country": "United States",
    "longitude": -121.0817905,
    "latitude": 38.95069985,
    "phone": "5307456816",
    "website_url": "http://www.moonrakerbrewing.com",
    "state": "California",
    "street": "12970 Earhart Ave Ste 100"
  },
  {
    "id": "2b4f0097-357d-4eda-9a01-057406f742b6",
    "name": "Moonraker Brewing Company (Production Facility)",
    "brewery_type": "micro",
    "address_1": "2349 Rickenbacker Way",
    "address_2": null,
    "address_3": null,
    "city": "Auburn",
    "state_province": "California",
    "postal_code": "95602",
    "country": "United States",
    "longitude": -121.0813686,
    "latitude": 38.95249916,
    "phone": "5307456816",
    "website_url": null,
    "state": "California",
    "street": "2349 Rickenbacker Way"
  },
  {
    "id": "4d7c0a97-2e29-473d-9544-653346bb9ee5",
    "name": "MoonRidge Brewpub",
    "brewery_type": "brewpub",
    "address_1": "501 Bridge St",
    "address_2": null,
    "address_3": null,
    "city": "Cornell",
    "state_province": "Wisconsin",
    "postal_code": "54732-8392",
    "country": "United States",
    "longitude": -91.1589648,
    "latitude": 45.1653752,
    "phone": "7152391341",
    "website_url": "http://www.facebook.com/MoonRidge-Brew-Pub-1501996800095070",
    "state": "Wisconsin",
    "street": "501 Bridge St"
  },
  {
    "id": "758ed4ad-6805-4b88-bc78-65ecc4b13c4a",
    "name": "Moonshot Brewing",
    "brewery_type": "micro",
    "address_1": "8804 W Victoria Ave # 140",
    "address_2": null,
    "address_3": null,
    "city": "Kennewick",
    "state_province": "Washington",
    "postal_code": "99336",
    "country": "United States",
    "longitude": -119.2412545,
    "latitude": 46.22937016,
    "phone": "5094911058",
    "website_url": "https://moonshotbrewing.com",
    "state": "Washington",
    "street": "8804 W Victoria Ave # 140"
  },
  {
    "id": "b578ee40-d021-4d5a-bf5f-91154b9cef3d",
    "name": "Moonshrimp Brewing",
    "brewery_type": "micro",
    "address_1": "8428 SW 22nd Ave",
    "address_2": null,
    "address_3": null,
    "city": "Portland",
    "state_province": "Oregon",
    "postal_code": "97219-2856",
    "country": "United States",
    "longitude": -122.7000809,
    "latitude": 45.4637206,
    "phone": "5039702234",
    "website_url": "http://www.moonshrimpbrewing.com",
    "state": "Oregon",
    "street": "8428 SW 22nd Ave"
  },
  {
    "id": "327dd95c-0197-47ea-9bb2-5cf63318fcf7",
    "name": "Moontown Brewing",
    "brewery_type": "brewpub",
    "address_1": "345 S Bowers St",
    "address_2": null,
    "address_3": null,
    "city": "Whitestown",
    "state_province": "Indiana",
    "postal_code": "46075",
    "country": "United States",
    "longitude": -86.346903,
    "latitude": 39.99409929,
    "phone": "5742503114",
    "website_url": "http://www.moontownbeer.com",
    "state": "Indiana",
    "street": "345 S Bowers St"
  },
  {
    "id": "d64bd3bd-1e46-41ab-8c9d-f38de50db77f",
    "name": "Moose Lake Brewing Company",
    "brewery_type": "micro",
    "address_1": "244 Lakeshore Drive",
    "address_2": null,
    "address_3": null,
    "city": "Moose Lake",
    "state_province": "Minnesota",
    "postal_code": "55767",
    "country": "United States",
    "longitude": -92.76397874,
    "latitude": 46.4499931,
    "phone": "2184854585",
    "website_url": "http://www.mooselakebrewing.com",
    "state": "Minnesota",
    "street": "244 Lakeshore Drive"
  },
  {
    "id": "d4a564d1-c07b-47a6-bdd5-9198a97aadc3",
    "name": "More Brewing Co",
    "brewery_type": "brewpub",
    "address_1": "126 S Villa Ave",
    "address_2": null,
    "address_3": null,
    "city": "Villa Park",
    "state_province": "Illinois",
    "postal_code": "60181-2653",
    "country": "United States",
    "longitude": -87.969272,
    "latitude": 41.891984,
    "phone": "7735517506",
    "website_url": "http://Www.morebrewing.com",
    "state": "Illinois",
    "street": "126 S Villa Ave"
  },
  {
    "id": "ef5f2236-8173-4696-b128-1531f5f7a3c6",
    "name": "Morgan Ridge Railwalk Brewery & Eatery",
    "brewery_type": "brewpub",
    "address_1": "421 N Lee St",
    "address_2": null,
    "address_3": null,
    "city": "Salisbury",
    "state_province": "North Carolina",
    "postal_code": "28144-4424",
    "country": "United States",
    "longitude": -80.46510306,
    "latitude": 35.66920051,
    "phone": "7047548379",
    "website_url": "http://www.morganridgerailwalk.com",
    "state": "North Carolina",
    "street": "421 N Lee St"
  },
  {
    "id": "e17e1ab6-dfb3-4975-aa30-498b915f69d6",
    "name": "Morgan Ridge Vineyards & Brewhouse",
    "brewery_type": "brewpub",
    "address_1": "486 John Morgan Rd",
    "address_2": null,
    "address_3": null,
    "city": "Gold Hill",
    "state_province": "North Carolina",
    "postal_code": "28071-9758",
    "country": "United States",
    "longitude": null,
    "latitude": null,
    "phone": "7046390911",
    "website_url": "http://www.morganridgevineyard.com",
    "state": "North Carolina",
    "street": "486 John Morgan Rd"
  },
  {
    "id": "c9ad889d-bf39-4366-886f-a140c0a52dd7",
    "name": "Morgan Street Brewery",
    "brewery_type": "proprietor",
    "address_1": "721 N 2nd St",
    "address_2": null,
    "address_3": null,
    "city": "Saint Louis",
    "state_province": "Missouri",
    "postal_code": "63102-2518",
    "country": "United States",
    "longitude": -90.18465871,
    "latitude": 38.63032719,
    "phone": "3142319970",
    "website_url": "http://www.morganstreetbrewery.com",
    "state": "Missouri",
    "street": "721 N 2nd St"
  },
  {
    "id": "679836c6-d52e-4f21-a393-1e8f47b185eb",
    "name": "Morgan Territory Brewing",
    "brewery_type": "micro",
    "address_1": "1885 N Macarthur Dr",
    "address_2": null,
    "address_3": null,
    "city": "Tracy",
    "state_province": "California",
    "postal_code": "95376-2820",
    "country": "United States",
    "longitude": -121.4145449,
    "latitude": 37.7545317,
    "phone": "2098348664",
    "website_url": "http://www.morganterritorybrewing.com",
    "state": "California",
    "street": "1885 N Macarthur Dr"
  },
  {
    "id": "e64f154b-6644-49e1-89b4-f1c042ae34d5",
    "name": "Morgantown Brewing Co",
    "brewery_type": "brewpub",
    "address_1": "1291 University Ave",
    "address_2": null,
    "address_3": null,
    "city": "Morgantown",
    "state_province": "West Virginia",
    "postal_code": "26505-5450",
    "country": "United States",
    "longitude": -79.9579978,
    "latitude": 39.6305115,
    "phone": "3042926959",
    "website_url": "http://www.morgantownbrewing.com",
    "state": "West Virginia",
    "street": "1291 University Ave"
  },
  {
    "id": "6b1fba4c-e5ae-4ffa-80d0-a4a2d0079ec8",
    "name": "Moriches Field Brewing Company",
    "brewery_type": "planning",
    "address_1": null,
    "address_2": null,
    "address_3": null,
    "city": "Center Moriches",
    "state_province": "New York",
    "postal_code": "11934-2600",
    "country": "United States",
    "longitude": null,
    "latitude": null,
    "phone": "6314495310",
    "website_url": null,
    "state": "New York",
    "street": null
  },
  {
    "id": "c151de64-d672-4204-ae4f-9d2a97e90eb3",
    "name": "Mortals Key Brewing Company",
    "brewery_type": "brewpub",
    "address_1": "4224 E Lake Rd",
    "address_2": null,
    "address_3": null,
    "city": "Jamestown",
    "state_province": "Pennsylvania",
    "postal_code": "16134-4524",
    "country": "United States",
    "longitude": -80.45979905,
    "latitude": 41.51243185,
    "phone": "7249321080",
    "website_url": "http://www.mortalskey.com",
    "state": "Pennsylvania",
    "street": "4224 E Lake Rd"
  },
  {
    "id": "37c52935-6621-428b-b1ee-fc8856b6dc1c",
    "name": "Mosaic Brewing",
    "brewery_type": "planning",
    "address_1": null,
    "address_2": null,
    "address_3": null,
    "city": "Lancaster",
    "state_province": "Ohio",
    "postal_code": "43130-4308",
    "country": "United States",
    "longitude": null,
    "latitude": null,
    "phone": "6149402500",
    "website_url": "http://www.double.edge.beer",
    "state": "Ohio",
    "street": null
  },
  {
    "id": "ce619d9e-3e13-4280-b215-8792edb06fa1",
    "name": "Moscow Brewing Company",
    "brewery_type": "micro",
    "address_1": "630 N Almon St Ste 130",
    "address_2": null,
    "address_3": null,
    "city": "Moscow",
    "state_province": "Idaho",
    "postal_code": "83843-9701",
    "country": "United States",
    "longitude": -117.003869,
    "latitude": 46.740638,
    "phone": "2085964058",
    "website_url": "https://moscowbrewing.com/index.html",
    "state": "Idaho",
    "street": "630 N Almon St Ste 130"
  },
  {
    "id": "4de8a934-3643-4e95-9cbc-ff98e06e2d30",
    "name": "Moss Mill Brewing",
    "brewery_type": "micro",
    "address_1": "109 Pike Cir Ste D",
    "address_2": null,
    "address_3": null,
    "city": "Huntingdon Valley",
    "state_province": "Pennsylvania",
    "postal_code": "19006-1630",
    "country": "United States",
    "longitude": null,
    "latitude": null,
    "phone": "2679822297",
    "website_url": "http://www.mossmillbrewing.com",
    "state": "Pennsylvania",
    "street": "109 Pike Cir Ste D"
  },
  {
    "id": "c0437356-f02d-4d5d-9b2c-8e8c45aa29cf",
    "name": "Mother Bunch Brewing, Inc.",
    "brewery_type": "micro",
    "address_1": "825 N 7th St",
    "address_2": null,
    "address_3": null,
    "city": "Phoenix",
    "state_province": "Arizona",
    "postal_code": "85006-3793",
    "country": "United States",
    "longitude": -112.0649987,
    "latitude": 33.4572674,
    "phone": "6023683580",
    "website_url": "http://www.motherbunchbrew.com",
    "state": "Arizona",
    "street": "825 N 7th St"
  },
  {
    "id": "0cdddcb2-972d-4dc2-a268-d752d4638e6c",
    "name": "Mother Earth Brew Co",
    "brewery_type": "micro",
    "address_1": "1428 Madison Ave",
    "address_2": null,
    "address_3": null,
    "city": "Nampa",
    "state_province": "Idaho",
    "postal_code": "83687-3038",
    "country": "United States",
    "longitude": -116.56303,
    "latitude": 43.597987,
    "phone": "7602953074",
    "website_url": "https://www.motherearthbrewco.com/nampa",
    "state": "Idaho",
    "street": "1428 Madison Ave"
  },
  {
    "id": "c228637b-e211-45fd-9736-b838197cb25e",
    "name": "Mother Earth Brew Co LLC",
    "brewery_type": "regional",
    "address_1": "2055 Thibodo Rd Ste H",
    "address_2": null,
    "address_3": null,
    "city": "Vista",
    "state_province": "California",
    "postal_code": "92081-7991",
    "country": "United States",
    "longitude": -117.2203174,
    "latitude": 33.16794678,
    "phone": "7605428868",
    "website_url": "http://www.motherearthbrewco.com",
    "state": "California",
    "street": "2055 Thibodo Rd Ste H"
  },
  {
    "id": "add015c9-2bb1-4047-a365-8b9f3b263fc5",
    "name": "Mother Earth Brewing",
    "brewery_type": "regional",
    "address_1": "311 N Herritage St",
    "address_2": null,
    "address_3": null,
    "city": "Kinston",
    "state_province": "North Carolina",
    "postal_code": "28501-4823",
    "country": "United States",
    "longitude": null,
    "latitude": null,
    "phone": "2522082437",
    "website_url": "http://www.motherearthbrewing.com",
    "state": "North Carolina",
    "street": "311 N Herritage St"
  },
  {
    "id": "83d19a6e-a9d0-4278-8407-6bb3aa54ab17",
    "name": "Mother Road Brewery and Taproom",
    "brewery_type": "micro",
    "address_1": "1300 East Butler Ave Ste 200",
    "address_2": null,
    "address_3": null,
    "city": "Flagstaff",
    "state_province": "Arizona",
    "postal_code": "86001",
    "country": "United States",
    "longitude": null,
    "latitude": null,
    "phone": "9287740492",
    "website_url": "http://www.motherroadbeer.com/butler-brewery",
    "state": "Arizona",
    "street": "1300 East Butler Ave Ste 200"
  },
  {
    "id": "3c7df0a0-ad62-4b98-9d34-eddab912ce88",
    "name": "Mother Road Brewing Co",
    "brewery_type": "micro",
    "address_1": "7 S Mikes Pike",
    "address_2": null,
    "address_3": null,
    "city": "Flagstaff",
    "state_province": "Arizona",
    "postal_code": "86001-5589",
    "country": "United States",
    "longitude": -111.6524478,
    "latitude": 35.196928,
    "phone": "9287749139",
    "website_url": "http://www.motherroadbeer.com",
    "state": "Arizona",
    "street": "7 S Mikes Pike"
  },
  {
    "id": "c0329997-60e4-453b-95c1-f5a1aa5841c5",
    "name": "Mother Stewart's Brewing Co",
    "brewery_type": "micro",
    "address_1": "109 W North St",
    "address_2": null,
    "address_3": null,
    "city": "Springfield",
    "state_province": "Ohio",
    "postal_code": "45504-2546",
    "country": "United States",
    "longitude": -83.81196566,
    "latitude": 39.92716841,
    "phone": null,
    "website_url": null,
    "state": "Ohio",
    "street": "109 W North St"
  },
  {
    "id": "b87139f1-33d1-4281-a5e0-07780edd6c18",
    "name": "Mother Tucker Brewery",
    "brewery_type": "micro",
    "address_1": "2360 E 120th Ave",
    "address_2": null,
    "address_3": null,
    "city": "Thornton",
    "state_province": "Colorado",
    "postal_code": "80233-1408",
    "country": "United States",
    "longitude": -104.9582581,
    "latitude": 39.91402476,
    "phone": "3035659459",
    "website_url": "http://mothertuckerbrewery.com",
    "state": "Colorado",
    "street": "2360 E 120th Ave"
  },
  {
    "id": "69912ded-9a07-4f49-870a-85a78260bf4d",
    "name": "Mother's Brewing Co",
    "brewery_type": "micro",
    "address_1": "215 S Grant Ave",
    "address_2": null,
    "address_3": null,
    "city": "Springfield",
    "state_province": "Missouri",
    "postal_code": "65806-2001",
    "country": "United States",
    "longitude": -93.29928282,
    "latitude": 37.20791735,
    "phone": "4178620423",
    "website_url": "http://www.mothersbrewing.com",
    "state": "Missouri",
    "street": "215 S Grant Ave"
  },
  {
    "id": "ce476ba7-dc6c-4fae-a6b1-1b4a2a48fa96",
    "name": "Motobrewer",
    "brewery_type": "planning",
    "address_1": null,
    "address_2": null,
    "address_3": null,
    "city": "San Francisco",
    "state_province": "California",
    "postal_code": "94112-1330",
    "country": "United States",
    "longitude": -122.4192363,
    "latitude": 37.7792808,
    "phone": null,
    "website_url": "http://www.motobrewer.com",
    "state": "California",
    "street": null
  },
  {
    "id": "82718ba8-c506-467b-88e2-5f5b714a4999",
    "name": "Motor City Brewing Works",
    "brewery_type": "brewpub",
    "address_1": "470 W Canfield St",
    "address_2": null,
    "address_3": null,
    "city": "Detroit",
    "state_province": "Michigan",
    "postal_code": "48201-1220",
    "country": "United States",
    "longitude": -83.06603733,
    "latitude": 42.3518156,
    "phone": "3138322700",
    "website_url": "http://www.motorcitybeer.com",
    "state": "Michigan",
    "street": "470 W Canfield St"
  },
  {
    "id": "9a7bc77f-ac7d-4ed8-bb95-3f374523a01f",
    "name": "Motor City Brewing Works Warehouse",
    "brewery_type": "micro",
    "address_1": "441 W Canfield St",
    "address_2": null,
    "address_3": null,
    "city": "Detroit",
    "state_province": "Michigan",
    "postal_code": "48201-1231",
    "country": "United States",
    "longitude": -83.06474893,
    "latitude": 42.35151997,
    "phone": null,
    "website_url": null,
    "state": "Michigan",
    "street": "441 W Canfield St"
  },
  {
    "id": "84a43e6a-7223-4304-b87f-9502498ab235",
    "name": "Motor Row Brewing",
    "brewery_type": "micro",
    "address_1": "2337 S Michigan Ave",
    "address_2": null,
    "address_3": null,
    "city": "Chicago",
    "state_province": "Illinois",
    "postal_code": "60616-2104",
    "country": "United States",
    "longitude": -87.6233063,
    "latitude": 41.8499832,
    "phone": null,
    "website_url": "http://www.motorrowbrewing.com",
    "state": "Illinois",
    "street": "2337 S Michigan Ave"
  },
  {
    "id": "54fc97d9-c6f1-4e46-8b36-fcc628540b51",
    "name": "Motorworks Brewing",
    "brewery_type": "micro",
    "address_1": "1014 9th St W",
    "address_2": null,
    "address_3": null,
    "city": "Bradenton",
    "state_province": "Florida",
    "postal_code": "34205-7331",
    "country": "United States",
    "longitude": -82.57129,
    "latitude": 27.49087629,
    "phone": "9415676218",
    "website_url": "http://www.motorworksbrewing.com",
    "state": "Florida",
    "street": "1014 9th St W"
  },
  {
    "id": "9dc2d761-e45b-463c-8eef-c2c340176f3b",
    "name": "Mount Dora Brewing Co",
    "brewery_type": "micro",
    "address_1": "405 S Highland St",
    "address_2": null,
    "address_3": null,
    "city": "Mount Dora",
    "state_province": "Florida",
    "postal_code": "32757-6101",
    "country": "United States",
    "longitude": null,
    "latitude": null,
    "phone": "3527351111",
    "website_url": "http://www.mountdorabrewing.com",
    "state": "Florida",
    "street": "405 S Highland St"
  },
  {
    "id": "6547c1e3-c0e6-43ec-9bc7-f6d254cb5d85",
    "name": "Mount Gretna Craft Brewery",
    "brewery_type": "micro",
    "address_1": "2701 Horseshoe Pike",
    "address_2": null,
    "address_3": null,
    "city": "Palmyra",
    "state_province": "Pennsylvania",
    "postal_code": "17078-8949",
    "country": "United States",
    "longitude": null,
    "latitude": null,
    "phone": "7178383545",
    "website_url": "http://www.gretnabrewery.com",
    "state": "Pennsylvania",
    "street": "2701 Horseshoe Pike"
  },
  {
    "id": "4949c8f1-8073-4644-9d1d-e97001f4f7a7",
    "name": "Mount Hood Brewing Co",
    "brewery_type": "brewpub",
    "address_1": "87304 E Government Camp Loop",
    "address_2": null,
    "address_3": null,
    "city": "Government Camp",
    "state_province": "Oregon",
    "postal_code": "97028",
    "country": "United States",
    "longitude": -121.7662065,
    "latitude": 45.30311485,
    "phone": "5032723272",
    "website_url": "http://www.mthoodbrewing.com",
    "state": "Oregon",
    "street": "87304 E Government Camp Loop"
  },
  {
    "id": "5976e057-8502-4193-839c-8129210a9766",
    "name": "Mount Shasta Brewing Co",
    "brewery_type": "micro",
    "address_1": "360 College Ave",
    "address_2": null,
    "address_3": null,
    "city": "Weed",
    "state_province": "California",
    "postal_code": "96094-2706",
    "country": "United States",
    "longitude": -122.3866251,
    "latitude": 41.41662138,
    "phone": "5309382394",
    "website_url": "http://www.weedales.com",
    "state": "California",
    "street": "360 College Ave"
  },
  {
    "id": "378d7eee-7a3b-41ea-a4b1-c27c35c28b07",
    "name": "Mountain Base Brewery",
    "brewery_type": "micro",
    "address_1": "553 Mast Rd #111",
    "address_2": null,
    "address_3": null,
    "city": "Goffstown",
    "state_province": "New Hampshire",
    "postal_code": "03045",
    "country": "United States",
    "longitude": -71.51532,
    "latitude": 43.00128,
    "phone": "6039357132",
    "website_url": "https://www.mountainbasebrewery.com/",
    "state": "New Hampshire",
    "street": "553 Mast Rd #111"
  },
  {
    "id": "b26705f7-3797-4dd9-8f7c-86a5fbadda58",
    "name": "Mountain Cowboy Brewing Company",
    "brewery_type": "brewpub",
    "address_1": "318 5th St",
    "address_2": null,
    "address_3": null,
    "city": "Frederick",
    "state_province": "Colorado",
    "postal_code": "80530",
    "country": "United States",
    "longitude": -104.9369796,
    "latitude": 40.09855473,
    "phone": "3039524433",
    "website_url": "http://www.mountaincowboybrewing.com",
    "state": "Colorado",
    "street": "318 5th St"
  },
  {
    "id": "8b6d327f-e82c-43c9-b068-f80a1ae4cbb2",
    "name": "Mountain Fork Brewery",
    "brewery_type": "micro",
    "address_1": "89 N Lukfata Trail Rd",
    "address_2": null,
    "address_3": null,
    "city": "Broken Bow",
    "state_province": "Oklahoma",
    "postal_code": "74728-7025",
    "country": "United States",
    "longitude": -94.7770233,
    "latitude": 34.1827774,
    "phone": "5804943233",
    "website_url": "http://www.mountainforkbrewery.com",
    "state": "Oklahoma",
    "street": "89 N Lukfata Trail Rd"
  },
  {
    "id": "8532bb33-d392-4448-baca-277d791ff259",
    "name": "Mountain Hops Brewhouse",
    "brewery_type": "micro",
    "address_1": "612 N Beverly St",
    "address_2": null,
    "address_3": null,
    "city": "Casper",
    "state_province": "Wyoming",
    "postal_code": "82609-1616",
    "country": "United States",
    "longitude": -106.29792831549,
    "latitude": 42.856122803838,
    "phone": "3073371052",
    "website_url": "https://www.facebook.com/MountainHopsBrewhouse",
    "state": "Wyoming",
    "street": "612 N Beverly St"
  },
  {
    "id": "fc357e85-908c-49a9-a3e4-8a96cbb6bf39",
    "name": "Mountain Lakes Brewing Company",
    "brewery_type": "micro",
    "address_1": "201 W Riverside Ave",
    "address_2": null,
    "address_3": null,
    "city": "Spokane",
    "state_province": "Washington",
    "postal_code": "99201",
    "country": "United States",
    "longitude": -117.4133414,
    "latitude": 47.65840592,
    "phone": "5033481733",
    "website_url": "https://mountainlakesbrewco.com",
    "state": "Washington",
    "street": "201 W Riverside Ave"
  },
  {
    "id": "a88bd839-f573-4ef2-97cc-f7e997e54781",
    "name": "Mountain Layers Brewing Company",
    "brewery_type": "micro",
    "address_1": "90 Everett Street",
    "address_2": null,
    "address_3": null,
    "city": "Bryson City",
    "state_province": "North Carolina",
    "postal_code": "28713",
    "country": "United States",
    "longitude": -83.446029,
    "latitude": 35.428795,
    "phone": "8285380115",
    "website_url": "http://www.mtnlayersbeer.com",
    "state": "North Carolina",
    "street": "90 Everett Street"
  },
  {
    "id": "e0da629e-cf70-4545-b029-e1658759b49f",
    "name": "Mountain Rambler Brewery",
    "brewery_type": "micro",
    "address_1": "186 S Main St",
    "address_2": null,
    "address_3": null,
    "city": "Bishop",
    "state_province": "California",
    "postal_code": "93514-3415",
    "country": "United States",
    "longitude": -118.3944494,
    "latitude": 37.3606708,
    "phone": "7602581348",
    "website_url": "http://www.mountainramblerbrewery.com",
    "state": "California",
    "street": "186 S Main St"
  },
  {
    "id": "750a134b-a13a-44ed-a7d4-56d429d5e9aa",
    "name": "Mountain State Brewing Co",
    "brewery_type": "micro",
    "address_1": "1 Nelson Blvd",
    "address_2": null,
    "address_3": null,
    "city": "Thomas",
    "state_province": "West Virginia",
    "postal_code": "26292",
    "country": "United States",
    "longitude": -79.498521,
    "latitude": 39.142037,
    "phone": "3044634500",
    "website_url": "http://www.mountainstatebrewing.com",
    "state": "West Virginia",
    "street": "1 Nelson Blvd"
  },
  {
    "id": "e5a383c9-cf8d-4115-b2ab-e59aa504624e",
    "name": "Mountain Sun Pub and Brewery",
    "brewery_type": "brewpub",
    "address_1": "1535 Pearl St",
    "address_2": null,
    "address_3": null,
    "city": "Boulder",
    "state_province": "Colorado",
    "postal_code": "80302-5408",
    "country": "United States",
    "longitude": -105.2752277,
    "latitude": 40.0190131,
    "phone": "3035460886",
    "website_url": "http://www.mountainsunpub.com",
    "state": "Colorado",
    "street": "1535 Pearl St"
  }
]