[
  {
    "id": "687f52df-b64c-464a-85c8-fdbcf02fa2ad",
    "name": "Fifth Frame Brewing Co.",
    "brewery_type": "proprietor",
    "address_1": "155 Saint Paul St",
    "address_2": null,
    "address_3": null,
    "city": "Rochester",
    "state_province": "New York",
    "postal_code": "14604-1144",
    "country": "United States",
    "longitude": -77.61019544,
    "latitude": 43.15996034,
    "phone": "7168128897",
    "website_url": "http://www.fifthframe.co",
    "state": "New York",
    "street": "155 Saint Paul St"
  },
  {
    "id": "7c806934-8a5a-4a45-8ae3-fd8687ab005a",
    "name": "Fifth Hammer Brewing Company",
    "brewery_type": "micro",
    "address_1": "10-28 46th Ave",
    "address_2": null,
    "address_3": null,
    "city": "Long Island City",
    "state_province": "New York",
    "postal_code": "11101-5217",
    "country": "United States",
    "longitude": -73.9515404,
    "latitude": 40.7464921,
    "phone": "7186632084",
    "website_url": "http://www.fifthhammerbrewing.com",
    "state": "New York",
    "street": "10-28 46th Ave"
  },
  {
    "id": "0be4ed90-78cb-44f9-bcb6-dfbc52e770f3",
    "name": "Fifth Street Brewpub",
    "brewery_type": "brewpub",
    "address_1": "1600 E 5th St",
    "address_2": null,
    "address_3": null,
    "city": "Dayton",
    "state_province": "Ohio",
    "postal_code": "45403-2304",
    "country": "United States",
    "longitude": -84.1881863,
    "latitude": 39.7572259,
    "phone": "9374430919",
    "website_url": "http://Fifthstreetbrewpub.coop",
    "state": "Ohio",
    "street": "1600 E 5th St"
  },
  {
    "id": "0f57933a-def7-4c86-8cd3-505b834c0470",
    "name": "Fifth Ward Brewing Company",
    "brewery_type": "micro",
    "address_1": "1009 S Main St",
    "address_2": null,
    "address_3": null,
    "city": "Oshkosh",
    "state_province": "Wisconsin",
    "postal_code": "54902-6019",
    "country": "United States",
    "longitude": -88.5408574,
    "latitude": 44.0206919,
    "phone": "9204791876",
    "website_url": "http://www.fifthwardbrewing.com",
    "state": "Wisconsin",
    "street": "1009 S Main St"
  },
  {
    "id": "5a19b678-db5b-4fe3-939f-73345b04b3a4",
    "name": "Fifth Year Brewery",
    "brewery_type": "planning",
    "address_1": null,
    "address_2": null,
    "address_3": null,
    "city": "West Haven",
    "state_province": "Connecticut",
    "postal_code": "06516-7515",
    "country": "United States",
    "longitude": null,
    "latitude": null,
    "phone": null,
    "website_url": null,
    "state": "Connecticut",
    "street": null
  },
  {
    "id": "a84e6dc3-0e93-455b-8655-819b832b6bc3",
    "name": "Fifty West Brewing Co",
    "brewery_type": "micro",
    "address_1": "7605 Wooster Pike",
    "address_2": null,
    "address_3": null,
    "city": "Cincinnati",
    "state_province": "Ohio",
    "postal_code": "45227-3925",
    "country": "United States",
    "longitude": -84.4134859,
    "latitude": 39.11952,
    "phone": "5138348789",
    "website_url": null,
    "state": "Ohio",
    "street": "7605 Wooster Pike"
  },
  {
    "id": "e16b6c28-c37c-43fe-9234-705513701060",
    "name": "Fifty West Brewing Co",
    "brewery_type": "brewpub",
    "address_1": "7668 Wooster Pike",
    "address_2": null,
    "address_3": null,
    "city": "Cincinnati",
    "state_province": "Ohio",
    "postal_code": "45227-3926",
    "country": "United States",
    "longitude": -84.4134859,
    "latitude": 39.11952,
    "phone": "5138348789",
    "website_url": "http://www.fiftywestbrew.com",
    "state": "Ohio",
    "street": "7668 Wooster Pike"
  },
  {
    "id": "9e84203a-cf4f-486a-a162-8068bc3eaf54",
    "name": "FiftyFifty Brewing Co",
    "brewery_type": "brewpub",
    "address_1": "11197 Brockway Rd Spc 1",
    "address_2": null,
    "address_3": null,
    "city": "Truckee",
    "state_province": "California",
    "postal_code": "96161-3352",
    "country": "United States",
    "longitude": -120.1634145,
    "latitude": 39.32213777,
    "phone": "5305872337",
    "website_url": "http://www.fiftyfiftybrewing.com",
    "state": "California",
    "street": "11197 Brockway Rd Spc 1"
  },
  {
    "id": "a10765e2-a7d7-4930-acb6-3bf77bb7b77f",
    "name": "FiftyFifty Brewing Production Facility",
    "brewery_type": "micro",
    "address_1": "10434 River Park Pl",
    "address_2": null,
    "address_3": null,
    "city": "Truckee",
    "state_province": "California",
    "postal_code": "96161-5905",
    "country": "United States",
    "longitude": -120.1931724,
    "latitude": 39.32253237,
    "phone": "5305872337",
    "website_url": null,
    "state": "California",
    "street": "10434 River Park Pl"
  },
  {
    "id": "1198ad91-b35e-470b-a7e2-bcb93934e6f2",
    "name": "FigLeaf Brewing Company",
    "brewery_type": "micro",
    "address_1": "3387 Cincinnati Dayton Rd",
    "address_2": null,
    "address_3": null,
    "city": "Middletown",
    "state_province": "Ohio",
    "postal_code": "45044-8905",
    "country": "United States",
    "longitude": -84.34678975,
    "latitude": 39.46688114,
    "phone": "9373612573",
    "website_url": "http://www.figleafbrewing.com",
    "state": "Ohio",
    "street": "3387 Cincinnati Dayton Rd"
  },
  {
    "id": "860d5477-e4ed-4c74-afc9-66e02056855f",
    "name": "Figueroa Mountain Brewing",
    "brewery_type": "regional",
    "address_1": "45 Industrial Way",
    "address_2": null,
    "address_3": null,
    "city": "Buellton",
    "state_province": "California",
    "postal_code": "93427-9565",
    "country": "United States",
    "longitude": -120.2022226,
    "latitude": 34.61068975,
    "phone": "8056942252",
    "website_url": "http://www.figmtnbrew.com",
    "state": "California",
    "street": "45 Industrial Way"
  },
  {
    "id": "ba47384b-fd1f-4dd5-b51f-75f28a2a7f70",
    "name": "Figueroa Mountain Brewing - Arroyo Grande",
    "brewery_type": "brewpub",
    "address_1": "1462 E Grand Ave",
    "address_2": null,
    "address_3": null,
    "city": "Arroyo Grande",
    "state_province": "California",
    "postal_code": "93420-2448",
    "country": "United States",
    "longitude": -120.6059582,
    "latitude": 35.12102175,
    "phone": "8058869275",
    "website_url": "http://www.figmtnbrew.com",
    "state": "California",
    "street": "1462 E Grand Ave"
  },
  {
    "id": "bfe8fe2c-12d4-4620-9e13-d2ca346078fc",
    "name": "Figueroa Mountain Brewing - Santa Barbara",
    "brewery_type": "micro",
    "address_1": "137 Anacapa St Ste F",
    "address_2": null,
    "address_3": null,
    "city": "Santa Barbara",
    "state_province": "California",
    "postal_code": "93101-1848",
    "country": "United States",
    "longitude": -119.6908077,
    "latitude": 34.414758,
    "phone": "8058869275",
    "website_url": "http://www.figmtnbrew.com",
    "state": "California",
    "street": "137 Anacapa St Ste F"
  },
  {
    "id": "8a0c381f-ea5b-4474-969d-9abfed057d65",
    "name": "Figueroa Mountain Brewing - Westlake Village",
    "brewery_type": "micro",
    "address_1": "30770 Russell Ranch Rd Ste E& # F",
    "address_2": null,
    "address_3": null,
    "city": "Westlake Village",
    "state_province": "California",
    "postal_code": "91362-6314",
    "country": "United States",
    "longitude": -118.7954292,
    "latitude": 34.14758662,
    "phone": "8058869275",
    "website_url": "http://www.figmtnbrew.com",
    "state": "California",
    "street": "30770 Russell Ranch Rd Ste E& # F"
  },
  {
    "id": "607ac560-d432-4e42-9aca-b9244542a861",
    "name": "Figure Eight Brewing Co",
    "brewery_type": "brewpub",
    "address_1": "150 Washington St",
    "address_2": null,
    "address_3": null,
    "city": "Valparaiso",
    "state_province": "Indiana",
    "postal_code": "46383-5507",
    "country": "United States",
    "longitude": null,
    "latitude": null,
    "phone": "2194772000",
    "website_url": "http://www.figureeightbrewing.com",
    "state": "Indiana",
    "street": "150 Washington St"
  },
  {
    "id": "379eceb5-bc20-4627-ad9c-d3cb922048b8",
    "name": "Figurehead Brewing Company",
    "brewery_type": "micro",
    "address_1": "4001 21st Ave W Unit B",
    "address_2": null,
    "address_3": null,
    "city": "Seattle",
    "state_province": "Washington",
    "postal_code": "98199-1201",
    "country": "United States",
    "longitude": -122.3835563,
    "latitude": 47.65688785,
    "phone": "2064927981",
    "website_url": "http://www.figureheadbrewingcompany.com",
    "state": "Washington",
    "street": "4001 21st Ave W Unit B"
  },
  {
    "id": "5913b262-fbb5-4279-b50f-24843d149b94",
    "name": "Fillmore 13 Brewery",
    "brewery_type": "brewpub",
    "address_1": "7 N Saginaw St",
    "address_2": null,
    "address_3": null,
    "city": "Pontiac",
    "state_province": "Michigan",
    "postal_code": "48342-2182",
    "country": "United States",
    "longitude": -83.292346,
    "latitude": 42.6369922,
    "phone": "2489773972",
    "website_url": "http://www.fillmore13brewery.com",
    "state": "Michigan",
    "street": "7 N Saginaw St"
  },
  {
    "id": "c776ab29-500d-4679-b417-f58d712c5ab0",
    "name": "Final Draft Brewing Company",
    "brewery_type": "brewpub",
    "address_1": "1600 California St",
    "address_2": null,
    "address_3": null,
    "city": "Redding",
    "state_province": "California",
    "postal_code": "96001-1001",
    "country": "United States",
    "longitude": -122.3913371,
    "latitude": 40.5820505,
    "phone": "3105693868",
    "website_url": "http://www.finaldraftbrewingcompany.com",
    "state": "California",
    "street": "1600 California St"
  },
  {
    "id": "10ea014e-22e8-4c4f-b988-9a46e656c1d7",
    "name": "Final Gravity Brewing Co",
    "brewery_type": "brewpub",
    "address_1": "103 N Phelps St",
    "address_2": null,
    "address_3": null,
    "city": "Decatur",
    "state_province": "Michigan",
    "postal_code": "49045-1008",
    "country": "United States",
    "longitude": -85.97454749,
    "latitude": 42.10876694,
    "phone": "2694368052",
    "website_url": "http://www.finalgravitybrew.com",
    "state": "Michigan",
    "street": "103 N Phelps St"
  },
  {
    "id": "b58fc6dc-a1f6-4106-bb65-45ff5eefc03d",
    "name": "Final Gravity Brewing Co.",
    "brewery_type": "micro",
    "address_1": "6118 Lakeside Ave",
    "address_2": null,
    "address_3": null,
    "city": "Henrico",
    "state_province": "Virginia",
    "postal_code": "23228",
    "country": "United States",
    "longitude": -77.46933476,
    "latitude": 37.61145549,
    "phone": "8042644808",
    "website_url": null,
    "state": "Virginia",
    "street": "6118 Lakeside Ave"
  },
  {
    "id": "7bb60663-b700-4b29-80fd-f196f5c33c9d",
    "name": "Final Gravity Brewing Company",
    "brewery_type": "planning",
    "address_1": null,
    "address_2": null,
    "address_3": null,
    "city": "Decatur",
    "state_province": "Michigan",
    "postal_code": "49045-1118",
    "country": "United States",
    "longitude": null,
    "latitude": null,
    "phone": null,
    "website_url": "http://www.finalgravitybrew.com",
    "state": "Michigan",
    "street": null
  },
  {
    "id": "493075c7-501d-4e01-ad6d-75308f0db95f",
    "name": "Final Gravity Brewing Company",
    "brewery_type": "micro",
    "address_1": "246 N Burdick St",
    "address_2": null,
    "address_3": null,
    "city": "Kalamazoo",
    "state_province": "Michigan",
    "postal_code": "49007-3828",
    "country": "United States",
    "longitude": -85.58315888,
    "latitude": 42.29324471,
    "phone": null,
    "website_url": "http://www.finalgravitybrew.com",
    "state": "Michigan",
    "street": "246 N Burdick St"
  },
  {
    "id": "baf0d387-d06c-492b-b435-46b0619b8149",
    "name": "Finback Brewery",
    "brewery_type": "micro",
    "address_1": "78-01 77th Ave",
    "address_2": null,
    "address_3": null,
    "city": "Queens",
    "state_province": "New York",
    "postal_code": "11385-7518",
    "country": "United States",
    "longitude": -73.8732597,
    "latitude": 40.7067227,
    "phone": "7186288600",
    "website_url": "http://www.finbackbrewery.com",
    "state": "New York",
    "street": "78-01 77th Ave"
  },
  {
    "id": "d9ee2acf-01b7-48d2-ae25-db12c2143eb3",
    "name": "Finch Beer Company",
    "brewery_type": "micro",
    "address_1": "1800 W Walnut St",
    "address_2": null,
    "address_3": null,
    "city": "Chicago",
    "state_province": "Illinois",
    "postal_code": "60612-2526",
    "country": "United States",
    "longitude": -87.6721651,
    "latitude": 41.8861899,
    "phone": "3129294773",
    "website_url": "http://www.finchbeer.com",
    "state": "Illinois",
    "street": "1800 W Walnut St"
  },
  {
    "id": "9f1fdcb0-c5f9-46c4-b1c3-18dee1027afd",
    "name": "Findlay Brewing Co.",
    "brewery_type": "micro",
    "address_1": "213 E. Crawford St.",
    "address_2": null,
    "address_3": null,
    "city": "Findlay",
    "state_province": "Ohio",
    "postal_code": "45840",
    "country": "United States",
    "longitude": -83.64817394,
    "latitude": 41.03767553,
    "phone": "4197227395",
    "website_url": "http://www.findlaybrewingcompany.com",
    "state": "Ohio",
    "street": "213 E. Crawford St."
  },
  {
    "id": "df2f28f2-e202-436f-a028-aedfe2837ce3",
    "name": "Fine Creek Brewing Company",
    "brewery_type": "brewpub",
    "address_1": "2425 Robert E Lee Rd",
    "address_2": null,
    "address_3": null,
    "city": "Powhatan",
    "state_province": "Virginia",
    "postal_code": "23139-4411",
    "country": "United States",
    "longitude": -77.81761305,
    "latitude": 37.59794,
    "phone": null,
    "website_url": "http://www.finecreekbrewing.com",
    "state": "Virginia",
    "street": "2425 Robert E Lee Rd"
  },
  {
    "id": "ca819de8-2d89-4ce2-8079-88b43bbf8330",
    "name": "Finger Lakes Beer Co",
    "brewery_type": "micro",
    "address_1": "8462 State Route 54",
    "address_2": null,
    "address_3": null,
    "city": "Hammondsport",
    "state_province": "New York",
    "postal_code": "14840-9795",
    "country": "United States",
    "longitude": null,
    "latitude": null,
    "phone": "6075693311",
    "website_url": null,
    "state": "New York",
    "street": "8462 State Route 54"
  },
  {
    "id": "b7f0e370-efcc-4894-b0af-35e90917724f",
    "name": "Finkel & Garf Brewing Co.",
    "brewery_type": "micro",
    "address_1": "5455 Spine Rd Ste A",
    "address_2": null,
    "address_3": null,
    "city": "Boulder",
    "state_province": "Colorado",
    "postal_code": "80301-3364",
    "country": "United States",
    "longitude": null,
    "latitude": null,
    "phone": null,
    "website_url": "http://www.finkelandgarf.com",
    "state": "Colorado",
    "street": "5455 Spine Rd Ste A"
  },
  {
    "id": "72afec57-f322-4208-b6e8-9fc4cf0975c9",
    "name": "FINNEGANS Brew Co",
    "brewery_type": "micro",
    "address_1": "817 5th Ave So",
    "address_2": null,
    "address_3": null,
    "city": "Minneapolis",
    "state_province": "Minnesota",
    "postal_code": "55404",
    "country": "United States",
    "longitude": null,
    "latitude": null,
    "phone": "2072394937",
    "website_url": "http://www.finnegans.com",
    "state": "Minnesota",
    "street": "817 5th Ave So"
  },
  {
    "id": "aef7a136-f2e1-4aca-ad98-ab593e82f91a",
    "name": "Fins Big Oyster Brewery",
    "brewery_type": "brewpub",
    "address_1": "19269 Coastal Hwy",
    "address_2": null,
    "address_3": null,
    "city": "Rehoboth Beach",
    "state_province": "Delaware",
    "postal_code": "19971-6113",
    "country": "United States",
    "longitude": -75.090191,
    "latitude": 38.7074994,
    "phone": "3022902410",
    "website_url": "http://bigoysterbrewery.com",
    "state": "Delaware",
    "street": "19269 Coastal Hwy"
  },
  {
    "id": "f4558573-9e85-42ff-abcd-8d35a7d3c852",
    "name": "Fire Island Beer Co",
    "brewery_type": "micro",
    "address_1": "25 Drexel Dr",
    "address_2": null,
    "address_3": null,
    "city": "Bay Shore",
    "state_province": "New York",
    "postal_code": "11706-2234",
    "country": "United States",
    "longitude": null,
    "latitude": null,
    "phone": null,
    "website_url": "http://www.fireislandbeer.com",
    "state": "New York",
    "street": "25 Drexel Dr"
  },
  {
    "id": "483e1e69-0687-445c-99c2-b1ec732eb580",
    "name": "Fire Maker Brewing Company",
    "brewery_type": "micro",
    "address_1": "975 Chattahoochee Ave NW",
    "address_2": null,
    "address_3": null,
    "city": "Atlanta",
    "state_province": "Georgia",
    "postal_code": "30318",
    "country": "United States",
    "longitude": -84.41943924,
    "latitude": 33.80024037,
    "phone": "6787058777",
    "website_url": "https://www.firemakerbeer.com",
    "state": "Georgia",
    "street": "975 Chattahoochee Ave NW"
  },
  {
    "id": "57716b50-4321-4023-bfe5-b0243722af72",
    "name": "Fire On the Mountain Brewing Co",
    "brewery_type": "brewpub",
    "address_1": "3443 NE 57th Ave",
    "address_2": null,
    "address_3": null,
    "city": "Portland",
    "state_province": "Oregon",
    "postal_code": "97213-3351",
    "country": "United States",
    "longitude": -122.6049402,
    "latitude": 45.5480432,
    "phone": "5038948973",
    "website_url": "http://www.portlandwings.com",
    "state": "Oregon",
    "street": "3443 NE 57th Ave"
  },
  {
    "id": "5591fbd3-5000-439c-b685-5a785829aa08",
    "name": "Firebird Brewing Company Ltd",
    "brewery_type": "taproom",
    "address_1": "Lynwick Street",
    "address_2": null,
    "address_3": null,
    "city": "Horsham",
    "state_province": "West Sussex",
    "postal_code": "RH12 3UW",
    "country": "England",
    "longitude": -0.45414,
    "latitude": 51.09654,
    "phone": "1403823180",
    "website_url": "https://firebirdbrewing.com/",
    "state": "West Sussex",
    "street": "Lynwick Street"
  },
  {
    "id": "dca618d0-fe3f-4829-9f56-36f9ba2dca26",
    "name": "Fired Up Brewing",
    "brewery_type": "brewpub",
    "address_1": "1235 S Main St",
    "address_2": null,
    "address_3": null,
    "city": "Colville",
    "state_province": "Washington",
    "postal_code": "99114-9504",
    "country": "United States",
    "longitude": -117.9057561,
    "latitude": 48.540198,
    "phone": "5096843328",
    "website_url": "http://www.facebook.com/firedupbrewing",
    "state": "Washington",
    "street": "1235 S Main St"
  },
  {
    "id": "e13762c8-53a1-48a0-a915-c096492b06d6",
    "name": "Firefly Hollow Brewing Co.",
    "brewery_type": "closed",
    "address_1": "139 Center St Ste 5005",
    "address_2": null,
    "address_3": null,
    "city": "Bristol",
    "state_province": "Connecticut",
    "postal_code": "06010-5086",
    "country": "United States",
    "longitude": null,
    "latitude": null,
    "phone": "8608458977",
    "website_url": "http://www.fireflyhollowbrewing.com",
    "state": "Connecticut",
    "street": "139 Center St Ste 5005"
  },
  {
    "id": "4dfcdb68-1be1-4581-9283-a01ca9bc9e6d",
    "name": "Firehouse Brewing Co",
    "brewery_type": "brewpub",
    "address_1": "610 Main St",
    "address_2": null,
    "address_3": null,
    "city": "Rapid City",
    "state_province": "South Dakota",
    "postal_code": "57701-2736",
    "country": "United States",
    "longitude": -103.2275562,
    "latitude": 44.08144085,
    "phone": "6053481915",
    "website_url": "http://www.firehousebrewing.com",
    "state": "South Dakota",
    "street": "610 Main St"
  },
  {
    "id": "013ce0d8-b95d-45d9-9733-aaa7eb3b4586",
    "name": "Firehouse Grill & Brewery",
    "brewery_type": "brewpub",
    "address_1": "111 S Murphy Ave",
    "address_2": null,
    "address_3": null,
    "city": "Sunnyvale",
    "state_province": "California",
    "postal_code": "94086-6113",
    "country": "United States",
    "longitude": -122.03007,
    "latitude": 37.37738,
    "phone": "4087739500",
    "website_url": "http://www.firehousegrill.com",
    "state": "California",
    "street": "111 S Murphy Ave"
  },
  {
    "id": "daf5b513-a3e3-4103-b819-24588bf9331a",
    "name": "Fireman's Brew",
    "brewery_type": "contract",
    "address_1": "6433 Topanga Canyon Blvd # 189",
    "address_2": null,
    "address_3": null,
    "city": "Woodland Hills",
    "state_province": "California",
    "postal_code": "91303-2621",
    "country": "United States",
    "longitude": -118.6057591,
    "latitude": 34.1667962,
    "phone": "8188832739",
    "website_url": "http://www.firemansbrew.com",
    "state": "California",
    "street": "6433 Topanga Canyon Blvd # 189"
  },
  {
    "id": "b3fe866f-48ce-49d1-bae3-abfa6326047f",
    "name": "Fireside Brewing Co.",
    "brewery_type": "micro",
    "address_1": "430 W 17th St Ste 27",
    "address_2": null,
    "address_3": null,
    "city": "Holland",
    "state_province": "Michigan",
    "postal_code": "49423-3403",
    "country": "United States",
    "longitude": null,
    "latitude": null,
    "phone": "6162943777",
    "website_url": null,
    "state": "Michigan",
    "street": "430 W 17th St Ste 27"
  },
  {
    "id": "43216af5-739e-43aa-8640-69c3631e4ce7",
    "name": "Firestone Walker Barrelworks",
    "brewery_type": "micro",
    "address_1": "620 McMurray Rd",
    "address_2": null,
    "address_3": null,
    "city": "Buellton",
    "state_province": "California",
    "postal_code": "93427-2511",
    "country": "United States",
    "longitude": -120.1883447,
    "latitude": 34.6248627,
    "phone": "8056861557",
    "website_url": "http://www.firestonewalker.com",
    "state": "California",
    "street": "620 McMurray Rd"
  },
  {
    "id": "cec5d778-9c24-46f7-841e-174976076100",
    "name": "Firestone Walker Brewing Co",
    "brewery_type": "brewpub",
    "address_1": "3205 Washington Blvd",
    "address_2": null,
    "address_3": null,
    "city": "Marina del Rey",
    "state_province": "California",
    "postal_code": "90292-5552",
    "country": "United States",
    "longitude": -118.4485365,
    "latitude": 33.98999791,
    "phone": "3104398264",
    "website_url": null,
    "state": "California",
    "street": "3205 Washington Blvd"
  },
  {
    "id": "209ae692-2dc3-45bd-baf5-6a2ef68c1a6e",
    "name": "Firestone Walker Brewing Co",
    "brewery_type": "regional",
    "address_1": "1400 Ramada Dr",
    "address_2": null,
    "address_3": null,
    "city": "Paso Robles",
    "state_province": "California",
    "postal_code": "93446-3993",
    "country": "United States",
    "longitude": -120.6943059,
    "latitude": 35.59606059,
    "phone": "8052255911",
    "website_url": "http://www.firestonebeer.com",
    "state": "California",
    "street": "1400 Ramada Dr"
  },
  {
    "id": "711f4130-d7c6-4856-8bcf-92ea1865b3ae",
    "name": "Firetrucker Brewery",
    "brewery_type": "micro",
    "address_1": "716 SW 3rd St",
    "address_2": null,
    "address_3": null,
    "city": "Ankeny",
    "state_province": "Iowa",
    "postal_code": "50023-2615",
    "country": "United States",
    "longitude": -93.60984369,
    "latitude": 41.7299268,
    "phone": "5159641284",
    "website_url": "http://www.firetrucker.com",
    "state": "Iowa",
    "street": "716 SW 3rd St"
  },
  {
    "id": "4909cd1a-bb81-4e07-86e9-2737ab02fd6a",
    "name": "Firewater Brewing Company",
    "brewery_type": "planning",
    "address_1": null,
    "address_2": null,
    "address_3": null,
    "city": "Kennesaw",
    "state_province": "Georgia",
    "postal_code": "30144",
    "country": "United States",
    "longitude": null,
    "latitude": null,
    "phone": null,
    "website_url": null,
    "state": "Georgia",
    "street": null
  },
  {
    "id": "e5cb89b8-c9c7-4947-a825-9371002a12a0",
    "name": "First Flight Island Restaurant & Brewery",
    "brewery_type": "brewpub",
    "address_1": "301 Whitehead St",
    "address_2": null,
    "address_3": null,
    "city": "Key West",
    "state_province": "Florida",
    "postal_code": "33040-6542",
    "country": "United States",
    "longitude": -81.805413,
    "latitude": 24.557321,
    "phone": null,
    "website_url": "http://firstflightkw.com",
    "state": "Florida",
    "street": "301 Whitehead St"
  },
  {
    "id": "5654c809-0b29-49f0-855f-7ea45be8d8c0",
    "name": "First Magnitude Brewing Company",
    "brewery_type": "micro",
    "address_1": "1220 SE Veitch St",
    "address_2": null,
    "address_3": null,
    "city": "Gainesville",
    "state_province": "Florida",
    "postal_code": "32601-7917",
    "country": "United States",
    "longitude": -82.32429908,
    "latitude": 29.63983022,
    "phone": "3527274677",
    "website_url": "http://www.fmbrewing.com",
    "state": "Florida",
    "street": "1220 SE Veitch St"
  },
  {
    "id": "13d751c0-5894-4f61-a372-d07f9ff9a71e",
    "name": "First Mile Brewing Company",
    "brewery_type": "micro",
    "address_1": "28 Market St Ste 103",
    "address_2": null,
    "address_3": null,
    "city": "Fort Kent",
    "state_province": "Maine",
    "postal_code": "04743",
    "country": "United States",
    "longitude": null,
    "latitude": null,
    "phone": null,
    "website_url": null,
    "state": "Maine",
    "street": "28 Market St Ste 103"
  },
  {
    "id": "5a4a3717-4640-405b-90d7-47a69be1c8e4",
    "name": "First State Brewing Company",
    "brewery_type": "planning",
    "address_1": null,
    "address_2": null,
    "address_3": null,
    "city": "Middletown",
    "state_province": "Delaware",
    "postal_code": "19709-1482",
    "country": "United States",
    "longitude": null,
    "latitude": null,
    "phone": "3022859535",
    "website_url": "http://www.firststatebrewing.com",
    "state": "Delaware",
    "street": null
  },
  {
    "id": "78965a98-743a-4f7c-8338-ee6c548e73db",
    "name": "First Street Brewing",
    "brewery_type": "micro",
    "address_1": "119 N St Joseph Ave",
    "address_2": null,
    "address_3": null,
    "city": "Hastings",
    "state_province": "Nebraska",
    "postal_code": "68901-7553",
    "country": "United States",
    "longitude": -98.3877198,
    "latitude": 40.5844989,
    "phone": "4028342400",
    "website_url": "http://www.firststreetbrewing.com",
    "state": "Nebraska",
    "street": "119 N St Joseph Ave"
  }
]