[
  {
    "id": "450263c6-c95c-426c-aee9-c82f5ec11fbb",
    "name": "Duquesne Brewing of Pittsburgh",
    "brewery_type": "contract",
    "address_1": "932 W North Ave",
    "address_2": null,
    "address_3": null,
    "city": "Pittsburgh",
    "state_province": "Pennsylvania",
    "postal_code": "15233-1606",
    "country": "United States",
    "longitude": -80.01790691,
    "latitude": 40.45346755,
    "phone": "4128312779",
    "website_url": null,
    "state": "Pennsylvania",
    "street": "932 W North Ave"
  },
  {
    "id": "52761616-efb8-4d3f-beff-7661b8fc7087",
    "name": "Durango Brewing Co",
    "brewery_type": "brewpub",
    "address_1": "3000 Main Ave",
    "address_2": null,
    "address_3": null,
    "city": "Durango",
    "state_province": "Colorado",
    "postal_code": "81301-4245",
    "country": "United States",
    "longitude": -107.871981,
    "latitude": 37.297647,
    "phone": "9702473396",
    "website_url": "http://www.durangobrewing.com",
    "state": "Colorado",
    "street": "3000 Main Ave"
  },
  {
    "id": "ae111ea0-b5a2-46f0-9e64-bcc1ecadca27",
    "name": "Durty Bull Brewing Co.",
    "brewery_type": "micro",
    "address_1": "206 Broadway St Ste 104",
    "address_2": null,
    "address_3": null,
    "city": "Durham",
    "state_province": "North Carolina",
    "postal_code": "27701-2404",
    "country": "United States",
    "longitude": null,
    "latitude": null,
    "phone": "9196882337",
    "website_url": "http://www.durtybull.com",
    "state": "North Carolina",
    "street": "206 Broadway St Ste 104"
  },
  {
    "id": "cbf07548-d3c6-4cb2-92a6-cf16e1375846",
    "name": "Dust Bowl Brewing Co",
    "brewery_type": "micro",
    "address_1": "3000 Fulkerth Rd",
    "address_2": null,
    "address_3": null,
    "city": "Turlock",
    "state_province": "California",
    "postal_code": "95380-9403",
    "country": "United States",
    "longitude": -120.8826535,
    "latitude": 37.50655825,
    "phone": "2096341934",
    "website_url": "http://www.dustbowlbrewing.com",
    "state": "California",
    "street": "3000 Fulkerth Rd"
  },
  {
    "id": "33ca4264-c729-4345-b454-8a6d7a04da88",
    "name": "Dutch's BrewHouse",
    "brewery_type": "brewpub",
    "address_1": "4244 Atlantic Ave",
    "address_2": null,
    "address_3": null,
    "city": "Long Beach",
    "state_province": "California",
    "postal_code": "90807-2802",
    "country": "United States",
    "longitude": -118.1859647,
    "latitude": 33.8781951,
    "phone": "5623361326",
    "website_url": "http://dutchsbrewhouse.com",
    "state": "California",
    "street": "4244 Atlantic Ave"
  },
  {
    "id": "5d2bad15-ad08-486d-b92a-4c70fc276f7e",
    "name": "Duvig Brewing Co",
    "brewery_type": "micro",
    "address_1": "59 School Ground Rd Ste 10",
    "address_2": null,
    "address_3": null,
    "city": "Branford",
    "state_province": "Connecticut",
    "postal_code": "06405-2868",
    "country": "United States",
    "longitude": null,
    "latitude": null,
    "phone": "2032082213",
    "website_url": "http://www.duvig.com",
    "state": "Connecticut",
    "street": "59 School Ground Rd Ste 10"
  },
  {
    "id": "c50af63f-c38a-4d1d-a15e-bd676e055505",
    "name": "Dwinell Country Ales",
    "brewery_type": "micro",
    "address_1": "206 W Broadway St",
    "address_2": null,
    "address_3": null,
    "city": "Goldendale",
    "state_province": "Washington",
    "postal_code": "98620-9130",
    "country": "United States",
    "longitude": -120.8247773,
    "latitude": 45.822927,
    "phone": "5097733138",
    "website_url": "http://www.countryales.com",
    "state": "Washington",
    "street": "206 W Broadway St"
  },
  {
    "id": "b691e779-d2ff-46dc-9171-46b99a9043e1",
    "name": "Dyckman Beer Co",
    "brewery_type": "contract",
    "address_1": null,
    "address_2": null,
    "address_3": null,
    "city": "Bronx",
    "state_province": "New York",
    "postal_code": "10451",
    "country": "United States",
    "longitude": null,
    "latitude": null,
    "phone": null,
    "website_url": "http://www.dyckmanbeerco.com",
    "state": "New York",
    "street": null
  },
  {
    "id": "8870078b-8ebf-4c47-9ae5-1db667dc247d",
    "name": "Dynasty Brewing Company",
    "brewery_type": "planning",
    "address_1": null,
    "address_2": null,
    "address_3": null,
    "city": "Ashburn",
    "state_province": "Virginia",
    "postal_code": "20147",
    "country": "United States",
    "longitude": null,
    "latitude": null,
    "phone": "7037279229",
    "website_url": "http://www.dynastybrewing.com",
    "state": "Virginia",
    "street": null
  },
  {
    "id": "c5e25b7e-f1ba-422f-aa26-44096d022060",
    "name": "Dystopian State Brewing",
    "brewery_type": "micro",
    "address_1": "611 S Baker St",
    "address_2": null,
    "address_3": null,
    "city": "Tacoma",
    "state_province": "Washington",
    "postal_code": "98402-2318",
    "country": "United States",
    "longitude": -122.4433066,
    "latitude": 47.25836061,
    "phone": "2533023466",
    "website_url": "http://www.dystopianstate.com",
    "state": "Washington",
    "street": "611 S Baker St"
  },
  {
    "id": "2e01294c-1845-456d-a4a9-176f5efc294e",
    "name": "E.J. Phair Brewing Co.",
    "brewery_type": "micro",
    "address_1": "225 Alamo Plaza",
    "address_2": null,
    "address_3": null,
    "city": "Alamo",
    "state_province": "California",
    "postal_code": "94507",
    "country": "United States",
    "longitude": -122.0340499,
    "latitude": 37.85105324,
    "phone": "9256804253",
    "website_url": "http://www.ejphair.com",
    "state": "California",
    "street": "225 Alamo Plaza"
  },
  {
    "id": "bdd40512-5b13-4ac9-9d5a-ca6cfa304d2b",
    "name": "E.J. Phair Brewing Co.",
    "brewery_type": "micro",
    "address_1": "2151 Salvio St Ste L",
    "address_2": null,
    "address_3": null,
    "city": "Concord",
    "state_province": "California",
    "postal_code": "94520-2470",
    "country": "United States",
    "longitude": -122.0338182,
    "latitude": 37.97810431,
    "phone": "9256804253",
    "website_url": "http://www.ejphair.com",
    "state": "California",
    "street": "2151 Salvio St Ste L"
  },
  {
    "id": "570346e2-4896-48f6-b233-89b2a06a2906",
    "name": "E.J. Phair Brewing Co.",
    "brewery_type": "micro",
    "address_1": "300 Cumberland St",
    "address_2": null,
    "address_3": null,
    "city": "Pittsburg",
    "state_province": "California",
    "postal_code": "94565-2234",
    "country": "United States",
    "longitude": -121.8824742,
    "latitude": 38.0330804,
    "phone": "9252529895",
    "website_url": "http://www.ejphair.com",
    "state": "California",
    "street": "300 Cumberland St"
  },
  {
    "id": "dad5cb3d-3e6d-4099-b9d9-1a89b7b1d714",
    "name": "E2W Brewing",
    "brewery_type": "micro",
    "address_1": "12913 Shady Glen Ave SE",
    "address_2": null,
    "address_3": null,
    "city": "Olalla",
    "state_province": "Washington",
    "postal_code": "98359",
    "country": "United States",
    "longitude": -122.594069,
    "latitude": 47.432463,
    "phone": "2532147463",
    "website_url": "https://www.facebook.com/E2WBrewing",
    "state": "Washington",
    "street": "12913 Shady Glen Ave SE"
  },
  {
    "id": "60548726-66cb-4e76-ac56-935de154b4b7",
    "name": "E9 Brewing Company",
    "brewery_type": "micro",
    "address_1": "2506 Fawcett Avenue",
    "address_2": null,
    "address_3": null,
    "city": "Tacoma",
    "state_province": "Washington",
    "postal_code": "98402",
    "country": "United States",
    "longitude": -122.44,
    "latitude": 47.238169,
    "phone": "2533837707",
    "website_url": "https://e9brewingco.com/",
    "state": "Washington",
    "street": "2506 Fawcett Avenue"
  },
  {
    "id": "c88ab21e-2a9a-4d12-a50f-9b0c478d26ea",
    "name": "Eagle Creek Brewing Company",
    "brewery_type": "micro",
    "address_1": "106 Savannah Ave Ste B",
    "address_2": null,
    "address_3": null,
    "city": "Statesboro",
    "state_province": "Georgia",
    "postal_code": "30458-7162",
    "country": "United States",
    "longitude": null,
    "latitude": null,
    "phone": "9124892337",
    "website_url": "http://www.eaglecreekbrewingco.com",
    "state": "Georgia",
    "street": "106 Savannah Ave Ste B"
  },
  {
    "id": "c3bd1af8-2ca2-4a14-b733-8c4d788c4752",
    "name": "Eagle Park Brewing Company",
    "brewery_type": "brewpub",
    "address_1": "823 E Hamilton St",
    "address_2": null,
    "address_3": null,
    "city": "Milwaukee",
    "state_province": "Wisconsin",
    "postal_code": "53202",
    "country": "United States",
    "longitude": -87.90143961,
    "latitude": 43.0542106,
    "phone": "4145850123",
    "website_url": "http://www.eagleparkbrewing.com",
    "state": "Wisconsin",
    "street": "823 E Hamilton St"
  },
  {
    "id": "32fba728-f8b1-47e4-8cf4-78ad87bd4640",
    "name": "Eagle Rock Brewery",
    "brewery_type": "micro",
    "address_1": "3056 Roswell St",
    "address_2": null,
    "address_3": null,
    "city": "Los Angeles",
    "state_province": "California",
    "postal_code": "90065-2214",
    "country": "United States",
    "longitude": -118.2440377,
    "latitude": 34.11473143,
    "phone": "3232577866",
    "website_url": "http://www.eaglerockbrewery.com",
    "state": "California",
    "street": "3056 Roswell St"
  },
  {
    "id": "1996e0fa-b821-4d44-a6ea-d5fda91c7d47",
    "name": "EagleMonk Pub and Brewery",
    "brewery_type": "brewpub",
    "address_1": "4906 W Mount Hope Hwy",
    "address_2": null,
    "address_3": null,
    "city": "Lansing",
    "state_province": "Michigan",
    "postal_code": "48917-9588",
    "country": "United States",
    "longitude": -84.662048,
    "latitude": 42.712054,
    "phone": "5177087350",
    "website_url": null,
    "state": "Michigan",
    "street": "4906 W Mount Hope Hwy"
  },
  {
    "id": "381795a6-ff78-48b4-a49c-b46ed2ed423f",
    "name": "Earlybird Brewing Company",
    "brewery_type": "contract",
    "address_1": "737 Bolivar Rd Ste 4100",
    "address_2": null,
    "address_3": null,
    "city": "Cleveland",
    "state_province": "Ohio",
    "postal_code": "44115-1259",
    "country": "United States",
    "longitude": null,
    "latitude": null,
    "phone": null,
    "website_url": "http://www.earlybirdbrewing.com",
    "state": "Ohio",
    "street": "737 Bolivar Rd Ste 4100"
  },
  {
    "id": "5b238658-1684-4f51-bc1c-6059ba35c9b9",
    "name": "Earnest Brew Works",
    "brewery_type": "micro",
    "address_1": "4342 S Detroit Ave",
    "address_2": null,
    "address_3": null,
    "city": "Toledo",
    "state_province": "Ohio",
    "postal_code": "43614-5367",
    "country": "United States",
    "longitude": -83.61522535,
    "latitude": 41.590252,
    "phone": "4193402589",
    "website_url": "http://www.earnestbrewworks.com",
    "state": "Ohio",
    "street": "4342 S Detroit Ave"
  },
  {
    "id": "e50a6745-e422-4e58-9d76-a906b3b37e10",
    "name": "Earth And Fire Brewing Company",
    "brewery_type": "closed",
    "address_1": "825 Riverside Ave Ste 1",
    "address_2": null,
    "address_3": null,
    "city": "Paso Robles",
    "state_province": "California",
    "postal_code": "93446-2660",
    "country": "United States",
    "longitude": -120.6868512,
    "latitude": 35.62375364,
    "phone": "8052702959",
    "website_url": "http://Www.earthandfirebrewing.com",
    "state": "California",
    "street": "825 Riverside Ave Ste 1"
  },
  {
    "id": "18b29afa-682c-4c5e-8ecb-ba0f61cf9f16",
    "name": "Earth Bread + Brewery",
    "brewery_type": "brewpub",
    "address_1": "7136 Germantown Ave",
    "address_2": null,
    "address_3": null,
    "city": "Philadelphia",
    "state_province": "Pennsylvania",
    "postal_code": "19119-1843",
    "country": "United States",
    "longitude": -75.1903546,
    "latitude": 40.0591996,
    "phone": "2152426666",
    "website_url": "http://www.earthbreadbrewery.com",
    "state": "Pennsylvania",
    "street": "7136 Germantown Ave"
  },
  {
    "id": "b9304a09-0ecf-488b-a437-e4654edf1148",
    "name": "Earth Eagle Brewing",
    "brewery_type": "brewpub",
    "address_1": "165 High Street",
    "address_2": null,
    "address_3": null,
    "city": "Portsmouth",
    "state_province": "New Hampshire",
    "postal_code": "03801",
    "country": "United States",
    "longitude": -70.75957196,
    "latitude": 43.0792548,
    "phone": null,
    "website_url": "http://www.eartheaglebrewings.com",
    "state": "New Hampshire",
    "street": "165 High Street"
  },
  {
    "id": "e5b6ac32-d6df-4bd8-929a-46d2b5828a2d",
    "name": "Earth Rider Brewing Co",
    "brewery_type": "micro",
    "address_1": "1617 N 3rd St",
    "address_2": null,
    "address_3": null,
    "city": "Superior",
    "state_province": "Wisconsin",
    "postal_code": "54880-1016",
    "country": "United States",
    "longitude": -92.10117749,
    "latitude": 46.73528116,
    "phone": "7153947391",
    "website_url": "http://www.earthrider.beer",
    "state": "Wisconsin",
    "street": "1617 N 3rd St"
  },
  {
    "id": "c89278ec-ce5b-41a6-9386-e28fa07599ea",
    "name": "Earthbound Beer",
    "brewery_type": "brewpub",
    "address_1": "2724 Cherokee St",
    "address_2": null,
    "address_3": null,
    "city": "Saint Louis",
    "state_province": "Missouri",
    "postal_code": "63118-3036",
    "country": "United States",
    "longitude": -90.22866959,
    "latitude": 38.5935863,
    "phone": "3147699576",
    "website_url": "http://www.earthboundbeer.com",
    "state": "Missouri",
    "street": "2724 Cherokee St"
  },
  {
    "id": "21a0d567-e70c-49fa-bb93-a073ed29e93b",
    "name": "Earthen Ales",
    "brewery_type": "micro",
    "address_1": "1371 Gray Dr Ste 200",
    "address_2": null,
    "address_3": null,
    "city": "Traverse City",
    "state_province": "Michigan",
    "postal_code": "49684-7805",
    "country": "United States",
    "longitude": -85.6454249,
    "latitude": 44.755294,
    "phone": "2312524270",
    "website_url": "http://www.earthenales.com",
    "state": "Michigan",
    "street": "1371 Gray Dr Ste 200"
  },
  {
    "id": "67ef1ce6-35c8-482d-b054-0b5e6b568e5b",
    "name": "East Branch Brewing Company",
    "brewery_type": "brewpub",
    "address_1": "202 E Lancaster Ave",
    "address_2": null,
    "address_3": null,
    "city": "Downingtown",
    "state_province": "Pennsylvania",
    "postal_code": "19335-2957",
    "country": "United States",
    "longitude": -75.70076097,
    "latitude": 40.0067258,
    "phone": "6102831989",
    "website_url": "http://www.eastbranchbrewing.com",
    "state": "Pennsylvania",
    "street": "202 E Lancaster Ave"
  },
  {
    "id": "04425330-f69b-40db-ae1b-176bb1c91d8c",
    "name": "East Brother Beer Company",
    "brewery_type": "micro",
    "address_1": "1001 Canal Blvd # C-2",
    "address_2": null,
    "address_3": null,
    "city": "Richmond",
    "state_province": "California",
    "postal_code": "94804-3533",
    "country": "United States",
    "longitude": -122.3754067,
    "latitude": 37.91772583,
    "phone": "5102304081",
    "website_url": "http://www.eastbrotherbeer.com",
    "state": "California",
    "street": "1001 Canal Blvd # C-2"
  },
  {
    "id": "98890002-074d-438f-9d82-ffc4317bc079",
    "name": "East Channel Brewing Company",
    "brewery_type": "micro",
    "address_1": "209 Maple St",
    "address_2": null,
    "address_3": null,
    "city": "Munising",
    "state_province": "Michigan",
    "postal_code": "49862-1084",
    "country": "United States",
    "longitude": -86.65452518,
    "latitude": 46.40934141,
    "phone": "9063873007",
    "website_url": "http://www.eastchannelbrewery.com",
    "state": "Michigan",
    "street": "209 Maple St"
  },
  {
    "id": "bb27831d-d4ee-41e0-b11b-7faa561b12ca",
    "name": "East Cliff Brewing Company",
    "brewery_type": "micro",
    "address_1": "21517 E Cliff Dr",
    "address_2": null,
    "address_3": null,
    "city": "Santa Cruz",
    "state_province": "California",
    "postal_code": "95062-4844",
    "country": "United States",
    "longitude": -122.0136488,
    "latitude": 36.9684053,
    "phone": "8317135540",
    "website_url": "http://www.eastcliffbrewing.com/",
    "state": "California",
    "street": "21517 E Cliff Dr"
  },
  {
    "id": "086f03da-c555-48a2-ae48-958ad65779e9",
    "name": "East End Brewing Co",
    "brewery_type": "micro",
    "address_1": "147 Julius St",
    "address_2": null,
    "address_3": null,
    "city": "Pittsburgh",
    "state_province": "Pennsylvania",
    "postal_code": "15206",
    "country": "United States",
    "longitude": -79.91162696,
    "latitude": 40.45891137,
    "phone": "4125372337",
    "website_url": "http://www.eastendbrewing.com",
    "state": "Pennsylvania",
    "street": "147 Julius St"
  },
  {
    "id": "c5659ccf-a0c9-42a8-9a1e-e5d99b73c9f0",
    "name": "East Fifth Brewing Company",
    "brewery_type": "planning",
    "address_1": null,
    "address_2": null,
    "address_3": null,
    "city": "Manasquan",
    "state_province": "New Jersey",
    "postal_code": "08736-1814",
    "country": "United States",
    "longitude": null,
    "latitude": null,
    "phone": null,
    "website_url": null,
    "state": "New Jersey",
    "street": null
  },
  {
    "id": "0ec36f0b-bba3-48d9-bd47-716177bcb056",
    "name": "East Forty Brewing",
    "brewery_type": "micro",
    "address_1": "1201 W Main St",
    "address_2": null,
    "address_3": null,
    "city": "Blue Springs",
    "state_province": "Missouri",
    "postal_code": "64015-3613",
    "country": "United States",
    "longitude": -94.279316,
    "latitude": 39.018709,
    "phone": "8169888217",
    "website_url": "http://www.eastfortybrewing.com",
    "state": "Missouri",
    "street": "1201 W Main St"
  },
  {
    "id": "3835d485-c8a1-4cc8-a04f-36e870dcbe44",
    "name": "East Nashville Beer Works",
    "brewery_type": "brewpub",
    "address_1": "320 E Trinity Ln",
    "address_2": null,
    "address_3": null,
    "city": "Nashville",
    "state_province": "Tennessee",
    "postal_code": "37207-4524",
    "country": "United States",
    "longitude": -86.76320383,
    "latitude": 36.20526205,
    "phone": "6158913108",
    "website_url": "http://www.eastnashbeerworks.com",
    "state": "Tennessee",
    "street": "320 E Trinity Ln"
  },
  {
    "id": "08ecfcf4-428f-4e1d-8dd5-3436d8e7c9b7",
    "name": "East Rock Brewing Company",
    "brewery_type": "planning",
    "address_1": null,
    "address_2": null,
    "address_3": null,
    "city": "New Haven",
    "state_province": "Connecticut",
    "postal_code": "06511-2625",
    "country": "United States",
    "longitude": null,
    "latitude": null,
    "phone": "2035303484",
    "website_url": "http://www.eastrockbeer.com",
    "state": "Connecticut",
    "street": null
  },
  {
    "id": "315b49b3-1996-4fa8-b249-2e917245fd72",
    "name": "East Troy Brewery",
    "brewery_type": "micro",
    "address_1": "2905 Main St",
    "address_2": null,
    "address_3": null,
    "city": "East Troy",
    "state_province": "Wisconsin",
    "postal_code": "53120-1245",
    "country": "United States",
    "longitude": -88.406150973257,
    "latitude": 42.784946854879,
    "phone": "2626422670",
    "website_url": "http://www.etbrew.com",
    "state": "Wisconsin",
    "street": "2905 Main St"
  },
  {
    "id": "ae17030a-3073-42f2-bdc2-ad4f468b3156",
    "name": "East West Brewing Co",
    "brewery_type": "brewpub",
    "address_1": "1400 Lake Dr SE",
    "address_2": null,
    "address_3": null,
    "city": "Grand Rapids",
    "state_province": "Michigan",
    "postal_code": "49506",
    "country": "United States",
    "longitude": -85.634947,
    "latitude": 42.957318,
    "phone": "6162885250",
    "website_url": "http://www.eastwestbrewingcompany.com",
    "state": "Michigan",
    "street": "1400 Lake Dr SE"
  },
  {
    "id": "cb3463ff-5e24-4676-9db3-3d37793593ac",
    "name": "Eastern Front Brewing Co",
    "brewery_type": "micro",
    "address_1": "425 Westphalin Rd",
    "address_2": null,
    "address_3": null,
    "city": "Mattituck",
    "state_province": "New York",
    "postal_code": "11952",
    "country": "United States",
    "longitude": null,
    "latitude": null,
    "phone": "6319051535",
    "website_url": "http://www.facebook.com/easternfrontbrewing/",
    "state": "New York",
    "street": "425 Westphalin Rd"
  },
  {
    "id": "9ef70c89-a7e9-4759-a71e-4adca64c543a",
    "name": "Eastern Market Brewing Company",
    "brewery_type": "micro",
    "address_1": "2515 Riopelle St",
    "address_2": null,
    "address_3": null,
    "city": "Detroit",
    "state_province": "Michigan",
    "postal_code": "48207-4526",
    "country": "United States",
    "longitude": -83.03876229,
    "latitude": 42.346625,
    "phone": null,
    "website_url": "http://www.easternmarket.beer",
    "state": "Michigan",
    "street": "2515 Riopelle St"
  },
  {
    "id": "75378a8b-95fc-4a6a-8c7f-b00e4df75d64",
    "name": "Eastern Shore Brewing",
    "brewery_type": "micro",
    "address_1": "605 S Talbot St",
    "address_2": null,
    "address_3": null,
    "city": "Saint Michaels",
    "state_province": "Maryland",
    "postal_code": "21663",
    "country": "United States",
    "longitude": -76.2219945,
    "latitude": 38.78113562,
    "phone": "4107458010",
    "website_url": "http://www.easternshorebrewing.com",
    "state": "Maryland",
    "street": "605 S Talbot St"
  },
  {
    "id": "d5ff39b2-d63d-433b-aa9a-f5259f256d68",
    "name": "Eastlake Craft Brewery",
    "brewery_type": "micro",
    "address_1": "920 E Lake St Ste 123",
    "address_2": null,
    "address_3": null,
    "city": "Minneapolis",
    "state_province": "Minnesota",
    "postal_code": "55407-4129",
    "country": "United States",
    "longitude": null,
    "latitude": null,
    "phone": "6122174668",
    "website_url": "http://www.eastlakemgm.com",
    "state": "Minnesota",
    "street": "920 E Lake St Ste 123"
  },
  {
    "id": "e3426d39-8838-4ead-aff4-8202f1797894",
    "name": "Eastwood Brewing Company",
    "brewery_type": "micro",
    "address_1": "108 Walter Dr",
    "address_2": null,
    "address_3": null,
    "city": "Syracuse",
    "state_province": "New York",
    "postal_code": "13206-2357",
    "country": "United States",
    "longitude": -76.0980832,
    "latitude": 43.0701121,
    "phone": null,
    "website_url": "http://www.facebook.com/eastwoodbrewingcompany",
    "state": "New York",
    "street": "108 Walter Dr"
  },
  {
    "id": "85c8ea1f-2db6-4ea3-9380-dcd26faa40a2",
    "name": "Eaton Pub & Grille Brewery / Charlotte Brewing Co",
    "brewery_type": "brewpub",
    "address_1": "214 S Cochran Ave",
    "address_2": null,
    "address_3": null,
    "city": "Charlotte",
    "state_province": "Michigan",
    "postal_code": "48813-1551",
    "country": "United States",
    "longitude": -84.83579,
    "latitude": 42.549391,
    "phone": "5175438882",
    "website_url": "http://www.eatonpub.com",
    "state": "Michigan",
    "street": "214 S Cochran Ave"
  },
  {
    "id": "8c2b0eff-6187-42b0-8b4e-f3a17f54f690",
    "name": "Eavesdrop Brewery",
    "brewery_type": "micro",
    "address_1": "7223 Centreville Rd Ste 115",
    "address_2": null,
    "address_3": null,
    "city": "Manassas",
    "state_province": "Virginia",
    "postal_code": "20111",
    "country": "United States",
    "longitude": -77.469,
    "latitude": 38.752531,
    "phone": "7034208955",
    "website_url": "http://www.eavesdropbrewery.com",
    "state": "Virginia",
    "street": "7223 Centreville Rd Ste 115"
  },
  {
    "id": "497485a3-1317-450d-894b-0c079b1668b6",
    "name": "EB Coffee and Pub",
    "brewery_type": "brewpub",
    "address_1": "8980 N Rodgers Ct SE",
    "address_2": null,
    "address_3": null,
    "city": "Caledonia",
    "state_province": "Michigan",
    "postal_code": "49316-8051",
    "country": "United States",
    "longitude": -85.50839333,
    "latitude": 42.80145682,
    "phone": "6168917700",
    "website_url": "http://www.ebcoffeepub.com",
    "state": "Michigan",
    "street": "8980 N Rodgers Ct SE"
  },
  {
    "id": "4545534c-40d6-41c5-85a5-b333d1bb1ae8",
    "name": "Ebullition Brew Works",
    "brewery_type": "brewpub",
    "address_1": "2628 Gateway Rd",
    "address_2": null,
    "address_3": null,
    "city": "Carlsbad",
    "state_province": "California",
    "postal_code": "92009",
    "country": "United States",
    "longitude": -117.2542497,
    "latitude": 33.12846769,
    "phone": "7608421046",
    "website_url": "http://Www.ebullitionbrew.com",
    "state": "California",
    "street": "2628 Gateway Rd"
  },
  {
    "id": "50af033e-f5bb-4d30-b3d5-60440e28ab50",
    "name": "Ebullition Brew Works",
    "brewery_type": "micro",
    "address_1": "2449 Cades Way Ste D",
    "address_2": null,
    "address_3": null,
    "city": "Vista",
    "state_province": "California",
    "postal_code": "92081",
    "country": "United States",
    "longitude": -117.2241021,
    "latitude": 33.15438658,
    "phone": "7608421046",
    "website_url": "http://Www.ebullitionbrew.com",
    "state": "California",
    "street": "2449 Cades Way Ste D"
  },
  {
    "id": "32a9af42-ac83-437c-8739-d2611177bf9e",
    "name": "Echo Brewing Cask and Barrel",
    "brewery_type": "brewpub",
    "address_1": "600 Briggs St",
    "address_2": null,
    "address_3": null,
    "city": "Erie",
    "state_province": "Colorado",
    "postal_code": "80516-0794",
    "country": "United States",
    "longitude": -105.0477679,
    "latitude": 40.05042825,
    "phone": "7203612332",
    "website_url": null,
    "state": "Colorado",
    "street": "600 Briggs St"
  },
  {
    "id": "4b5e0dae-9988-43d3-bdbc-4b0b1121f7ad",
    "name": "Echo Brewing Company",
    "brewery_type": "brewpub",
    "address_1": "5969 Iris Pkwy",
    "address_2": null,
    "address_3": null,
    "city": "Frederick",
    "state_province": "Colorado",
    "postal_code": "80530",
    "country": "United States",
    "longitude": -104.944202,
    "latitude": 40.111448,
    "phone": null,
    "website_url": null,
    "state": "Colorado",
    "street": "5969 Iris Pkwy"
  }
]