[
  {
    "id": "7769544b-1b3f-4d16-b0a6-3f77e45824a4",
    "name": "Hops Grillhouse and Brewery",
    "brewery_type": "contract",
    "address_1": "3625 Jefferson Davis Hwy",
    "address_2": null,
    "address_3": null,
    "city": "Alexandria",
    "state_province": "Virginia",
    "postal_code": "22305-3133",
    "country": "United States",
    "longitude": -77.0523751,
    "latitude": 38.8399578,
    "phone": "7038379107",
    "website_url": "http://www.hopsrestaurants.com",
    "state": "Virginia",
    "street": "3625 Jefferson Davis Hwy"
  },
  {
    "id": "efd73076-9808-46b8-8a58-c490fca726df",
    "name": "Hops, Bitters, And Mash",
    "brewery_type": "planning",
    "address_1": null,
    "address_2": null,
    "address_3": null,
    "city": "Allen Park",
    "state_province": "Michigan",
    "postal_code": "48101-2539",
    "country": "United States",
    "longitude": null,
    "latitude": null,
    "phone": null,
    "website_url": null,
    "state": "Michigan",
    "street": null
  },
  {
    "id": "6dfe19cd-23eb-43f3-a062-5e68bab19f50",
    "name": "HopSaint Brewing Company",
    "brewery_type": "brewpub",
    "address_1": "5160 W 190th St",
    "address_2": null,
    "address_3": null,
    "city": "Torrance",
    "state_province": "California",
    "postal_code": "90503-1005",
    "country": "United States",
    "longitude": -118.367733,
    "latitude": 33.8577324,
    "phone": "3102144611",
    "website_url": "http://www.hopsaint.com",
    "state": "California",
    "street": "5160 W 190th St"
  },
  {
    "id": "1e49519f-16fc-4641-8b9c-1c883cf03d12",
    "name": "HopScratch Farm & Brewery",
    "brewery_type": "planning",
    "address_1": null,
    "address_2": null,
    "address_3": null,
    "city": "Harwood",
    "state_province": "Maryland",
    "postal_code": "20776",
    "country": "United States",
    "longitude": null,
    "latitude": null,
    "phone": null,
    "website_url": null,
    "state": "Maryland",
    "street": null
  },
  {
    "id": "1d6422dd-e5b1-4b6a-99b0-d0e349e1b7d3",
    "name": "Hopshire Farm and Brewery",
    "brewery_type": "micro",
    "address_1": "1771 Dryden Rd",
    "address_2": null,
    "address_3": null,
    "city": "Freeville",
    "state_province": "New York",
    "postal_code": "13068-",
    "country": "United States",
    "longitude": null,
    "latitude": null,
    "phone": "6072791243",
    "website_url": "http://www.hopshire.com",
    "state": "New York",
    "street": "1771 Dryden Rd"
  },
  {
    "id": "3ed3c518-7c88-4322-b8c9-cb37474be6f3",
    "name": "Hopskeller Brewing Company",
    "brewery_type": "brewpub",
    "address_1": "116 E 3rd St",
    "address_2": null,
    "address_3": null,
    "city": "Waterloo",
    "state_province": "Illinois",
    "postal_code": "62298-1608",
    "country": "United States",
    "longitude": -90.14850267,
    "latitude": 38.33521743,
    "phone": "6189392337",
    "website_url": "http://www.hopskeller.com",
    "state": "Illinois",
    "street": "116 E 3rd St"
  },
  {
    "id": "19daae01-234c-471b-8541-5ec2ebda543f",
    "name": "Hopsters",
    "brewery_type": "brewpub",
    "address_1": "292 Centre St",
    "address_2": null,
    "address_3": null,
    "city": "Newton",
    "state_province": "Massachusetts",
    "postal_code": "02458-1618",
    "country": "United States",
    "longitude": -71.1852104,
    "latitude": 42.3560516,
    "phone": "6179160752",
    "website_url": "http://www.hopstersbrew.com",
    "state": "Massachusetts",
    "street": "292 Centre St"
  },
  {
    "id": "57d4ae82-efea-44e8-8871-743ddb115857",
    "name": "Hopstix",
    "brewery_type": "brewpub",
    "address_1": "3404 Pierce Dr NE",
    "address_2": null,
    "address_3": null,
    "city": "Chamblee",
    "state_province": "Georgia",
    "postal_code": "30341-2444",
    "country": "United States",
    "longitude": null,
    "latitude": null,
    "phone": "6788882306",
    "website_url": "http://www.hopstix.com",
    "state": "Georgia",
    "street": "3404 Pierce Dr NE"
  },
  {
    "id": "42ff0098-10cf-4c8a-af0c-ddacd0c59717",
    "name": "Hoptimystic Brewing",
    "brewery_type": "micro",
    "address_1": "31 River Rd",
    "address_2": null,
    "address_3": null,
    "city": "Sunapee",
    "state_province": "New Hampshire",
    "postal_code": "03782",
    "country": "United States",
    "longitude": null,
    "latitude": null,
    "phone": "6037630341",
    "website_url": null,
    "state": "New Hampshire",
    "street": "31 River Rd"
  },
  {
    "id": "5b49ceea-89f9-4f40-967a-d1379daf8f80",
    "name": "Hopvine Brewing Company",
    "brewery_type": "brewpub",
    "address_1": "4030 Fox Valley Center Dr",
    "address_2": null,
    "address_3": null,
    "city": "Aurora",
    "state_province": "Illinois",
    "postal_code": "60504-4109",
    "country": "United States",
    "longitude": -88.21364002,
    "latitude": 41.76082292,
    "phone": "6302296030",
    "website_url": "http://www.hopvinebrewingcompany.com",
    "state": "Illinois",
    "street": "4030 Fox Valley Center Dr"
  },
  {
    "id": "bc8fdd30-e644-4b4a-a05b-41857bc8e0ad",
    "name": "Hopworks Urban Brewery",
    "brewery_type": "micro",
    "address_1": "2944 SE Powell Blvd",
    "address_2": null,
    "address_3": null,
    "city": "Portland",
    "state_province": "Oregon",
    "postal_code": "97202-2054",
    "country": "United States",
    "longitude": -122.634827,
    "latitude": 45.4968753,
    "phone": "5032324677",
    "website_url": "http://www.hopworksbeer.com",
    "state": "Oregon",
    "street": "2944 SE Powell Blvd"
  },
  {
    "id": "a8dc325e-aa85-4eea-bde2-a7a9e89b7bcc",
    "name": "Hopworks Urban Brewery - Vancouver",
    "brewery_type": "micro",
    "address_1": "17707 SE Mill Plain Blvd",
    "address_2": null,
    "address_3": null,
    "city": "Vancouver",
    "state_province": "Washington",
    "postal_code": "98683-7578",
    "country": "United States",
    "longitude": -122.5483264,
    "latitude": 45.6202601,
    "phone": "5032324677",
    "website_url": "https://www.hopworksbeer.com",
    "state": "Washington",
    "street": "17707 SE Mill Plain Blvd"
  },
  {
    "id": "bdaa5724-aa0a-470f-9a3b-ad21d434f43d",
    "name": "Hoquiam Brewing Company",
    "brewery_type": "micro",
    "address_1": "526 8th St",
    "address_2": null,
    "address_3": null,
    "city": "Hoquiam",
    "state_province": "Washington",
    "postal_code": "98550-3521",
    "country": "United States",
    "longitude": -123.8865612,
    "latitude": 46.97536712,
    "phone": "3606378252",
    "website_url": "http://www.hoquiambrews.com",
    "state": "Washington",
    "street": "526 8th St"
  },
  {
    "id": "0938598a-808e-4d37-98ef-d38539e19a7f",
    "name": "Hornbug Brewing Company",
    "brewery_type": "micro",
    "address_1": "165 Peterborough Road",
    "address_2": null,
    "address_3": null,
    "city": "Hancock",
    "state_province": "New Hampshire",
    "postal_code": "03449-6011",
    "country": "United States",
    "longitude": -71.9689697,
    "latitude": 42.94829817,
    "phone": "7814024308",
    "website_url": "http://www.hornburgbrewingcompany.com/",
    "state": "New Hampshire",
    "street": "165 Peterborough Road"
  },
  {
    "id": "90584a88-c47c-40e5-bbac-60dccbb39cc5",
    "name": "Horny Toad Brewing Co, LLC",
    "brewery_type": "micro",
    "address_1": "313 Edward St",
    "address_2": null,
    "address_3": null,
    "city": "Rowena",
    "state_province": "Texas",
    "postal_code": "76875-3609",
    "country": "United States",
    "longitude": -100.0465467,
    "latitude": 31.64750518,
    "phone": "3252121177",
    "website_url": "http://www.hornytoadbrewery.com",
    "state": "Texas",
    "street": "313 Edward St"
  },
  {
    "id": "b302bba4-5c90-4ab5-a9ae-f935ccd19059",
    "name": "Horse & Dragon Brewing Company",
    "brewery_type": "micro",
    "address_1": "124 Racquette Dr",
    "address_2": null,
    "address_3": null,
    "city": "Fort Collins",
    "state_province": "Colorado",
    "postal_code": "80524-2757",
    "country": "United States",
    "longitude": null,
    "latitude": null,
    "phone": "9706318038",
    "website_url": "http://www.horseanddragonbrewing.com",
    "state": "Colorado",
    "street": "124 Racquette Dr"
  },
  {
    "id": "4afaf336-af79-49e2-b2d1-69f5cb920f28",
    "name": "Horse Heaven Hills Brewery",
    "brewery_type": "micro",
    "address_1": "1118 Meade Ave",
    "address_2": null,
    "address_3": null,
    "city": "Prosser",
    "state_province": "Washington",
    "postal_code": "99350",
    "country": "United States",
    "longitude": -119.7706331,
    "latitude": 46.20447447,
    "phone": "5097816400",
    "website_url": "http://www.horseheavenhillsbrewery.com",
    "state": "Washington",
    "street": "1118 Meade Ave"
  },
  {
    "id": "abc32f81-11fb-43ca-8f37-04b62a3e0d5c",
    "name": "Horse Thief Hollow Brewery",
    "brewery_type": "brewpub",
    "address_1": "10426 S Western Ave",
    "address_2": null,
    "address_3": null,
    "city": "Chicago",
    "state_province": "Illinois",
    "postal_code": "60643-2508",
    "country": "United States",
    "longitude": -87.68195116,
    "latitude": 41.70388555,
    "phone": "7737792739",
    "website_url": "http://www.horsethiefbrewing.com",
    "state": "Illinois",
    "street": "10426 S Western Ave"
  },
  {
    "id": "e62e0505-9735-4210-97bf-1ac0ca3b15e6",
    "name": "Horsefly Brewing Co",
    "brewery_type": "brewpub",
    "address_1": "846 E Main St",
    "address_2": null,
    "address_3": null,
    "city": "Montrose",
    "state_province": "Colorado",
    "postal_code": "81401-3938",
    "country": "United States",
    "longitude": -107.871306,
    "latitude": 38.48272365,
    "phone": "9702496889",
    "website_url": "http://www.horseflybrewing.com",
    "state": "Colorado",
    "street": "846 E Main St"
  },
  {
    "id": "23a84148-cfda-4d2e-be3f-d2148c1a0f37",
    "name": "Horus Aged Ales",
    "brewery_type": "closed",
    "address_1": "4040 Calle Platino Ste 120",
    "address_2": null,
    "address_3": null,
    "city": "Oceanside",
    "state_province": "California",
    "postal_code": "92056-5859",
    "country": "United States",
    "longitude": -117.295494,
    "latitude": 33.20716989,
    "phone": "3103475685",
    "website_url": "http://www.horusbeer.com",
    "state": "California",
    "street": "4040 Calle Platino Ste 120"
  },
  {
    "id": "2ffeece0-e295-46d9-8f2f-9f898e41d80a",
    "name": "Hoster Brewing Co",
    "brewery_type": "contract",
    "address_1": "760 Harmon Ave",
    "address_2": null,
    "address_3": null,
    "city": "Columbus",
    "state_province": "Ohio",
    "postal_code": "43223",
    "country": "United States",
    "longitude": -83.01615373,
    "latitude": 39.94440869,
    "phone": "6142213606",
    "website_url": "http://www.hosterbeer.com",
    "state": "Ohio",
    "street": "760 Harmon Ave"
  },
  {
    "id": "9ce8a190-c62a-40bd-826d-858a51c4f700",
    "name": "Hourglass Brewing",
    "brewery_type": "micro",
    "address_1": "480 S Ronald Reagan Blvd Ste 1020",
    "address_2": null,
    "address_3": null,
    "city": "Longwood",
    "state_province": "Florida",
    "postal_code": "32750-5498",
    "country": "United States",
    "longitude": -81.3450528,
    "latitude": 28.70366681,
    "phone": "4072620056",
    "website_url": "http://www.HourglassBrewing.com",
    "state": "Florida",
    "street": "480 S Ronald Reagan Blvd Ste 1020"
  },
  {
    "id": "fb1c69b9-977d-4797-919c-e0358fb6bde4",
    "name": "Housatonic River Brewing",
    "brewery_type": "planning",
    "address_1": null,
    "address_2": null,
    "address_3": null,
    "city": "New Milford",
    "state_province": "Connecticut",
    "postal_code": "06776-3404",
    "country": "United States",
    "longitude": null,
    "latitude": null,
    "phone": "8609460266",
    "website_url": "http://www.housatonicriverbrewing.com",
    "state": "Connecticut",
    "street": null
  },
  {
    "id": "bfa37b0d-5331-41c2-979b-ac68cfb07eeb",
    "name": "House 6 Brewing",
    "brewery_type": "planning",
    "address_1": null,
    "address_2": null,
    "address_3": null,
    "city": "Ashburn",
    "state_province": "Virginia",
    "postal_code": "20147",
    "country": "United States",
    "longitude": null,
    "latitude": null,
    "phone": "5855205710",
    "website_url": "http://www.house6brewing.com",
    "state": "Virginia",
    "street": null
  },
  {
    "id": "250e1138-e7eb-4879-bd47-edc7b2d943e1",
    "name": "House Beer",
    "brewery_type": "proprietor",
    "address_1": "219 Rose Ave",
    "address_2": null,
    "address_3": null,
    "city": "Venice",
    "state_province": "California",
    "postal_code": "90291-2567",
    "country": "United States",
    "longitude": -118.4775319,
    "latitude": 33.99631992,
    "phone": "3103103331",
    "website_url": "http://www.housebeer.us",
    "state": "California",
    "street": "219 Rose Ave"
  },
  {
    "id": "2482f3b6-eb54-4b4b-af1a-7f5bf6cc188d",
    "name": "House Cat Brewing Company",
    "brewery_type": "planning",
    "address_1": null,
    "address_2": null,
    "address_3": null,
    "city": "Frederick",
    "state_province": "Maryland",
    "postal_code": "21704",
    "country": "United States",
    "longitude": null,
    "latitude": null,
    "phone": "3016050733",
    "website_url": null,
    "state": "Maryland",
    "street": null
  },
  {
    "id": "84534d53-9739-4eea-bbe6-ff80ca5d0d9f",
    "name": "House of Brews",
    "brewery_type": "micro",
    "address_1": "4539 Helgesen Dr",
    "address_2": null,
    "address_3": null,
    "city": "Madison",
    "state_province": "Wisconsin",
    "postal_code": "53718-6747",
    "country": "United States",
    "longitude": -89.3053312,
    "latitude": 43.0662949,
    "phone": "6083477243",
    "website_url": null,
    "state": "Wisconsin",
    "street": "4539 Helgesen Dr"
  },
  {
    "id": "a9dfce2a-48e2-4315-8281-07d11d8b5878",
    "name": "House Of Pendragon Brewing Co",
    "brewery_type": "micro",
    "address_1": "1849 Industrial Way Ste 103",
    "address_2": null,
    "address_3": null,
    "city": "Sanger",
    "state_province": "California",
    "postal_code": "93657-8727",
    "country": "United States",
    "longitude": -119.5496094,
    "latitude": 36.68923442,
    "phone": "5593467786",
    "website_url": "http://www.hopbeer.com",
    "state": "California",
    "street": "1849 Industrial Way Ste 103"
  },
  {
    "id": "6efacac4-73ee-4c49-8ef1-bf8cd03fb072",
    "name": "Howell's MainStreet Winery, Brewery & Pizzeria",
    "brewery_type": "brewpub",
    "address_1": "201 W Grand River Ave",
    "address_2": null,
    "address_3": null,
    "city": "Howell",
    "state_province": "Michigan",
    "postal_code": "48843-2238",
    "country": "United States",
    "longitude": -83.93080102,
    "latitude": 42.60768396,
    "phone": "5175459463",
    "website_url": "http://www.howellsmainstreetwinery.com",
    "state": "Michigan",
    "street": "201 W Grand River Ave"
  },
  {
    "id": "24a24d6f-2fcc-46a3-85c6-96f2ef234307",
    "name": "HRG Management, LLC",
    "brewery_type": "planning",
    "address_1": null,
    "address_2": null,
    "address_3": null,
    "city": "Hartford",
    "state_province": "Connecticut",
    "postal_code": "06109",
    "country": "United States",
    "longitude": null,
    "latitude": null,
    "phone": null,
    "website_url": null,
    "state": "Connecticut",
    "street": null
  },
  {
    "id": "0d053ee5-78ec-4087-b82b-a2fa796144b4",
    "name": "Hubbleton Brewing",
    "brewery_type": "micro",
    "address_1": "W10445 Hubbleton Rd",
    "address_2": null,
    "address_3": null,
    "city": "Waterloo",
    "state_province": "Wisconsin",
    "postal_code": "53594",
    "country": "United States",
    "longitude": null,
    "latitude": null,
    "phone": "9202537141",
    "website_url": null,
    "state": "Wisconsin",
    "street": "W10445 Hubbleton Rd"
  },
  {
    "id": "86844328-44bd-4af1-92e8-dc417c3c63f7",
    "name": "Hubrew Beer",
    "brewery_type": "micro",
    "address_1": "3463 State Hwy FF",
    "address_2": null,
    "address_3": null,
    "city": "Jackson",
    "state_province": "Missouri",
    "postal_code": "63755",
    "country": "United States",
    "longitude": -89.639478,
    "latitude": 37.448863,
    "phone": "5732044164",
    "website_url": null,
    "state": "Missouri",
    "street": "3463 State Hwy FF"
  },
  {
    "id": "6d718d37-3a1f-4eff-91da-6857bbe5756b",
    "name": "Hubs",
    "brewery_type": "bar",
    "address_1": "889 East Coast Road",
    "address_2": null,
    "address_3": null,
    "city": "Singapore",
    "state_province": "Singapore",
    "postal_code": "459092",
    "country": "Singapore",
    "longitude": 1.312782811522,
    "latitude": 103.9239284,
    "phone": "+65 6908 8037",
    "website_url": "https://hubs.sg/",
    "state": "Singapore",
    "street": "889 East Coast Road"
  },
  {
    "id": "88a92055-2ca5-40d7-8f6c-d6f7b28b6fa7",
    "name": "Huckleberry Brewing Company",
    "brewery_type": "micro",
    "address_1": "4724 Sterkx Rd",
    "address_2": null,
    "address_3": null,
    "city": "Alexandria",
    "state_province": "Louisiana",
    "postal_code": "71301",
    "country": "United States",
    "longitude": -92.45332257,
    "latitude": 31.26477666,
    "phone": "3187046833",
    "website_url": "http://www.huckleberrybrewingco.com",
    "state": "Louisiana",
    "street": "4724 Sterkx Rd"
  },
  {
    "id": "8562e8b8-0126-41f1-b00f-4fb3c4b90ef9",
    "name": "Hudson Ale Works",
    "brewery_type": "brewpub",
    "address_1": "17 Milton Ave",
    "address_2": null,
    "address_3": null,
    "city": "Highland",
    "state_province": "New York",
    "postal_code": "12528-1409",
    "country": "United States",
    "longitude": -73.96390393,
    "latitude": 41.717539,
    "phone": "8453842531",
    "website_url": "http://www.hudsonaleworks.com",
    "state": "New York",
    "street": "17 Milton Ave"
  },
  {
    "id": "4600fee8-4518-45cb-b4a7-89979b742829",
    "name": "Hudson Valley Brewery",
    "brewery_type": "micro",
    "address_1": "7 E Main St",
    "address_2": null,
    "address_3": null,
    "city": "Beacon",
    "state_province": "New York",
    "postal_code": "12508-3301",
    "country": "United States",
    "longitude": -73.9630491,
    "latitude": 41.5016501,
    "phone": "8452189156",
    "website_url": "http://www.hudsonvalleybrewery.com",
    "state": "New York",
    "street": "7 E Main St"
  },
  {
    "id": "ac178aef-9c40-4f64-b54f-1ebeb09dfb26",
    "name": "Huebert Brewing Co.",
    "brewery_type": "closed",
    "address_1": "421 SW 26th St",
    "address_2": null,
    "address_3": null,
    "city": "Oklahoma City",
    "state_province": "Oklahoma",
    "postal_code": "73109-6712",
    "country": "United States",
    "longitude": -97.52025365,
    "latitude": 35.4384292,
    "phone": "4056346528",
    "website_url": null,
    "state": "Oklahoma",
    "street": "421 SW 26th St"
  },
  {
    "id": "3d084c65-4169-47ed-99e4-eda7aab979e8",
    "name": "Huff Brewing Company, LLC",
    "brewery_type": "micro",
    "address_1": "9805 Koehn Rd",
    "address_2": null,
    "address_3": null,
    "city": "Bellville",
    "state_province": "Texas",
    "postal_code": "77418-7327",
    "country": "United States",
    "longitude": null,
    "latitude": null,
    "phone": null,
    "website_url": "http://www.huffbrewing.com",
    "state": "Texas",
    "street": "9805 Koehn Rd"
  },
  {
    "id": "5da052ee-3285-4b86-be50-4cedfb00ffb5",
    "name": "Hugger Mugger Brewing Company",
    "brewery_type": "micro",
    "address_1": "229 Wicker St",
    "address_2": null,
    "address_3": null,
    "city": "Sanford",
    "state_province": "North Carolina",
    "postal_code": "27330",
    "country": "United States",
    "longitude": -79.17896314,
    "latitude": 35.47890286,
    "phone": null,
    "website_url": "http://www.huggermuggerbrewing.com",
    "state": "North Carolina",
    "street": "229 Wicker St"
  },
  {
    "id": "b25a0380-2356-4529-b04e-d844eb73858f",
    "name": "Hullabaloo Diner",
    "brewery_type": "brewpub",
    "address_1": "15045 FM 2154 Rd",
    "address_2": null,
    "address_3": null,
    "city": "College Station",
    "state_province": "Texas",
    "postal_code": "77845-3345",
    "country": "United States",
    "longitude": null,
    "latitude": null,
    "phone": "9796903002",
    "website_url": null,
    "state": "Texas",
    "street": "15045 FM 2154 Rd"
  },
  {
    "id": "4aa4d89c-fb2a-403f-94a8-9c82d5515b71",
    "name": "Human Village Brewing Co.",
    "brewery_type": "micro",
    "address_1": "148 S Broadway",
    "address_2": null,
    "address_3": null,
    "city": "Pitman",
    "state_province": "New Jersey",
    "postal_code": "08071-2232",
    "country": "United States",
    "longitude": -75.1291588,
    "latitude": 39.7304838,
    "phone": "8565560639",
    "website_url": "http://www.humanvillagebrewingco.com",
    "state": "New Jersey",
    "street": "148 S Broadway"
  },
  {
    "id": "6e89294b-68f9-4af9-a5e8-f729a7adbc6e",
    "name": "Humble Abode Brewery",
    "brewery_type": "micro",
    "address_1": "1620 E Houston Ave Ste 800",
    "address_2": null,
    "address_3": null,
    "city": "Spokane",
    "state_province": "Washington",
    "postal_code": "99217",
    "country": "United States",
    "longitude": -117.3850304,
    "latitude": 47.71699977,
    "phone": "5093815055",
    "website_url": "https://humbleabodebrewing.square.site",
    "state": "Washington",
    "street": "1620 E Houston Ave Ste 800"
  },
  {
    "id": "f55eff77-f0cd-47bf-8797-5b2616143de0",
    "name": "Humble Farmer Brewing Co.",
    "brewery_type": "brewpub",
    "address_1": "116 S Imperial Ave Ste C",
    "address_2": null,
    "address_3": null,
    "city": "Imperial",
    "state_province": "California",
    "postal_code": "92251-1666",
    "country": "United States",
    "longitude": -115.376274,
    "latitude": 32.80994985,
    "phone": "7605450037",
    "website_url": null,
    "state": "California",
    "street": "116 S Imperial Ave Ste C"
  },
  {
    "id": "a10547aa-605d-44ae-be4e-7c55e7268b03",
    "name": "Humble Farmer Brewing Co., Inc.",
    "brewery_type": "micro",
    "address_1": "438 Walnut Ave",
    "address_2": null,
    "address_3": null,
    "city": "Holtville",
    "state_province": "California",
    "postal_code": "92250-1343",
    "country": "United States",
    "longitude": -115.376335,
    "latitude": 32.8093331,
    "phone": "7603567066",
    "website_url": "http://www.humblefarmerbrewing.com",
    "state": "California",
    "street": "438 Walnut Ave"
  },
  {
    "id": "21c8faee-c122-4f6f-9bcb-3f5374bead5a",
    "name": "Humble Sea Brewing Co",
    "brewery_type": "brewpub",
    "address_1": "820 Swift St",
    "address_2": null,
    "address_3": null,
    "city": "Santa Cruz",
    "state_province": "California",
    "postal_code": "95060-5866",
    "country": "United States",
    "longitude": -122.0490197,
    "latitude": 36.9595996,
    "phone": "8314316189",
    "website_url": "http://www.humblesea.com",
    "state": "California",
    "street": "820 Swift St"
  },
  {
    "id": "3755c966-863d-4e8c-bd5c-04200b609899",
    "name": "Humboldt Regeneration",
    "brewery_type": "micro",
    "address_1": "2320 Central Ave Ste F",
    "address_2": null,
    "address_3": null,
    "city": "McKinleyville",
    "state_province": "California",
    "postal_code": "95519-3682",
    "country": "United States",
    "longitude": -124.1018943,
    "latitude": 40.94775864,
    "phone": "7077388225",
    "website_url": "http://www.humboldtregeneration.com",
    "state": "California",
    "street": "2320 Central Ave Ste F"
  },
  {
    "id": "784d9af0-defa-4322-8121-cd8fe6ae7e19",
    "name": "Humboldt Springs Brewing Co",
    "brewery_type": "planning",
    "address_1": null,
    "address_2": null,
    "address_3": null,
    "city": "Eureka",
    "state_province": "California",
    "postal_code": "95501",
    "country": "United States",
    "longitude": -124.1636729,
    "latitude": 40.8020712,
    "phone": "7074993050",
    "website_url": null,
    "state": "California",
    "street": null
  },
  {
    "id": "0bfe25c6-fedf-4c8d-bb37-b6c37be4b667",
    "name": "Humperdinks - Arlington",
    "brewery_type": "brewpub",
    "address_1": "700 Six Flags Dr",
    "address_2": null,
    "address_3": null,
    "city": "Arlington",
    "state_province": "Texas",
    "postal_code": "76011-6327",
    "country": "United States",
    "longitude": -97.0769526,
    "latitude": 32.7497637,
    "phone": "8176408553",
    "website_url": "http://www.humperdinks.com",
    "state": "Texas",
    "street": "700 Six Flags Dr"
  },
  {
    "id": "f9e4a98f-a333-4f66-826a-6af127c1fdb7",
    "name": "Humperdinks - Dallas (Greenville)",
    "brewery_type": "brewpub",
    "address_1": "6050 Greenville Ave",
    "address_2": null,
    "address_3": null,
    "city": "Dallas",
    "state_province": "Texas",
    "postal_code": "75206-1909",
    "country": "United States",
    "longitude": -96.76798455,
    "latitude": 32.8586789,
    "phone": "2143681203",
    "website_url": "http://www.humperdinks.com",
    "state": "Texas",
    "street": "6050 Greenville Ave"
  },
  {
    "id": "247250ee-18e2-4d05-b522-cd78444e34c9",
    "name": "Humperdinks Restaurant",
    "brewery_type": "brewpub",
    "address_1": "2208 W Northwest Hwy",
    "address_2": null,
    "address_3": null,
    "city": "Dallas",
    "state_province": "Texas",
    "postal_code": "75220-4305",
    "country": "United States",
    "longitude": -96.89898835,
    "latitude": 32.8637821,
    "phone": "2143584159",
    "website_url": "http://www.humperdinks.com",
    "state": "Texas",
    "street": "2208 W Northwest Hwy"
  }
]