[
  {
    "id": "482a39c9-6188-4bc8-94e7-818dfda73120",
    "name": "Lilly Pad Hopyard Brewery",
    "brewery_type": "brewpub",
    "address_1": "920 Ridge Rd",
    "address_2": null,
    "address_3": null,
    "city": "Lancing",
    "state_province": "Tennessee",
    "postal_code": "37770-1830",
    "country": "United States",
    "longitude": -84.690323,
    "latitude": 36.129889,
    "phone": "8656170984",
    "website_url": "http://lillypadhopyardbrewery.com",
    "state": "Tennessee",
    "street": "920 Ridge Rd"
  },
  {
    "id": "346bdeda-331c-44b7-b7f5-d8b22eda1dd2",
    "name": "Lilys Seafood Restaurant and Brewery",
    "brewery_type": "brewpub",
    "address_1": "410 S Washington Ave",
    "address_2": null,
    "address_3": null,
    "city": "Royal Oak",
    "state_province": "Michigan",
    "postal_code": "48067-3824",
    "country": "United States",
    "longitude": -83.14668688,
    "latitude": 42.487039,
    "phone": "2485915459",
    "website_url": null,
    "state": "Michigan",
    "street": "410 S Washington Ave"
  },
  {
    "id": "bad0e931-ed7c-4c5f-937b-6e53a705d16d",
    "name": "Limestone Beer Co",
    "brewery_type": "brewpub",
    "address_1": "707 N Waco Ave Ste 105",
    "address_2": null,
    "address_3": null,
    "city": "Wichita",
    "state_province": "Kansas",
    "postal_code": "67203-3944",
    "country": "United States",
    "longitude": null,
    "latitude": null,
    "phone": "3167296200",
    "website_url": "http://www.limestonebeerco.com",
    "state": "Kansas",
    "street": "707 N Waco Ave Ste 105"
  },
  {
    "id": "e9d3ac3a-772d-4550-bfc2-fe7db5ef7a8d",
    "name": "Limestone Brewers",
    "brewery_type": "micro",
    "address_1": "518 Main St",
    "address_2": null,
    "address_3": null,
    "city": "Osage",
    "state_province": "Iowa",
    "postal_code": "50461",
    "country": "United States",
    "longitude": -92.813673,
    "latitude": 43.2839156,
    "phone": "6418323100",
    "website_url": "http://www.limestonebrewers.com",
    "state": "Iowa",
    "street": "518 Main St"
  },
  {
    "id": "a1488112-9955-4caa-ba96-70c984ffbeb3",
    "name": "Limestone Creek Brewing Company",
    "brewery_type": "planning",
    "address_1": null,
    "address_2": null,
    "address_3": null,
    "city": "Manlius",
    "state_province": "New York",
    "postal_code": "13104",
    "country": "United States",
    "longitude": null,
    "latitude": null,
    "phone": null,
    "website_url": null,
    "state": "New York",
    "street": null
  },
  {
    "id": "392b01d7-c957-4c47-ae57-24e179a809b7",
    "name": "Limitless Brewing",
    "brewery_type": "planning",
    "address_1": null,
    "address_2": null,
    "address_3": null,
    "city": "Lenexa",
    "state_province": "Kansas",
    "postal_code": "66215-1260",
    "country": "United States",
    "longitude": null,
    "latitude": null,
    "phone": null,
    "website_url": "http://www.limitlessbrewing.com",
    "state": "Kansas",
    "street": null
  },
  {
    "id": "f467f19b-7b0e-4c26-8fce-ccd561324c0e",
    "name": "Lincoln and South Brewing Co.",
    "brewery_type": "planning",
    "address_1": null,
    "address_2": null,
    "address_3": null,
    "city": "Hilton Head Island",
    "state_province": "South Carolina",
    "postal_code": "29928",
    "country": "United States",
    "longitude": null,
    "latitude": null,
    "phone": "8434222847",
    "website_url": "http://www.lincolnandsouth.com",
    "state": "South Carolina",
    "street": null
  },
  {
    "id": "25d09c9b-2aad-4f30-94ca-8d84ffddd93b",
    "name": "Lincoln Avenue Brewery",
    "brewery_type": "planning",
    "address_1": null,
    "address_2": null,
    "address_3": null,
    "city": "Pittsburgh",
    "state_province": "Pennsylvania",
    "postal_code": "15202",
    "country": "United States",
    "longitude": null,
    "latitude": null,
    "phone": "4124274078",
    "website_url": null,
    "state": "Pennsylvania",
    "street": null
  },
  {
    "id": "fdc0442a-c79a-4a94-b84d-f9794f1f67d9",
    "name": "Lincoln Beer Company",
    "brewery_type": "micro",
    "address_1": "3083 N Lima St",
    "address_2": null,
    "address_3": null,
    "city": "Burbank",
    "state_province": "California",
    "postal_code": "91504-2013",
    "country": "United States",
    "longitude": -118.3466206,
    "latitude": 34.20605273,
    "phone": "8186874206",
    "website_url": "http://www.lincolnbeercompany.com",
    "state": "California",
    "street": "3083 N Lima St"
  },
  {
    "id": "a789a199-43c9-4863-91c0-02c51550397d",
    "name": "Lincoln Hill Farm",
    "brewery_type": "planning",
    "address_1": null,
    "address_2": null,
    "address_3": null,
    "city": "Canandaigua",
    "state_province": "New York",
    "postal_code": "14424-8826",
    "country": "United States",
    "longitude": null,
    "latitude": null,
    "phone": "5857529466",
    "website_url": "http://www.fingerlakingood.farm",
    "state": "New York",
    "street": null
  },
  {
    "id": "5b818cb4-0d49-49b0-8ae3-ec76db9825db",
    "name": "Lincoln's Beard Brewing Co.",
    "brewery_type": "micro",
    "address_1": "7360 SW 41st St",
    "address_2": null,
    "address_3": null,
    "city": "Miami",
    "state_province": "Florida",
    "postal_code": "33155-4504",
    "country": "United States",
    "longitude": -80.3143531,
    "latitude": 25.732096,
    "phone": "3059127390",
    "website_url": "http://lincolnsbeardbrewing.com/",
    "state": "Florida",
    "street": "7360 SW 41st St"
  },
  {
    "id": "cc7202c8-310e-4f38-962f-4eeff8179b56",
    "name": "Lindgren Craft Brewery",
    "brewery_type": "planning",
    "address_1": null,
    "address_2": null,
    "address_3": null,
    "city": "Duncannon",
    "state_province": "Pennsylvania",
    "postal_code": "17020",
    "country": "United States",
    "longitude": null,
    "latitude": null,
    "phone": "7175147884",
    "website_url": null,
    "state": "Pennsylvania",
    "street": null
  },
  {
    "id": "b253fcd3-e60c-4d50-8370-3321ebeed059",
    "name": "Line Creek Brewing",
    "brewery_type": "micro",
    "address_1": "150 Huddleston Rd Ste 300",
    "address_2": null,
    "address_3": null,
    "city": "Peachtree City",
    "state_province": "Georgia",
    "postal_code": "30269",
    "country": "United States",
    "longitude": null,
    "latitude": null,
    "phone": null,
    "website_url": "http://www.linecreekbrewing.com",
    "state": "Georgia",
    "street": "150 Huddleston Rd Ste 300"
  },
  {
    "id": "ab06cfba-c43a-48c7-ae62-70efe3163e74",
    "name": "Lineage Brewing",
    "brewery_type": "brewpub",
    "address_1": "2971 N High St",
    "address_2": null,
    "address_3": null,
    "city": "Columbus",
    "state_province": "Ohio",
    "postal_code": "43202",
    "country": "United States",
    "longitude": -83.01413155,
    "latitude": 40.0225652,
    "phone": "6144613622",
    "website_url": "http://www.lineagebrew.com",
    "state": "Ohio",
    "street": "2971 N High St"
  },
  {
    "id": "481d3558-d8d9-4ccf-8963-9de8f588060a",
    "name": "Lineman Brewing",
    "brewery_type": "micro",
    "address_1": "Unit 16/17",
    "address_2": "Block 613 Greenogue Industrial Estate",
    "address_3": null,
    "city": "Rathcoole",
    "state_province": "Dublin",
    "postal_code": "D24 H567",
    "country": "Ireland",
    "longitude": -6.4653408,
    "latitude": 53.2988667,
    "phone": "+353 01 401 6486",
    "website_url": "https://lineman.ie/",
    "state": "Dublin",
    "street": "Unit 16/17"
  },
  {
    "id": "0623e420-0d84-46f5-a662-9937ed33799b",
    "name": "LineSider Brewing",
    "brewery_type": "micro",
    "address_1": "1485 S County Trl",
    "address_2": null,
    "address_3": null,
    "city": "East Greenwich",
    "state_province": "Rhode Island",
    "postal_code": "02818",
    "country": "United States",
    "longitude": -71.4977115,
    "latitude": 41.6562569,
    "phone": "4013987700",
    "website_url": "https://linesiderbrewing.com",
    "state": "Rhode Island",
    "street": "1485 S County Trl"
  },
  {
    "id": "5620f950-f9dc-4c70-84fc-046e4353a1bb",
    "name": "Lineup Brewing LLC",
    "brewery_type": "micro",
    "address_1": "33 35th St Unit 6A",
    "address_2": null,
    "address_3": null,
    "city": "Brooklyn",
    "state_province": "New York",
    "postal_code": "11232-2210",
    "country": "United States",
    "longitude": null,
    "latitude": null,
    "phone": "7204222053",
    "website_url": "http://www.lineupbrewing.com",
    "state": "New York",
    "street": "33 35th St Unit 6A"
  },
  {
    "id": "e58c2377-08e3-44e0-828c-1fb5ac0535c0",
    "name": "Links Brewing Company",
    "brewery_type": "planning",
    "address_1": null,
    "address_2": null,
    "address_3": null,
    "city": "Pittsburgh",
    "state_province": "Pennsylvania",
    "postal_code": "15212",
    "country": "United States",
    "longitude": null,
    "latitude": null,
    "phone": "4123239774",
    "website_url": null,
    "state": "Pennsylvania",
    "street": null
  },
  {
    "id": "882855c2-3294-494e-be49-0c48f8263cca",
    "name": "Lion Brewery Co",
    "brewery_type": "brewpub",
    "address_1": "36 Club St",
    "address_2": null,
    "address_3": null,
    "city": "Singapore",
    "state_province": "Singapore",
    "postal_code": "069469",
    "country": "Singapore",
    "longitude": 103.8434419,
    "latitude": 1.2826554,
    "phone": "93665815",
    "website_url": "https://lionbreweryco.com/visit-our-brewpub/",
    "state": "Singapore",
    "street": "36 Club St"
  },
  {
    "id": "085c4b9a-9c7c-433e-ad8e-1160d002f847",
    "name": "Lion Brewery Inc, The",
    "brewery_type": "regional",
    "address_1": "700 N Pennsylvania Ave",
    "address_2": null,
    "address_3": null,
    "city": "Wilkes Barre",
    "state_province": "Pennsylvania",
    "postal_code": "18705-2451",
    "country": "United States",
    "longitude": -75.859363,
    "latitude": 41.254896,
    "phone": "5708238801",
    "website_url": "http://www.lionbrewery.com",
    "state": "Pennsylvania",
    "street": "700 N Pennsylvania Ave"
  },
  {
    "id": "71db85db-6fd8-4313-9e2b-eb32f84b31b4",
    "name": "Lion Bridge Brewing Company",
    "brewery_type": "brewpub",
    "address_1": "59 16th Ave SW",
    "address_2": null,
    "address_3": null,
    "city": "Cedar Rapids",
    "state_province": "Iowa",
    "postal_code": "52404-5948",
    "country": "United States",
    "longitude": -91.66095281,
    "latitude": 41.96478948,
    "phone": "3192004460",
    "website_url": "http://www.lionbridgebrewing.com",
    "state": "Iowa",
    "street": "59 16th Ave SW"
  },
  {
    "id": "0cd4decb-08fe-4b3d-b9dd-88d226d41c35",
    "name": "Lion's Tail Brewing",
    "brewery_type": "brewpub",
    "address_1": "116 S Commercial St",
    "address_2": null,
    "address_3": null,
    "city": "Neenah",
    "state_province": "Wisconsin",
    "postal_code": "54956-3020",
    "country": "United States",
    "longitude": -88.461836,
    "latitude": 44.18631303,
    "phone": "9202156443",
    "website_url": "http://www.lionstailbrewing.com",
    "state": "Wisconsin",
    "street": "116 S Commercial St"
  },
  {
    "id": "3fe6b30e-8b1b-4ca4-9d8a-9bba8640f0f2",
    "name": "Lionstone Brewing",
    "brewery_type": "brewpub",
    "address_1": "1225 S Oakwood Ave",
    "address_2": null,
    "address_3": null,
    "city": "Geneseo",
    "state_province": "Illinois",
    "postal_code": "61254-1990",
    "country": "United States",
    "longitude": -90.15752718,
    "latitude": 41.43550343,
    "phone": "3092696220",
    "website_url": "http://www.lionstonebrewing.com",
    "state": "Illinois",
    "street": "1225 S Oakwood Ave"
  },
  {
    "id": "d336c30e-a177-4953-8c13-057728e1ed00",
    "name": "Liquid Hero Brewery",
    "brewery_type": "micro",
    "address_1": "50 E North St",
    "address_2": null,
    "address_3": null,
    "city": "York",
    "state_province": "Pennsylvania",
    "postal_code": "17401-2421",
    "country": "United States",
    "longitude": -76.74375254,
    "latitude": 39.95854203,
    "phone": "7178149250",
    "website_url": "http://www.liquidhero.com",
    "state": "Pennsylvania",
    "street": "50 E North St"
  },
  {
    "id": "7908d63d-e957-4092-939f-32f9e8079113",
    "name": "Liquid Mechanics Brewing Company",
    "brewery_type": "micro",
    "address_1": "297 N US Highway 287",
    "address_2": null,
    "address_3": null,
    "city": "Lafayette",
    "state_province": "Colorado",
    "postal_code": "80026-8932",
    "country": "United States",
    "longitude": null,
    "latitude": null,
    "phone": "7205507813",
    "website_url": "http://www.liquidmechanicsbrewing.com",
    "state": "Colorado",
    "street": "297 N US Highway 287"
  },
  {
    "id": "db21126a-a56a-411d-a815-40fff4f2b54c",
    "name": "Liquid Riot Bottling Co.",
    "brewery_type": "brewpub",
    "address_1": "4 Canal Plz Ste 1",
    "address_2": null,
    "address_3": null,
    "city": "Portland",
    "state_province": "Maine",
    "postal_code": "04101-4594",
    "country": "United States",
    "longitude": null,
    "latitude": null,
    "phone": "2072218889",
    "website_url": "http://www.novareresbiercafe.com",
    "state": "Maine",
    "street": "4 Canal Plz Ste 1"
  },
  {
    "id": "44b04181-569a-47e6-85f5-f65666f8bef4",
    "name": "Liquid Shoes Brewing",
    "brewery_type": "micro",
    "address_1": "26 E Market St",
    "address_2": null,
    "address_3": null,
    "city": "Corning",
    "state_province": "New York",
    "postal_code": "14830",
    "country": "United States",
    "longitude": -77.05301289,
    "latitude": 42.14306479,
    "phone": "6074639726",
    "website_url": "http://www.liquidshoesbrewing.com",
    "state": "New York",
    "street": "26 E Market St"
  },
  {
    "id": "39bf60db-5e50-452e-984c-15fe45c440ab",
    "name": "Liquid State Brewing Company",
    "brewery_type": "micro",
    "address_1": "620 West Green Street",
    "address_2": null,
    "address_3": null,
    "city": "Ithaca",
    "state_province": "New York",
    "postal_code": "14850",
    "country": "United States",
    "longitude": -76.5077547,
    "latitude": 42.43844312,
    "phone": null,
    "website_url": "http://www.liquidstatebrewing.com",
    "state": "New York",
    "street": "620 West Green Street"
  },
  {
    "id": "05e0037f-657b-4daa-b8cc-1e38a57714c9",
    "name": "Liquid Therapy Brewery & Grill",
    "brewery_type": "brewpub",
    "address_1": "14 Court St",
    "address_2": null,
    "address_3": null,
    "city": "Nashua",
    "state_province": "New Hampshire",
    "postal_code": "03060",
    "country": "United States",
    "longitude": null,
    "latitude": null,
    "phone": "6037029391",
    "website_url": "https://liquidtherapynh.com/",
    "state": "New Hampshire",
    "street": "14 Court St"
  },
  {
    "id": "c567a823-0817-45f3-a8f2-32b46d10364f",
    "name": "Lister's Brewery Limited",
    "brewery_type": "micro",
    "address_1": "Michelgrove Lane",
    "address_2": null,
    "address_3": null,
    "city": "Worthing",
    "state_province": "West Sussex",
    "postal_code": "BN13 3XW",
    "country": "England",
    "longitude": -0.478855,
    "latitude": 50.872653,
    "phone": "1903885950",
    "website_url": "http://www.listersbrewery.com/",
    "state": "West Sussex",
    "street": "Michelgrove Lane"
  },
  {
    "id": "bd1649e5-21f8-4e5d-9ab4-e276abb822f6",
    "name": "Listermann Brewing Company",
    "brewery_type": "micro",
    "address_1": "1621 Dana Ave",
    "address_2": null,
    "address_3": null,
    "city": "Cincinnati",
    "state_province": "Ohio",
    "postal_code": "45207-1007",
    "country": "United States",
    "longitude": -84.4721318,
    "latitude": 39.1463506,
    "phone": "5137311130",
    "website_url": "http://Listermannbrewing.com",
    "state": "Ohio",
    "street": "1621 Dana Ave"
  },
  {
    "id": "e7b3d1f4-c290-4c1c-b430-16e3b9876122",
    "name": "Liter House",
    "brewery_type": "planning",
    "address_1": null,
    "address_2": null,
    "address_3": null,
    "city": "Indianapolis",
    "state_province": "Indiana",
    "postal_code": "46220",
    "country": "United States",
    "longitude": null,
    "latitude": null,
    "phone": "3176940580",
    "website_url": null,
    "state": "Indiana",
    "street": null
  },
  {
    "id": "7483a72d-fbd6-4b7c-91c7-4e4f8cab78f4",
    "name": "Lithermans Limited Brewery",
    "brewery_type": "micro",
    "address_1": "126 Hall St Ste B",
    "address_2": null,
    "address_3": null,
    "city": "Concord",
    "state_province": "New Hampshire",
    "postal_code": "03301-3447",
    "country": "United States",
    "longitude": null,
    "latitude": null,
    "phone": "6038189102",
    "website_url": "http://www.lithermans.beer",
    "state": "New Hampshire",
    "street": "126 Hall St Ste B"
  },
  {
    "id": "65ce6fa5-b2eb-43db-adb6-48d6a6a21992",
    "name": "Lithology Brewing",
    "brewery_type": "proprietor",
    "address_1": "211 Main St Ste A",
    "address_2": null,
    "address_3": null,
    "city": "Farmingdale",
    "state_province": "New York",
    "postal_code": "11735-2675",
    "country": "United States",
    "longitude": null,
    "latitude": null,
    "phone": "6316783613",
    "website_url": "http://Lithologybrewing.com",
    "state": "New York",
    "street": "211 Main St Ste A"
  },
  {
    "id": "8de6b4e6-4616-4f07-aeec-c53830db03ca",
    "name": "Little Apple Brewing Co",
    "brewery_type": "micro",
    "address_1": "1110 Westloop Pl",
    "address_2": null,
    "address_3": null,
    "city": "Manhattan",
    "state_province": "Kansas",
    "postal_code": "66502-2838",
    "country": "United States",
    "longitude": -96.6083689,
    "latitude": 39.1915231,
    "phone": "7855395500",
    "website_url": "http://www.littleapplebrewery.com",
    "state": "Kansas",
    "street": "1110 Westloop Pl"
  },
  {
    "id": "dc7254f5-aa81-475a-abdf-9d2065ad76b0",
    "name": "Little Beast Brewing",
    "brewery_type": "micro",
    "address_1": "3800 SW Cedar Hills Blvd Ste 300E",
    "address_2": null,
    "address_3": null,
    "city": "Beaverton",
    "state_province": "Oregon",
    "postal_code": "97005-2037",
    "country": "United States",
    "longitude": null,
    "latitude": null,
    "phone": "5033295107",
    "website_url": "http://www.littlebeastbrewing.com/",
    "state": "Oregon",
    "street": "3800 SW Cedar Hills Blvd Ste 300E"
  },
  {
    "id": "cd5ef38d-235e-4318-931a-defea9b4296a",
    "name": "Little Brother Brewing",
    "brewery_type": "micro",
    "address_1": "348 S Elm St",
    "address_2": null,
    "address_3": null,
    "city": "Greensboro",
    "state_province": "North Carolina",
    "postal_code": "27401-2606",
    "country": "United States",
    "longitude": -79.7907703,
    "latitude": 36.0686165,
    "phone": "7049990577",
    "website_url": "http://Www.littlebrotherbrew.com",
    "state": "North Carolina",
    "street": "348 S Elm St"
  },
  {
    "id": "e4293558-1bdb-40ec-9954-b252397283bf",
    "name": "Little City Brewing Co.",
    "brewery_type": "micro",
    "address_1": "400 W North St Ste 120",
    "address_2": null,
    "address_3": null,
    "city": "Raleigh",
    "state_province": "North Carolina",
    "postal_code": "27603-1570",
    "country": "United States",
    "longitude": null,
    "latitude": null,
    "phone": "9195027155",
    "website_url": "http://Www.thelocalicon.com/little-city",
    "state": "North Carolina",
    "street": "400 W North St Ste 120"
  },
  {
    "id": "0f0ea92d-3acc-4f59-bb72-2e6cb404bc6a",
    "name": "Little Dog Brewing Co.",
    "brewery_type": "micro",
    "address_1": "141 Steiner Ave",
    "address_2": null,
    "address_3": null,
    "city": "Neptune City",
    "state_province": "New Jersey",
    "postal_code": "07753-6500",
    "country": "United States",
    "longitude": -74.02307257,
    "latitude": 40.20003682,
    "phone": "7323613555",
    "website_url": "http://Www.littledogbrewing.com",
    "state": "New Jersey",
    "street": "141 Steiner Ave"
  },
  {
    "id": "ace6c26f-6fff-4688-9e28-14e977c38d78",
    "name": "Little Fish Brewing Company",
    "brewery_type": "micro",
    "address_1": "8675 Armitage Rd",
    "address_2": null,
    "address_3": null,
    "city": "Athens",
    "state_province": "Ohio",
    "postal_code": "45701-8900",
    "country": "United States",
    "longitude": -82.12957738,
    "latitude": 39.33333227,
    "phone": "7402046187",
    "website_url": "http://www.littlefishbrewing.com",
    "state": "Ohio",
    "street": "8675 Armitage Rd"
  },
  {
    "id": "7cb2e78f-4ddc-4557-bc84-bda74063c090",
    "name": "Little Giant Brewery",
    "brewery_type": "planning",
    "address_1": null,
    "address_2": null,
    "address_3": null,
    "city": "Bradenton",
    "state_province": "Florida",
    "postal_code": "34208-1139",
    "country": "United States",
    "longitude": null,
    "latitude": null,
    "phone": "9419626650",
    "website_url": null,
    "state": "Florida",
    "street": null
  },
  {
    "id": "187f11ae-b687-4c5a-afb4-0eefa9f04edb",
    "name": "Little Harpeth Brewing Co",
    "brewery_type": "micro",
    "address_1": "30 Oldham St",
    "address_2": null,
    "address_3": null,
    "city": "Nashville",
    "state_province": "Tennessee",
    "postal_code": "37213-1107",
    "country": "United States",
    "longitude": -86.77697471,
    "latitude": 36.174546,
    "phone": "3073711476",
    "website_url": "http://www.littleharpethbrewing.com",
    "state": "Tennessee",
    "street": "30 Oldham St"
  },
  {
    "id": "249d0a17-9cc1-4d49-be20-89d4e33763da",
    "name": "Little House Brewing Company",
    "brewery_type": "planning",
    "address_1": null,
    "address_2": null,
    "address_3": null,
    "city": "Chester",
    "state_province": "Connecticut",
    "postal_code": "06412-1342",
    "country": "United States",
    "longitude": null,
    "latitude": null,
    "phone": "6128105315",
    "website_url": "http://www.littlehousebrewing.com",
    "state": "Connecticut",
    "street": null
  },
  {
    "id": "1d101475-9df6-49ee-8590-e9b82f12bd41",
    "name": "Little Machine",
    "brewery_type": "micro",
    "address_1": "2924 W 20th Ave",
    "address_2": null,
    "address_3": null,
    "city": "Denver",
    "state_province": "Colorado",
    "postal_code": "80211-4622",
    "country": "United States",
    "longitude": -105.0243557,
    "latitude": 39.7474051,
    "phone": "3032847893",
    "website_url": "http://www.littlemachinebeer.com",
    "state": "Colorado",
    "street": "2924 W 20th Ave"
  },
  {
    "id": "e7693960-bc75-4c83-bf5f-fb4e03a47a11",
    "name": "Little Miami Brewing Company",
    "brewery_type": "brewpub",
    "address_1": "208 Mill St",
    "address_2": null,
    "address_3": null,
    "city": "Milford",
    "state_province": "Ohio",
    "postal_code": "45150-1072",
    "country": "United States",
    "longitude": -84.29623162,
    "latitude": 39.17161035,
    "phone": "5137131121",
    "website_url": "http://www.littlemiamibrewing.com",
    "state": "Ohio",
    "street": "208 Mill St"
  },
  {
    "id": "0917c834-47a2-4156-9f17-9eeeb16e7f7d",
    "name": "Little Miss Brewing",
    "brewery_type": "micro",
    "address_1": "7949 Stromesa Ct Ste Y",
    "address_2": null,
    "address_3": null,
    "city": "San Diego",
    "state_province": "California",
    "postal_code": "92126-6338",
    "country": "United States",
    "longitude": -117.148488,
    "latitude": 32.89183,
    "phone": "6198802752",
    "website_url": "http://www.littlemissbrewing.com",
    "state": "California",
    "street": "7949 Stromesa Ct Ste Y"
  },
  {
    "id": "53178b0b-00c3-463b-9423-25fe3cb223b1",
    "name": "Little Red Barn Brewing",
    "brewery_type": "planning",
    "address_1": null,
    "address_2": null,
    "address_3": null,
    "city": "Winsted",
    "state_province": "Connecticut",
    "postal_code": "06098-1410",
    "country": "United States",
    "longitude": null,
    "latitude": null,
    "phone": "8603873536",
    "website_url": "http://LRBbrewers.com",
    "state": "Connecticut",
    "street": null
  },
  {
    "id": "ca9c8da9-79bf-4f73-96be-ef5922abcd7c",
    "name": "Little Spokane Brewing Company",
    "brewery_type": "closed",
    "address_1": "154 S Madison St Ste 101",
    "address_2": null,
    "address_3": null,
    "city": "Spokane",
    "state_province": "Washington",
    "postal_code": "99201-4542",
    "country": "United States",
    "longitude": null,
    "latitude": null,
    "phone": null,
    "website_url": "http://www.littlespokanebrewingco.com",
    "state": "Washington",
    "street": "154 S Madison St Ste 101"
  },
  {
    "id": "2688cb2b-a937-42d7-a49f-3e1894a66021",
    "name": "Little Thistle Brewing",
    "brewery_type": "planning",
    "address_1": null,
    "address_2": null,
    "address_3": null,
    "city": "Rochester",
    "state_province": "Minnesota",
    "postal_code": "55901",
    "country": "United States",
    "longitude": null,
    "latitude": null,
    "phone": "5073584647",
    "website_url": "http://www.littlethistlebeer.com",
    "state": "Minnesota",
    "street": null
  },
  {
    "id": "b9a78a53-e345-4ff1-8b48-0ecfc8be956f",
    "name": "Little Toad Creek Brewery & Distillery",
    "brewery_type": "brewpub",
    "address_1": "200 N Bullard St",
    "address_2": null,
    "address_3": null,
    "city": "Silver City",
    "state_province": "New Mexico",
    "postal_code": "88061",
    "country": "United States",
    "longitude": -108.2764,
    "latitude": 32.769863,
    "phone": "5755369649",
    "website_url": "http://www.littletoadcreek.com",
    "state": "New Mexico",
    "street": "200 N Bullard St"
  }
]