[
  {
    "id": "86fab29c-89f5-4a48-99f6-06ef4240e508",
    "name": "Half Brothers Brewing Company",
    "brewery_type": "brewpub",
    "address_1": "17 N 3rd St",
    "address_2": null,
    "address_3": null,
    "city": "Grand Forks",
    "state_province": "North Dakota",
    "postal_code": "58203-3713",
    "country": "United States",
    "longitude": -97.0315443,
    "latitude": 47.9256052,
    "phone": "7017570805",
    "website_url": "http://www.halfbrothersbrewing.com",
    "state": "North Dakota",
    "street": "17 N 3rd St"
  },
  {
    "id": "2cb07047-36be-45c7-aae3-97c10afa36c4",
    "name": "Half Day Brewing Company",
    "brewery_type": "brewpub",
    "address_1": "200 Village Grn",
    "address_2": null,
    "address_3": null,
    "city": "Lincolnshire",
    "state_province": "Illinois",
    "postal_code": "60069-3028",
    "country": "United States",
    "longitude": -87.9330365,
    "latitude": 42.2031177,
    "phone": "8478216933",
    "website_url": "http://www.halfdaybrewing.com",
    "state": "Illinois",
    "street": "200 Village Grn"
  },
  {
    "id": "7c4882e0-4366-41f3-b207-7be79d078c52",
    "name": "Half Door Brewing Company",
    "brewery_type": "brewpub",
    "address_1": "903 Island Ave",
    "address_2": null,
    "address_3": null,
    "city": "San Diego",
    "state_province": "California",
    "postal_code": "92101-7227",
    "country": "United States",
    "longitude": -117.156268,
    "latitude": 32.710248,
    "phone": null,
    "website_url": "http://www.halfdoorbrewing.com",
    "state": "California",
    "street": "903 Island Ave"
  },
  {
    "id": "4c461172-154f-4375-ba95-0c7356311e24",
    "name": "Half Full Brewery",
    "brewery_type": "micro",
    "address_1": "43 Homestead Ave",
    "address_2": null,
    "address_3": null,
    "city": "Stamford",
    "state_province": "Connecticut",
    "postal_code": "06902-7204",
    "country": "United States",
    "longitude": -73.54959135,
    "latitude": 41.03933226,
    "phone": "2032748788",
    "website_url": "http://www.halffullbrewery.com",
    "state": "Connecticut",
    "street": "43 Homestead Ave"
  },
  {
    "id": "afd6863b-7e66-4f05-aca0-319fc7054288",
    "name": "Half Lion Brewing Company",
    "brewery_type": "micro",
    "address_1": "1723 West Valley Hwy E Ste 101",
    "address_2": null,
    "address_3": null,
    "city": "Sumner",
    "state_province": "Washington",
    "postal_code": "98390-9700",
    "country": "United States",
    "longitude": -122.2553244,
    "latitude": 47.24128441,
    "phone": "2537504479",
    "website_url": "http://www.halflion.com",
    "state": "Washington",
    "street": "1723 West Valley Hwy E Ste 101"
  },
  {
    "id": "37d585b5-00ee-4be0-ac6b-6d15b6416cac",
    "name": "Half Lion Public House",
    "brewery_type": "brewpub",
    "address_1": "2019 W Meeker St",
    "address_2": null,
    "address_3": null,
    "city": "Kent",
    "state_province": "Washington",
    "postal_code": "98032",
    "country": "United States",
    "longitude": -122.2629041,
    "latitude": 47.38103,
    "phone": "2532770685",
    "website_url": "https://www.halflion.com",
    "state": "Washington",
    "street": "2019 W Meeker St"
  },
  {
    "id": "79a8cdd5-d995-4575-ba5f-6253077bb4ba",
    "name": "Half Moon Bay Brewing Co",
    "brewery_type": "brewpub",
    "address_1": "390 Capistrano Road",
    "address_2": null,
    "address_3": null,
    "city": "Half Moon Bay",
    "state_province": "California",
    "postal_code": "94019",
    "country": "United States",
    "longitude": -122.4855902,
    "latitude": 37.50416699,
    "phone": "6507282739",
    "website_url": "http://www.hmbbrewingco.com",
    "state": "California",
    "street": "390 Capistrano Road"
  },
  {
    "id": "d8c8fa76-7764-4315-8e9f-e32af713f713",
    "name": "Half Moon Restaurant & Brewery",
    "brewery_type": "brewpub",
    "address_1": "4051 S Lafountain St",
    "address_2": null,
    "address_3": null,
    "city": "Kokomo",
    "state_province": "Indiana",
    "postal_code": "46902-6913",
    "country": "United States",
    "longitude": -86.1281745,
    "latitude": 40.4362867,
    "phone": "7654552739",
    "website_url": null,
    "state": "Indiana",
    "street": "4051 S Lafountain St"
  },
  {
    "id": "abf50e49-2787-4478-851f-366154085942",
    "name": "Half Wall Brewery",
    "brewery_type": "micro",
    "address_1": "1887 SR 44",
    "address_2": null,
    "address_3": null,
    "city": "New Smyrna Beach",
    "state_province": "Florida",
    "postal_code": "32168",
    "country": "United States",
    "longitude": null,
    "latitude": null,
    "phone": "3864268410",
    "website_url": "http://www.halfwallbrewery.com",
    "state": "Florida",
    "street": "1887 SR 44"
  },
  {
    "id": "d9817110-ab18-45a3-a48a-220863c8ef4d",
    "name": "Halfpenny Brewing Company",
    "brewery_type": "micro",
    "address_1": "5150 E Arapahoe Rd Ste D1-B",
    "address_2": null,
    "address_3": null,
    "city": "Centennial",
    "state_province": "Colorado",
    "postal_code": "80122-4825",
    "country": "United States",
    "longitude": null,
    "latitude": null,
    "phone": "7205830580",
    "website_url": "http://www.halfpennybrewing.com",
    "state": "Colorado",
    "street": "5150 E Arapahoe Rd Ste D1-B"
  },
  {
    "id": "147b44bb-0b7f-49ba-82ae-fd22be3bd123",
    "name": "Halmstads Brygghus",
    "brewery_type": "micro",
    "address_1": "Slottsm\u00f6llan",
    "address_2": null,
    "address_3": null,
    "city": "Halmstad",
    "state_province": "Halland",
    "postal_code": "302 31",
    "country": "Sweden",
    "longitude": null,
    "latitude": null,
    "phone": null,
    "website_url": "https://www.halmstadbrygghus.se/",
    "state": "Halland",
    "street": "Slottsm\u00f6llan"
  },
  {
    "id": "19fb8b9c-9a8e-4ed9-a5cb-ce00e818265e",
    "name": "Halpatter Brewing Company",
    "brewery_type": "micro",
    "address_1": "264 NE Hernando Ave",
    "address_2": null,
    "address_3": null,
    "city": "Lake City",
    "state_province": "Florida",
    "postal_code": "32055-4012",
    "country": "United States",
    "longitude": -82.63654594,
    "latitude": 30.19050388,
    "phone": "3864388788",
    "website_url": "http://www.halpatterbrewing.com",
    "state": "Florida",
    "street": "264 NE Hernando Ave"
  },
  {
    "id": "26d5210e-54b9-4375-9d69-5c296ca83038",
    "name": "Halyard Brewing Company",
    "brewery_type": "micro",
    "address_1": "80 Ethan Allen Dr Ste 2",
    "address_2": null,
    "address_3": null,
    "city": "South Burlington",
    "state_province": "Vermont",
    "postal_code": "05403-5971",
    "country": "United States",
    "longitude": null,
    "latitude": null,
    "phone": "9048742734",
    "website_url": "http://www.halyardbrewing.us",
    "state": "Vermont",
    "street": "80 Ethan Allen Dr Ste 2"
  },
  {
    "id": "63e07cbd-4eea-445f-94a2-771bd1020b3e",
    "name": "Hamburg Brewing Company",
    "brewery_type": "micro",
    "address_1": "6553 Boston State Rd",
    "address_2": null,
    "address_3": null,
    "city": "Hamburg",
    "state_province": "New York",
    "postal_code": "14075-6630",
    "country": "United States",
    "longitude": null,
    "latitude": null,
    "phone": "7166493249",
    "website_url": "http://www.hamburgbrewing.com",
    "state": "New York",
    "street": "6553 Boston State Rd"
  },
  {
    "id": "ba77ee7a-a62c-482e-8c3e-436ef62f11d8",
    "name": "Hamburger Mary's/Andersonville Brewing Company",
    "brewery_type": "brewpub",
    "address_1": "5402 N Clark St",
    "address_2": null,
    "address_3": null,
    "city": "Chicago",
    "state_province": "Illinois",
    "postal_code": "60640-1210",
    "country": "United States",
    "longitude": -87.66855092,
    "latitude": 41.97997865,
    "phone": "7737846969",
    "website_url": "http://www.hamburgermaryschicago.com",
    "state": "Illinois",
    "street": "5402 N Clark St"
  },
  {
    "id": "f31b2eb4-38d1-41b2-90d7-ef41f9362192",
    "name": "Hamilton Family Brewery",
    "brewery_type": "micro",
    "address_1": "9757 7th St Ste 802",
    "address_2": null,
    "address_3": null,
    "city": "Rancho Cucamonga",
    "state_province": "California",
    "postal_code": "91730-5297",
    "country": "United States",
    "longitude": -117.591893,
    "latitude": 34.08815449,
    "phone": "9099897050",
    "website_url": "http://hamiltonfamilybrewery.com",
    "state": "California",
    "street": "9757 7th St Ste 802"
  },
  {
    "id": "7b619ae8-fd5b-4751-976a-77111100b441",
    "name": "Hammer & Forge Brewing Company",
    "brewery_type": "micro",
    "address_1": "70 Main Street",
    "address_2": null,
    "address_3": null,
    "city": "Boones Mill",
    "state_province": "Virginia",
    "postal_code": "24064",
    "country": "United States",
    "longitude": -79.95438626,
    "latitude": 37.1151673,
    "phone": "5406133913",
    "website_url": "http://www.hammerandforgebrewing.com",
    "state": "Virginia",
    "street": "70 Main Street"
  },
  {
    "id": "ac43837a-d009-4df2-9984-6c536e85fe93",
    "name": "Hammer & Nail Brewing",
    "brewery_type": "planning",
    "address_1": null,
    "address_2": null,
    "address_3": null,
    "city": "Trumbull",
    "state_province": "Connecticut",
    "postal_code": "06611-4975",
    "country": "United States",
    "longitude": null,
    "latitude": null,
    "phone": "2032404987",
    "website_url": "http://www.HammerNailBrewing.com",
    "state": "Connecticut",
    "street": null
  },
  {
    "id": "2deddb89-ee77-4758-a800-052de103c6db",
    "name": "HammerHeart Brewing Company",
    "brewery_type": "micro",
    "address_1": "7785 Lake Dr",
    "address_2": null,
    "address_3": null,
    "city": "Lino Lakes",
    "state_province": "Minnesota",
    "postal_code": "55014-1109",
    "country": "United States",
    "longitude": -93.1064135,
    "latitude": 45.1890903,
    "phone": "6513482654",
    "website_url": "http://www.hammerheartbrewing.com",
    "state": "Minnesota",
    "street": "7785 Lake Dr"
  },
  {
    "id": "5fe91dd7-0dac-41d0-aac9-7c2fd664a929",
    "name": "Hana Koa Brewing Company",
    "brewery_type": "brewpub",
    "address_1": "962 Kawaiahao St",
    "address_2": null,
    "address_3": null,
    "city": "Honolulu",
    "state_province": "Hawaii",
    "postal_code": "96814",
    "country": "United States",
    "longitude": -157.852894,
    "latitude": 21.297494,
    "phone": "8085912337",
    "website_url": "http://www.hanakoabrewing.com",
    "state": "Hawaii",
    "street": "962 Kawaiahao St"
  },
  {
    "id": "71e0c498-d10f-4229-a71c-070561d23702",
    "name": "Hand Brew Co Ltd",
    "brewery_type": "brewpub",
    "address_1": "Upper St. James Street",
    "address_2": null,
    "address_3": null,
    "city": "Brighton",
    "state_province": "East Sussex",
    "postal_code": "BN2 1JN",
    "country": "England",
    "longitude": -0.12867,
    "latitude": 50.81986,
    "phone": "1273699595",
    "website_url": "http://www.handbrewpub.com/",
    "state": "East Sussex",
    "street": "Upper St. James Street"
  },
  {
    "id": "652b410d-07ea-4134-be36-fd62679f29aa",
    "name": "Hand of Fate Brewing Co",
    "brewery_type": "micro",
    "address_1": "107 E Douglas Ave",
    "address_2": null,
    "address_3": null,
    "city": "Petersburg",
    "state_province": "Illinois",
    "postal_code": "62675-1558",
    "country": "United States",
    "longitude": -89.92105943,
    "latitude": 38.59194278,
    "phone": "2176911098",
    "website_url": "http://www.handoffatebrewing.beer",
    "state": "Illinois",
    "street": "107 E Douglas Ave"
  },
  {
    "id": "c75293cb-e18c-4c7f-ac21-a08418766428",
    "name": "Hand-Brewed Beer",
    "brewery_type": "micro",
    "address_1": "9771 Variel Ave",
    "address_2": null,
    "address_3": null,
    "city": "Chatsworth",
    "state_province": "California",
    "postal_code": "91311-4315",
    "country": "United States",
    "longitude": -118.5930241,
    "latitude": 34.24766895,
    "phone": "8189641422",
    "website_url": "http://www.handbrewedbeer.com",
    "state": "California",
    "street": "9771 Variel Ave"
  },
  {
    "id": "58f92618-b1c1-4737-b628-13abdfc7e0d9",
    "name": "Hangar 24 Craft Brewery",
    "brewery_type": "regional",
    "address_1": "1710 Sessums Dr",
    "address_2": null,
    "address_3": null,
    "city": "Redlands",
    "state_province": "California",
    "postal_code": "92374-1909",
    "country": "United States",
    "longitude": -117.1419134,
    "latitude": 34.0831712,
    "phone": "9093891400",
    "website_url": "http://www.hangar24brewery.com",
    "state": "California",
    "street": "1710 Sessums Dr"
  },
  {
    "id": "48dc261e-1cfa-436f-a947-51b53b330abc",
    "name": "Hanging Hills Brewing Company",
    "brewery_type": "micro",
    "address_1": "150 Ledyard St",
    "address_2": null,
    "address_3": null,
    "city": "Hartford",
    "state_province": "Connecticut",
    "postal_code": "06114-1403",
    "country": "United States",
    "longitude": -72.67011733,
    "latitude": 41.74481243,
    "phone": "8602637033",
    "website_url": "http://www.hanginghillsbrewery.com",
    "state": "Connecticut",
    "street": "150 Ledyard St"
  },
  {
    "id": "344298b7-4657-4f82-88e7-4e558131da4e",
    "name": "Hanging Horseshoe Brewing Company",
    "brewery_type": "micro",
    "address_1": "73892 332 Ave",
    "address_2": null,
    "address_3": null,
    "city": "Imperial",
    "state_province": "Nebraska",
    "postal_code": "69033-3034",
    "country": "United States",
    "longitude": -101.64814,
    "latitude": 40.536221,
    "phone": "3088827772",
    "website_url": null,
    "state": "Nebraska",
    "street": "73892 332 Ave"
  },
  {
    "id": "77358748-54f0-4396-bc3c-d73ce170541c",
    "name": "Hank Hudson Brewing At Fairways of Halfmoon",
    "brewery_type": "brewpub",
    "address_1": "17 Johnson Rd",
    "address_2": null,
    "address_3": null,
    "city": "Mechanicville",
    "state_province": "New York",
    "postal_code": "12118-3505",
    "country": "United States",
    "longitude": null,
    "latitude": null,
    "phone": "5186641578",
    "website_url": null,
    "state": "New York",
    "street": "17 Johnson Rd"
  },
  {
    "id": "dd702c3b-e231-4e25-865c-c9ef68a57c74",
    "name": "Hank Is Wiser Brewery",
    "brewery_type": "brewpub",
    "address_1": "213 N Main St",
    "address_2": null,
    "address_3": null,
    "city": "Cheney",
    "state_province": "Kansas",
    "postal_code": "67025-9730",
    "country": "United States",
    "longitude": -97.7812689,
    "latitude": 37.62820924,
    "phone": "3165420113",
    "website_url": "http://www.hankiswiserbrewery.com",
    "state": "Kansas",
    "street": "213 N Main St"
  },
  {
    "id": "1fcb7d97-83ee-4b1b-ba5a-f2c8c2b5b1d1",
    "name": "Hansa Brewery",
    "brewery_type": "brewpub",
    "address_1": "2717 Lorain Ave",
    "address_2": null,
    "address_3": null,
    "city": "Cleveland",
    "state_province": "Ohio",
    "postal_code": "44113-3414",
    "country": "United States",
    "longitude": -81.70479139,
    "latitude": 41.48344207,
    "phone": "2166316585",
    "website_url": "http://www.hansabrewery.com",
    "state": "Ohio",
    "street": "2717 Lorain Ave"
  },
  {
    "id": "d8549701-4cf1-4aff-9af1-b0ef1e2dc072",
    "name": "Hanson Brothers Beer Company",
    "brewery_type": "contract",
    "address_1": "209 N Main St",
    "address_2": null,
    "address_3": null,
    "city": "Tulsa",
    "state_province": "Oklahoma",
    "postal_code": "74103-2005",
    "country": "United States",
    "longitude": -95.9936663,
    "latitude": 36.15851257,
    "phone": null,
    "website_url": "http://www.hansonbrothersbeer.com",
    "state": "Oklahoma",
    "street": "209 N Main St"
  },
  {
    "id": "765e8c19-78dd-4117-ad3a-61ce5337d5a7",
    "name": "Hapa's Brewing Company",
    "brewery_type": "micro",
    "address_1": "460 Lincoln Ave # 90",
    "address_2": null,
    "address_3": null,
    "city": "San Jose",
    "state_province": "California",
    "postal_code": "95126-3702",
    "country": "United States",
    "longitude": -121.888991,
    "latitude": 37.2917841,
    "phone": "4089823299",
    "website_url": "http://hapasbrewing.com/",
    "state": "California",
    "street": "460 Lincoln Ave # 90"
  },
  {
    "id": "073d02c4-85e2-4118-955b-89e8d51ff119",
    "name": "Happy Basset Brewing Company",
    "brewery_type": "micro",
    "address_1": "6044 SW 29th St",
    "address_2": null,
    "address_3": null,
    "city": "Topeka",
    "state_province": "Kansas",
    "postal_code": "66614-4268",
    "country": "United States",
    "longitude": -95.7637047,
    "latitude": 39.01466361,
    "phone": "7857833688",
    "website_url": "http://www.happybassetbrewingco.com",
    "state": "Kansas",
    "street": "6044 SW 29th St"
  },
  {
    "id": "50adab67-c5bf-4be0-8116-e7311e7864d4",
    "name": "Happy Hippie Brewing Company",
    "brewery_type": "planning",
    "address_1": null,
    "address_2": null,
    "address_3": null,
    "city": "Richardson",
    "state_province": "Texas",
    "postal_code": "75080",
    "country": "United States",
    "longitude": null,
    "latitude": null,
    "phone": "2146167681",
    "website_url": "http://www.happyhippiebeer.com",
    "state": "Texas",
    "street": null
  },
  {
    "id": "2d6f4446-21f5-4453-ac5b-84e228dff82c",
    "name": "Happy Trails Brewing Company",
    "brewery_type": "planning",
    "address_1": null,
    "address_2": null,
    "address_3": null,
    "city": "Sparta",
    "state_province": "Tennessee",
    "postal_code": "38583-5577",
    "country": "United States",
    "longitude": null,
    "latitude": null,
    "phone": "9312678027",
    "website_url": "http://www.happytrailsbrewingco.com",
    "state": "Tennessee",
    "street": null
  },
  {
    "id": "e73fe117-041d-477f-ae73-ad19bf5f2f68",
    "name": "Happy Valley Brewing Company",
    "brewery_type": "brewpub",
    "address_1": "137 Elmwood St",
    "address_2": null,
    "address_3": null,
    "city": "State College",
    "state_province": "Pennsylvania",
    "postal_code": "16801-6851",
    "country": "United States",
    "longitude": null,
    "latitude": null,
    "phone": null,
    "website_url": null,
    "state": "Pennsylvania",
    "street": "137 Elmwood St"
  },
  {
    "id": "1710a317-a662-45f5-9162-f7f3c8a16015",
    "name": "Harbinger Beer Company LLC",
    "brewery_type": "planning",
    "address_1": "111 Buffalo St",
    "address_2": null,
    "address_3": null,
    "city": "Caddo",
    "state_province": "Oklahoma",
    "postal_code": "74729-2606",
    "country": "United States",
    "longitude": -96.2601872,
    "latitude": 34.1253524,
    "phone": "5803809398",
    "website_url": "http://harbingerbeer.com",
    "state": "Oklahoma",
    "street": "111 Buffalo St"
  },
  {
    "id": "ae916041-5055-42ed-a19f-e03dfeafbf00",
    "name": "Harbor Head Brewing Co",
    "brewery_type": "micro",
    "address_1": "81 Fort Salonga Rd",
    "address_2": null,
    "address_3": null,
    "city": "Northport",
    "state_province": "New York",
    "postal_code": "11768-2889",
    "country": "United States",
    "longitude": -73.3539709,
    "latitude": 40.8908555,
    "phone": "6318155588",
    "website_url": "http://www.harborheadbrew.com",
    "state": "New York",
    "street": "81 Fort Salonga Rd"
  },
  {
    "id": "eb9f6c47-2c75-4462-9da1-9208979fdb07",
    "name": "Harbor Mountain Brewing Co",
    "brewery_type": "micro",
    "address_1": "1209 Sawmill Creek Rd Ste A",
    "address_2": null,
    "address_3": null,
    "city": "Sitka",
    "state_province": "Alaska",
    "postal_code": "99835-9759",
    "country": "United States",
    "longitude": -135.309951,
    "latitude": 57.049586,
    "phone": "9073087339",
    "website_url": "https://www.harbormountainbrewing.com/",
    "state": "Alaska",
    "street": "1209 Sawmill Creek Rd Ste A"
  },
  {
    "id": "24f4fa84-91d9-4cde-8e37-5cb430753f29",
    "name": "Harding House Brewing Company",
    "brewery_type": "planning",
    "address_1": null,
    "address_2": null,
    "address_3": null,
    "city": "Nashville",
    "state_province": "Tennessee",
    "postal_code": "37209",
    "country": "United States",
    "longitude": null,
    "latitude": null,
    "phone": "3034089405",
    "website_url": "http://www.hardinghousebrew.com",
    "state": "Tennessee",
    "street": null
  },
  {
    "id": "ee478df6-9033-4f56-b6f7-94d3b242871d",
    "name": "Hardwood Bar and Smokery",
    "brewery_type": "brewpub",
    "address_1": "680 8th St Ste 170",
    "address_2": null,
    "address_3": null,
    "city": "San Francisco",
    "state_province": "California",
    "postal_code": "94103",
    "country": "United States",
    "longitude": -122.404927,
    "latitude": 37.77073989,
    "phone": "4157962437",
    "website_url": "http://www.hardwoodsf.com",
    "state": "California",
    "street": "680 8th St Ste 170"
  },
  {
    "id": "093c8814-568c-4b61-ad11-70ac6a4c3b6d",
    "name": "Hardywood Park Craft Brewery",
    "brewery_type": "micro",
    "address_1": "2408 Ownby Ln",
    "address_2": null,
    "address_3": null,
    "city": "Richmond",
    "state_province": "Virginia",
    "postal_code": "23220-1319",
    "country": "United States",
    "longitude": null,
    "latitude": null,
    "phone": "8044202420",
    "website_url": "http://www.hardywood.com",
    "state": "Virginia",
    "street": "2408 Ownby Ln"
  },
  {
    "id": "675e5fbb-fe82-4e44-afee-116d1d924d90",
    "name": "Hardywood Park Craft Brewery-Charlottesville",
    "brewery_type": "micro",
    "address_1": "1000 W Main St",
    "address_2": null,
    "address_3": null,
    "city": "Charlottesville",
    "state_province": "Virginia",
    "postal_code": "22903-3277",
    "country": "United States",
    "longitude": -78.49505511,
    "latitude": 38.03257623,
    "phone": "4342343386",
    "website_url": null,
    "state": "Virginia",
    "street": "1000 W Main St"
  },
  {
    "id": "09aefb86-1ed9-4838-a5c1-42baa6e833b1",
    "name": "Hardywood West Creek",
    "brewery_type": "micro",
    "address_1": "820 Sanctuary Trail Dr",
    "address_2": null,
    "address_3": null,
    "city": "Richmond",
    "state_province": "Virginia",
    "postal_code": "23238",
    "country": "United States",
    "longitude": null,
    "latitude": null,
    "phone": "8044183548",
    "website_url": "http://hardywood.com/visit-us/westcreek/",
    "state": "Virginia",
    "street": "820 Sanctuary Trail Dr"
  },
  {
    "id": "0ed75909-c4d0-4c3f-8639-a24f04620b34",
    "name": "Hare In the Forest",
    "brewery_type": "micro",
    "address_1": "9311 Gibson Ln",
    "address_2": null,
    "address_3": null,
    "city": "Potter Valley",
    "state_province": "California",
    "postal_code": "95469-8799",
    "country": "United States",
    "longitude": -123.1252703,
    "latitude": 39.33623934,
    "phone": "9105457759",
    "website_url": "http://www.hareintheforest.com",
    "state": "California",
    "street": "9311 Gibson Ln"
  },
  {
    "id": "95e2aecb-8c67-415f-aad7-02f1148871f6",
    "name": "Harlem Blue Beer",
    "brewery_type": "proprietor",
    "address_1": "2214 Frederick Douglass Blvd Ste 267",
    "address_2": null,
    "address_3": null,
    "city": "New York",
    "state_province": "New York",
    "postal_code": "10026-1123",
    "country": "United States",
    "longitude": null,
    "latitude": null,
    "phone": null,
    "website_url": "http://www.harlemblue.com",
    "state": "New York",
    "street": "2214 Frederick Douglass Blvd Ste 267"
  },
  {
    "id": "02f59192-c794-4d3b-b3a3-6d96bb2bb7b2",
    "name": "Harlem Brewing Co",
    "brewery_type": "contract",
    "address_1": "2 W 123rd St",
    "address_2": null,
    "address_3": null,
    "city": "New York",
    "state_province": "New York",
    "postal_code": "10027-5623",
    "country": "United States",
    "longitude": -73.94532799,
    "latitude": 40.8058068,
    "phone": "8885596735",
    "website_url": "http://www.harlembrewingcompany.com",
    "state": "New York",
    "street": "2 W 123rd St"
  },
  {
    "id": "cdcc3305-d175-4cdb-b775-c150700bca78",
    "name": "Harmon Brewing Company",
    "brewery_type": "micro",
    "address_1": "204 St Helens Ave",
    "address_2": null,
    "address_3": null,
    "city": "Tacoma",
    "state_province": "Washington",
    "postal_code": "98402-2522",
    "country": "United States",
    "longitude": -122.4457804,
    "latitude": 47.26209356,
    "phone": "253212725",
    "website_url": "http://www.harmonbrewingco.com",
    "state": "Washington",
    "street": "204 St Helens Ave"
  },
  {
    "id": "82ae31f2-9010-4437-9f6c-babf306dabd6",
    "name": "Harmonic Brewing",
    "brewery_type": "micro",
    "address_1": "1050 26th St",
    "address_2": null,
    "address_3": null,
    "city": "San Francisco",
    "state_province": "California",
    "postal_code": "94107-3513",
    "country": "United States",
    "longitude": -122.3900962,
    "latitude": 37.75149961,
    "phone": "4158726817",
    "website_url": "http://www.harmonicbrewing.com",
    "state": "California",
    "street": "1050 26th St"
  },
  {
    "id": "063bdb40-056e-489a-b952-0746b4b9e512",
    "name": "Harmony Brewing Co",
    "brewery_type": "brewpub",
    "address_1": "1551 Lake Dr SE",
    "address_2": null,
    "address_3": null,
    "city": "Grand Rapids",
    "state_province": "Michigan",
    "postal_code": "49506-2705",
    "country": "United States",
    "longitude": -85.63066846,
    "latitude": 42.95501346,
    "phone": "6162330063",
    "website_url": null,
    "state": "Michigan",
    "street": "1551 Lake Dr SE"
  },
  {
    "id": "a3bd0375-cc0f-48cf-82f9-48151f0c411b",
    "name": "Harmony Brewing Company - Harmony Hall",
    "brewery_type": "brewpub",
    "address_1": "401 Stocking Ave NW",
    "address_2": null,
    "address_3": null,
    "city": "Grand Rapids",
    "state_province": "Michigan",
    "postal_code": "49504-5501",
    "country": "United States",
    "longitude": -85.684118,
    "latitude": 42.970732,
    "phone": null,
    "website_url": null,
    "state": "Michigan",
    "street": "401 Stocking Ave NW"
  }
]