[
  {
    "id": "b38e3a59-9874-4d96-960b-631548ec3187",
    "name": "Mountain Tap Brewery",
    "brewery_type": "brewpub",
    "address_1": "910 Yampa Street",
    "address_2": null,
    "address_3": null,
    "city": "Steamboat Springs",
    "state_province": "Colorado",
    "postal_code": "80487",
    "country": "United States",
    "longitude": -106.8355071,
    "latitude": 40.4853039,
    "phone": "9708796646",
    "website_url": "http://www.mountaintapbrewery.com",
    "state": "Colorado",
    "street": "910 Yampa Street"
  },
  {
    "id": "a3a41098-15ef-4968-9edd-d68257f14f08",
    "name": "Mountain Toad Brewing",
    "brewery_type": "micro",
    "address_1": "900 Washington Ave",
    "address_2": null,
    "address_3": null,
    "city": "Golden",
    "state_province": "Colorado",
    "postal_code": "80401-1047",
    "country": "United States",
    "longitude": -105.2242563,
    "latitude": 39.75807905,
    "phone": "7206383244",
    "website_url": "http://mountaintoadbrewing.com",
    "state": "Colorado",
    "street": "900 Washington Ave"
  },
  {
    "id": "6e501b8a-a337-4bd2-bdb9-d22ab3e166a9",
    "name": "Mountain Town Brewing Co",
    "brewery_type": "micro",
    "address_1": "614 W Pickard St",
    "address_2": null,
    "address_3": null,
    "city": "Mt Pleasant",
    "state_province": "Michigan",
    "postal_code": "48858-1504",
    "country": "United States",
    "longitude": -84.78689552,
    "latitude": 43.61180948,
    "phone": "9894004666",
    "website_url": "http://www.mountaintownbrew.com",
    "state": "Michigan",
    "street": "614 W Pickard St"
  },
  {
    "id": "335bffa7-c0f1-4593-929c-1f80ed7ab7c6",
    "name": "Mountain Town Station Restaurant & Brew Pub",
    "brewery_type": "brewpub",
    "address_1": "506 W Broadway St",
    "address_2": null,
    "address_3": null,
    "city": "Mt Pleasant",
    "state_province": "Michigan",
    "postal_code": "48858-2441",
    "country": "United States",
    "longitude": -84.7822205,
    "latitude": 43.604568,
    "phone": "9894004666",
    "website_url": "http://www.mountaintownbrew.com",
    "state": "Michigan",
    "street": "506 W Broadway St"
  },
  {
    "id": "2ad0448b-96e8-4537-b990-9cbf5e4702db",
    "name": "Mountain Valley Brewing",
    "brewery_type": "micro",
    "address_1": "4220 Mountain Valley Rd",
    "address_2": null,
    "address_3": null,
    "city": "Axton",
    "state_province": "Virginia",
    "postal_code": "24054-2985",
    "country": "United States",
    "longitude": -79.70721,
    "latitude": 36.715687,
    "phone": "2768332171",
    "website_url": null,
    "state": "Virginia",
    "street": "4220 Mountain Valley Rd"
  },
  {
    "id": "251596fe-58b7-4690-a823-f8c65be73228",
    "name": "Mountain View Brewing",
    "brewery_type": "micro",
    "address_1": "6670 Trout Creek Ridge Rd",
    "address_2": null,
    "address_3": null,
    "city": "Mt Hood",
    "state_province": "Oregon",
    "postal_code": "97041",
    "country": "United States",
    "longitude": -121.6229737,
    "latitude": 45.53707415,
    "phone": "5414410314",
    "website_url": "https://www.mtviewbrewing.com/",
    "state": "Oregon",
    "street": "6670 Trout Creek Ridge Rd"
  },
  {
    "id": "988365c4-fe44-46d3-9c39-200dd18b1817",
    "name": "Mountains Walking",
    "brewery_type": "brewpub",
    "address_1": "422 N Plum Ave",
    "address_2": null,
    "address_3": null,
    "city": "Bozeman",
    "state_province": "Montana",
    "postal_code": "59718",
    "country": "United States",
    "longitude": -111.025561,
    "latitude": 45.68418789,
    "phone": "4062193480",
    "website_url": "http://www.mountainswalking.com",
    "state": "Montana",
    "street": "422 N Plum Ave"
  },
  {
    "id": "f7302824-3eb3-428b-bb02-4109d635110e",
    "name": "Moustache Brewing Co",
    "brewery_type": "micro",
    "address_1": "400 Hallett Ave Ste A",
    "address_2": null,
    "address_3": null,
    "city": "Riverhead",
    "state_province": "New York",
    "postal_code": "11901-3076",
    "country": "United States",
    "longitude": null,
    "latitude": null,
    "phone": "6315913250",
    "website_url": "http://www.moustachebrewing.com",
    "state": "New York",
    "street": "400 Hallett Ave Ste A"
  },
  {
    "id": "168bd14c-df6e-4148-a502-674b1e1dac9a",
    "name": "Moylan's Brewery & Restaurant",
    "brewery_type": "brewpub",
    "address_1": "15 Rowland Way",
    "address_2": null,
    "address_3": null,
    "city": "Novato",
    "state_province": "California",
    "postal_code": "94945-5001",
    "country": "United States",
    "longitude": -122.5570548,
    "latitude": 38.09448604,
    "phone": "4158984677",
    "website_url": "http://www.moylans.com",
    "state": "California",
    "street": "15 Rowland Way"
  },
  {
    "id": "9b6630e3-3499-4472-8406-a9c59037fb9f",
    "name": "Mr Dunderbaks Biergarten and Brewery / Dunderbrau Brewing",
    "brewery_type": "brewpub",
    "address_1": "14929 Bruce B Downs Blvd",
    "address_2": null,
    "address_3": null,
    "city": "Tampa",
    "state_province": "Florida",
    "postal_code": "33613-2860",
    "country": "United States",
    "longitude": -82.4138299,
    "latitude": 28.08237293,
    "phone": "8139774104",
    "website_url": "http://www.dunderbaks.ieasysite.com",
    "state": "Florida",
    "street": "14929 Bruce B Downs Blvd"
  },
  {
    "id": "64563779-eb9d-4c45-860d-e67e922c2e2f",
    "name": "Mraz Brewing Company",
    "brewery_type": "micro",
    "address_1": "2222 Francisco Dr Ste 510",
    "address_2": null,
    "address_3": null,
    "city": "El Dorado Hills",
    "state_province": "California",
    "postal_code": "95762-3766",
    "country": "United States",
    "longitude": -121.0862427,
    "latitude": 38.71041848,
    "phone": "9169340744",
    "website_url": "http://www.mrazbrewingcompany.com",
    "state": "California",
    "street": "2222 Francisco Dr Ste 510"
  },
  {
    "id": "65afa778-c70a-4caf-9947-1f15d4b4135f",
    "name": "MT Head Brewing Co",
    "brewery_type": "closed",
    "address_1": "27307 159th Ave E",
    "address_2": null,
    "address_3": null,
    "city": "Graham",
    "state_province": "Washington",
    "postal_code": "98338-5608",
    "country": "United States",
    "longitude": null,
    "latitude": null,
    "phone": "2532088999",
    "website_url": "http://www.mtheadbrewingco.com",
    "state": "Washington",
    "street": "27307 159th Ave E"
  },
  {
    "id": "85d7d8c6-51ec-402b-9099-f5bcca019965",
    "name": "Mt Index Brewery",
    "brewery_type": "closed",
    "address_1": "49315 State Road 2 Ste B",
    "address_2": null,
    "address_3": null,
    "city": "index",
    "state_province": "Washington",
    "postal_code": "98256",
    "country": "United States",
    "longitude": null,
    "latitude": null,
    "phone": "3607936584",
    "website_url": "https://www.facebook.com/mt.index.brewery.and.distillery",
    "state": "Washington",
    "street": "49315 State Road 2 Ste B"
  },
  {
    "id": "fb66a688-771b-42cd-bedb-1be0eb9db41a",
    "name": "Mt Lowe Brewing Company",
    "brewery_type": "micro",
    "address_1": "150 E Saint Joseph St",
    "address_2": null,
    "address_3": null,
    "city": "Arcadia",
    "state_province": "California",
    "postal_code": "91006-2851",
    "country": "United States",
    "longitude": -118.0268254,
    "latitude": 34.14332231,
    "phone": "6262447593",
    "website_url": "http://www.mtlowebrewing.com",
    "state": "California",
    "street": "150 E Saint Joseph St"
  },
  {
    "id": "93581811-3b23-49a5-83db-8214c6d36a9f",
    "name": "Mt Tabor Brewing Co",
    "brewery_type": "micro",
    "address_1": "124 SE 11th Ave",
    "address_2": null,
    "address_3": null,
    "city": "Portland",
    "state_province": "Oregon",
    "postal_code": "97214-1354",
    "country": "United States",
    "longitude": -122.654188,
    "latitude": 45.52171275,
    "phone": "3605678199",
    "website_url": "http://www.mttaborbrewing.com",
    "state": "Oregon",
    "street": "124 SE 11th Ave"
  },
  {
    "id": "c59d0db5-f675-4808-97c4-ab1a38643c58",
    "name": "Mt. Carmel Brewing Co",
    "brewery_type": "micro",
    "address_1": "4362 Mount Carmel Tobasco Rd",
    "address_2": null,
    "address_3": null,
    "city": "Cincinnati",
    "state_province": "Ohio",
    "postal_code": "45244-2338",
    "country": "United States",
    "longitude": null,
    "latitude": null,
    "phone": "5132402739",
    "website_url": null,
    "state": "Ohio",
    "street": "4362 Mount Carmel Tobasco Rd"
  },
  {
    "id": "7bbaf187-f244-43c9-9c28-d8ee0c904958",
    "name": "Mt. Rushmore Brewing Company",
    "brewery_type": "brewpub",
    "address_1": "140 Mt Rushmore Rd",
    "address_2": null,
    "address_3": null,
    "city": "Custer",
    "state_province": "South Dakota",
    "postal_code": "57730-1829",
    "country": "United States",
    "longitude": -103.605392,
    "latitude": 43.764722,
    "phone": null,
    "website_url": "http://www.mtrushmorebrewing.com",
    "state": "South Dakota",
    "street": "140 Mt Rushmore Rd"
  },
  {
    "id": "52ee5ff2-5e93-447c-ac91-80670d1ed06f",
    "name": "Mucky Duck Brewery",
    "brewery_type": "brewpub",
    "address_1": "4019 S Main St",
    "address_2": null,
    "address_3": null,
    "city": "Akron",
    "state_province": "Ohio",
    "postal_code": "44319-3668",
    "country": "United States",
    "longitude": -81.5268804,
    "latitude": 41.0629094,
    "phone": "3306445444",
    "website_url": null,
    "state": "Ohio",
    "street": "4019 S Main St"
  },
  {
    "id": "9283a53b-c0aa-4a08-8ec7-7dc35b9d818e",
    "name": "Mud Hound Brewing Co / MacDowell Brew Kitchen",
    "brewery_type": "brewpub",
    "address_1": "202B Harrison St SE",
    "address_2": null,
    "address_3": null,
    "city": "Leesburg",
    "state_province": "Virginia",
    "postal_code": "20175-3701",
    "country": "United States",
    "longitude": -77.56266978,
    "latitude": 39.11221609,
    "phone": "7037772739",
    "website_url": "http://www.macdowellbrewkitchen.com",
    "state": "Virginia",
    "street": "202B Harrison St SE"
  },
  {
    "id": "7fd0b5f9-cf63-4db1-b797-fe50461dcbc5",
    "name": "Mudbug Brewery",
    "brewery_type": "micro",
    "address_1": "1878 LA Hwy 3185",
    "address_2": null,
    "address_3": null,
    "city": "Thibodaux",
    "state_province": "Louisiana",
    "postal_code": "70302-1077",
    "country": "United States",
    "longitude": null,
    "latitude": null,
    "phone": "9854921610",
    "website_url": "http://www.mudbugbrewery.com",
    "state": "Louisiana",
    "street": "1878 LA Hwy 3185"
  },
  {
    "id": "105393d3-d4cb-443d-8933-e2563f9faef3",
    "name": "Muddy Creek Brewery",
    "brewery_type": "micro",
    "address_1": "2 E Galena St",
    "address_2": null,
    "address_3": null,
    "city": "Butte",
    "state_province": "Montana",
    "postal_code": "59701-1704",
    "country": "United States",
    "longitude": -112.535291,
    "latitude": 46.01201,
    "phone": "4062993645",
    "website_url": "http://muddycreekbrewery.com",
    "state": "Montana",
    "street": "2 E Galena St"
  },
  {
    "id": "e38497fd-5545-43be-9100-518277458517",
    "name": "Mudhen Brewing Company",
    "brewery_type": "brewpub",
    "address_1": "127 W Rio Grande Ave",
    "address_2": null,
    "address_3": null,
    "city": "Wildwood",
    "state_province": "New Jersey",
    "postal_code": "08260",
    "country": "United States",
    "longitude": -74.82509314,
    "latitude": 38.98453453,
    "phone": "6095228383",
    "website_url": null,
    "state": "New Jersey",
    "street": "127 W Rio Grande Ave"
  },
  {
    "id": "3e9c673b-0ccd-4204-a712-5536b40cd036",
    "name": "Mudhook Brewing Co",
    "brewery_type": "brewpub",
    "address_1": "34 N Cherry Ln",
    "address_2": null,
    "address_3": null,
    "city": "York",
    "state_province": "Pennsylvania",
    "postal_code": "17401-5306",
    "country": "United States",
    "longitude": -76.72935297,
    "latitude": 39.96311069,
    "phone": "7177473605",
    "website_url": "http://www.mudhookbrewing.com",
    "state": "Pennsylvania",
    "street": "34 N Cherry Ln"
  },
  {
    "id": "b9694c75-826d-486d-82ca-b21db45e8008",
    "name": "Mudshark Brewing Co",
    "brewery_type": "micro",
    "address_1": "210 Swanson Ave",
    "address_2": null,
    "address_3": null,
    "city": "Lake Havasu City",
    "state_province": "Arizona",
    "postal_code": "86403-0966",
    "country": "United States",
    "longitude": -114.3424335,
    "latitude": 34.46897363,
    "phone": "9284532981",
    "website_url": "http://www.mudsharkbrewingco.com",
    "state": "Arizona",
    "street": "210 Swanson Ave"
  },
  {
    "id": "a45b8540-39be-4c4a-a9a7-8fd88568c06d",
    "name": "Mule & Elk Brewing Co",
    "brewery_type": "micro",
    "address_1": "418 East 1st St Ste 7",
    "address_2": null,
    "address_3": null,
    "city": "Cle Elum",
    "state_province": "Washington",
    "postal_code": "98922",
    "country": "United States",
    "longitude": -120.932084,
    "latitude": 47.19441,
    "phone": "2063211911",
    "website_url": "http://www.muleandelk.com",
    "state": "Washington",
    "street": "418 East 1st St Ste 7"
  },
  {
    "id": "ab31aeb1-b596-461a-85d2-d0bbdee0b890",
    "name": "Mully's Brewery",
    "brewery_type": "micro",
    "address_1": "141 Schooner Ln Ste 15",
    "address_2": null,
    "address_3": null,
    "city": "Prince Frederick",
    "state_province": "Maryland",
    "postal_code": "20678-3482",
    "country": "United States",
    "longitude": null,
    "latitude": null,
    "phone": "4439689426",
    "website_url": "http://www.mullysbrewery.com",
    "state": "Maryland",
    "street": "141 Schooner Ln Ste 15"
  },
  {
    "id": "3341c9bb-1676-4f4c-a884-156f8fd827bf",
    "name": "Multiple Brewing Company",
    "brewery_type": "micro",
    "address_1": "82 W Washington St",
    "address_2": null,
    "address_3": null,
    "city": "Nelsonville",
    "state_province": "Ohio",
    "postal_code": "45764-1135",
    "country": "United States",
    "longitude": -82.23343359,
    "latitude": 39.46109582,
    "phone": "6144957199",
    "website_url": null,
    "state": "Ohio",
    "street": "82 W Washington St"
  },
  {
    "id": "9db35316-e5f4-485f-a071-addf0a05feb0",
    "name": "Mumford Brewing Company",
    "brewery_type": "micro",
    "address_1": "416 Boyd St",
    "address_2": null,
    "address_3": null,
    "city": "Los Angeles",
    "state_province": "California",
    "postal_code": "90013-1631",
    "country": "United States",
    "longitude": -118.2425998,
    "latitude": 34.0464181,
    "phone": "6263759353",
    "website_url": "http://www.mumfordbrewing.com",
    "state": "California",
    "street": "416 Boyd St"
  },
  {
    "id": "f03af10b-8b0b-4acf-b3a2-494ccb06f346",
    "name": "Municipal Brew Works",
    "brewery_type": "micro",
    "address_1": "20 High St",
    "address_2": null,
    "address_3": null,
    "city": "Hamilton",
    "state_province": "Ohio",
    "postal_code": "45011-2709",
    "country": "United States",
    "longitude": -84.5638199,
    "latitude": 39.4009136,
    "phone": "5136422424",
    "website_url": "http://municipalbrewworks.com",
    "state": "Ohio",
    "street": "20 High St"
  },
  {
    "id": "597c06aa-6c9f-4652-a0b0-7db11364374f",
    "name": "Munkle Brewing Company",
    "brewery_type": "micro",
    "address_1": "1513 Meeting Street Rd",
    "address_2": null,
    "address_3": null,
    "city": "Charleston",
    "state_province": "South Carolina",
    "postal_code": "29405-9301",
    "country": "United States",
    "longitude": -79.95068928,
    "latitude": 32.81853,
    "phone": "8437893109",
    "website_url": "http://MunkleBrewing.com",
    "state": "South Carolina",
    "street": "1513 Meeting Street Rd"
  },
  {
    "id": "8078ec7c-ac31-421e-b073-4bb9f784c0cb",
    "name": "Munster Brewery",
    "brewery_type": "micro",
    "address_1": "Unit 2F",
    "address_2": "Youghal Business Park",
    "address_3": "Parkmountain",
    "city": "Youghal",
    "state_province": "Cork",
    "postal_code": "P36 ET22",
    "country": "Ireland",
    "longitude": -7.8708284,
    "latitude": 51.9535199,
    "phone": "353879878171",
    "website_url": "http://munsterbrewery.com/",
    "state": "Cork",
    "street": "Unit 2F"
  },
  {
    "id": "524ab865-1df1-4655-b19f-0eb427cfa0d6",
    "name": "Murauer Brauerei",
    "brewery_type": "large",
    "address_1": "Raffaltpl. 19",
    "address_2": null,
    "address_3": null,
    "city": "Murau",
    "state_province": "Steiermark",
    "postal_code": "8850",
    "country": "Austria",
    "longitude": 14.165060917015,
    "latitude": 47.11101605761,
    "phone": "+43353232660",
    "website_url": "https://www.murauerbier.at",
    "state": "Steiermark",
    "street": "Raffaltpl. 19"
  },
  {
    "id": "96588a03-7341-4e7d-bda7-454a3c74a3f7",
    "name": "Murphy's Brewery (Heineken)",
    "brewery_type": "large",
    "address_1": "Leitrim Street",
    "address_2": null,
    "address_3": null,
    "city": "Cork",
    "state_province": "Cork",
    "postal_code": "T23 VF78",
    "country": "Ireland",
    "longitude": -8.4750739,
    "latitude": 51.9037117,
    "phone": "353214503371",
    "website_url": "http://www.murphys.com/",
    "state": "Cork",
    "street": "Leitrim Street"
  },
  {
    "id": "8af28f23-b686-4f3f-ad7e-7962ef086450",
    "name": "Muskellunge Brewing Company",
    "brewery_type": "micro",
    "address_1": "425 5th St NW",
    "address_2": null,
    "address_3": null,
    "city": "Canton",
    "state_province": "Ohio",
    "postal_code": "44702",
    "country": "United States",
    "longitude": -81.37672433,
    "latitude": 40.80191841,
    "phone": null,
    "website_url": "http://www.muskybrewco.com",
    "state": "Ohio",
    "street": "425 5th St NW"
  },
  {
    "id": "090daff9-0723-4795-8feb-7dfa16ffb7b5",
    "name": "Mustang Sally Brewing Co",
    "brewery_type": "micro",
    "address_1": "14140 Parke Long Ct # A-C",
    "address_2": null,
    "address_3": null,
    "city": "Chantilly",
    "state_province": "Virginia",
    "postal_code": "20151-4009",
    "country": "United States",
    "longitude": null,
    "latitude": null,
    "phone": "7033787450",
    "website_url": "http://www.msbrewing.com",
    "state": "Virginia",
    "street": "14140 Parke Long Ct # A-C"
  },
  {
    "id": "d86ed112-0baa-4205-8848-7a4387b1d1ae",
    "name": "MyGrain Brewing Company",
    "brewery_type": "brewpub",
    "address_1": "50 E Jefferson St Ste 106",
    "address_2": null,
    "address_3": null,
    "city": "Joliet",
    "state_province": "Illinois",
    "postal_code": "60432-4299",
    "country": "United States",
    "longitude": null,
    "latitude": null,
    "phone": "8153453339",
    "website_url": "http://www.mygrainbrewing.com",
    "state": "Illinois",
    "street": "50 E Jefferson St Ste 106"
  },
  {
    "id": "cd8b09a9-6ebf-43a8-bd96-8b889e8b753f",
    "name": "Mystery Brewing Co",
    "brewery_type": "brewpub",
    "address_1": "437 Dimmocks Mill Rd Ste 41",
    "address_2": null,
    "address_3": null,
    "city": "Hillsborough",
    "state_province": "North Carolina",
    "postal_code": "27278-2379",
    "country": "United States",
    "longitude": -79.1135558,
    "latitude": 36.0695647,
    "phone": "9196978379",
    "website_url": "http://www.mysterybrewing.com",
    "state": "North Carolina",
    "street": "437 Dimmocks Mill Rd Ste 41"
  },
  {
    "id": "8de27ce6-0a50-4c0c-99a1-52f361e954a0",
    "name": "Mystic Brewery",
    "brewery_type": "micro",
    "address_1": "174 Williams St",
    "address_2": null,
    "address_3": null,
    "city": "Chelsea",
    "state_province": "Massachusetts",
    "postal_code": "02150-3804",
    "country": "United States",
    "longitude": -71.0445104,
    "latitude": 42.3915659,
    "phone": null,
    "website_url": null,
    "state": "Massachusetts",
    "street": "174 Williams St"
  },
  {
    "id": "8ead3533-6041-4b94-a2d3-fb2cd6493f3e",
    "name": "Myths and Legends Brewing Company",
    "brewery_type": "micro",
    "address_1": "1115 Zygmunt Cir",
    "address_2": null,
    "address_3": null,
    "city": "Westmont",
    "state_province": "Illinois",
    "postal_code": "60559-2684",
    "country": "United States",
    "longitude": -87.9817647,
    "latitude": 41.7763011,
    "phone": "6304427864",
    "website_url": "http://www.mythsandlegendsbeer.com",
    "state": "Illinois",
    "street": "1115 Zygmunt Cir"
  },
  {
    "id": "6941d5e5-667a-44ef-908e-ef167f9119eb",
    "name": "Nacogdoches Brewing Company, Inc.",
    "brewery_type": "planning",
    "address_1": null,
    "address_2": null,
    "address_3": null,
    "city": "Nacogdoches",
    "state_province": "Texas",
    "postal_code": "75964-8327",
    "country": "United States",
    "longitude": null,
    "latitude": null,
    "phone": "9365604532",
    "website_url": null,
    "state": "Texas",
    "street": null
  },
  {
    "id": "117409b7-7f6d-49cb-90de-f635ed1b9756",
    "name": "Nailers Brewing Company",
    "brewery_type": "brewpub",
    "address_1": "6001 N US Highway 31",
    "address_2": null,
    "address_3": null,
    "city": "Whiteland",
    "state_province": "Indiana",
    "postal_code": "46184",
    "country": "United States",
    "longitude": null,
    "latitude": null,
    "phone": "3172813132",
    "website_url": null,
    "state": "Indiana",
    "street": "6001 N US Highway 31"
  },
  {
    "id": "9a8aa674-ce4f-43a3-9120-b19396612cfb",
    "name": "Naked Brewing Co",
    "brewery_type": "micro",
    "address_1": "51 Buck Rd",
    "address_2": null,
    "address_3": null,
    "city": "Huntingdon Valley",
    "state_province": "Pennsylvania",
    "postal_code": "19006-1501",
    "country": "United States",
    "longitude": null,
    "latitude": null,
    "phone": "2673559561",
    "website_url": "http://www.nakedbrewingcompany.com",
    "state": "Pennsylvania",
    "street": "51 Buck Rd"
  },
  {
    "id": "94ef9e07-0ae2-4143-b85e-8ce28a0a22c4",
    "name": "Naked City Brewing Co",
    "brewery_type": "brewpub",
    "address_1": "8564 Greenwood Ave N",
    "address_2": null,
    "address_3": null,
    "city": "Seattle",
    "state_province": "Washington",
    "postal_code": "98103-3614",
    "country": "United States",
    "longitude": -122.3550832,
    "latitude": 47.6918221,
    "phone": "2068386299",
    "website_url": "http://www.nakedcitybrewing.com",
    "state": "Washington",
    "street": "8564 Greenwood Ave N"
  },
  {
    "id": "23446263-7940-42b3-a488-271188b02d0c",
    "name": "Naked Dove Brewing Company",
    "brewery_type": "micro",
    "address_1": "4048 State Route 5 and 20",
    "address_2": null,
    "address_3": null,
    "city": "Canandaigua",
    "state_province": "New York",
    "postal_code": "14424-9591",
    "country": "United States",
    "longitude": null,
    "latitude": null,
    "phone": "5853962537",
    "website_url": "http://www.nakeddovebrewing.com",
    "state": "New York",
    "street": "4048 State Route 5 and 20"
  },
  {
    "id": "79624d32-8675-4d62-87e4-6a61d7d259b1",
    "name": "Nale House Brewing Co",
    "brewery_type": "micro",
    "address_1": "32 N Main St",
    "address_2": null,
    "address_3": null,
    "city": "Medford",
    "state_province": "New Jersey",
    "postal_code": "08055-2412",
    "country": "United States",
    "longitude": -74.82362121,
    "latitude": 39.90072015,
    "phone": "6097607246",
    "website_url": "http://www.nalehousebrewing.com",
    "state": "New Jersey",
    "street": "32 N Main St"
  },
  {
    "id": "624ccbcf-ed20-42c3-8d17-2253046f82ca",
    "name": "Nano 108 Brewing Co",
    "brewery_type": "micro",
    "address_1": "2402 Waynoka Rd",
    "address_2": null,
    "address_3": null,
    "city": "Colorado Springs",
    "state_province": "Colorado",
    "postal_code": "80915-1612",
    "country": "United States",
    "longitude": null,
    "latitude": null,
    "phone": "7195962337",
    "website_url": "http://www.nano108brewing.com",
    "state": "Colorado",
    "street": "2402 Waynoka Rd"
  },
  {
    "id": "02738c45-4084-46f9-9dec-a0cbe7c9656b",
    "name": "Nano Brew Cleveland",
    "brewery_type": "brewpub",
    "address_1": "1859 W 25th St",
    "address_2": null,
    "address_3": null,
    "city": "Cleveland",
    "state_province": "Ohio",
    "postal_code": "44113",
    "country": "United States",
    "longitude": -81.7045531,
    "latitude": 41.4860486,
    "phone": "2168626631",
    "website_url": "http://www.nanobrewcleveland.com",
    "state": "Ohio",
    "street": "1859 W 25th St"
  },
  {
    "id": "910d5a63-31aa-40ba-b720-91d1c21cdb52",
    "name": "Nantahala Brewing Co",
    "brewery_type": "micro",
    "address_1": "61 Depot Street",
    "address_2": null,
    "address_3": null,
    "city": "Bryson City",
    "state_province": "North Carolina",
    "postal_code": "28713-0483",
    "country": "United States",
    "longitude": -83.446278,
    "latitude": 35.4311525,
    "phone": "8287886185",
    "website_url": "http://www.nantahalabrewing.com",
    "state": "North Carolina",
    "street": "61 Depot Street"
  },
  {
    "id": "b5546fd2-e680-4269-a348-0f174d618fb7",
    "name": "Napa Palisades Beer Company",
    "brewery_type": "proprietor",
    "address_1": "1000 Main St",
    "address_2": null,
    "address_3": null,
    "city": "Napa",
    "state_province": "California",
    "postal_code": "94559-2645",
    "country": "United States",
    "longitude": -122.285449,
    "latitude": 38.299359,
    "phone": "7072961552",
    "website_url": "http://www.napapalisadesbeer.com",
    "state": "California",
    "street": "1000 Main St"
  },
  {
    "id": "f57b8d04-75ed-419a-bfbb-949790b88ea8",
    "name": "Napa Smith Brewery",
    "brewery_type": "micro",
    "address_1": "101 Yolano Dr",
    "address_2": null,
    "address_3": null,
    "city": "Vallejo",
    "state_province": "California",
    "postal_code": "94589-2250",
    "country": "United States",
    "longitude": -122.259292,
    "latitude": 38.132142,
    "phone": "7072552912",
    "website_url": "http://www.napasmithbrewery.com",
    "state": "California",
    "street": "101 Yolano Dr"
  }
]