[
  {
    "id": "ec51ec32-1a6a-4e97-9571-70a81db3bec8",
    "name": "Brew Keepers",
    "brewery_type": "micro",
    "address_1": "2245 Market St",
    "address_2": null,
    "address_3": null,
    "city": "Wheeling",
    "state_province": "West Virginia",
    "postal_code": "26003-2866",
    "country": "United States",
    "longitude": -80.724774,
    "latitude": 40.059259,
    "phone": "7248098968",
    "website_url": "https://www.facebook.com/BrewKeepers",
    "state": "West Virginia",
    "street": "2245 Market St"
  },
  {
    "id": "faf1bc0d-9c9d-4297-95cc-40f669107751",
    "name": "Brew Kettle - Production Works",
    "brewery_type": "micro",
    "address_1": "20102 Progress Dr",
    "address_2": null,
    "address_3": null,
    "city": "Strongsville",
    "state_province": "Ohio",
    "postal_code": "44149-3259",
    "country": "United States",
    "longitude": -81.84994566,
    "latitude": 41.32637626,
    "phone": null,
    "website_url": null,
    "state": "Ohio",
    "street": "20102 Progress Dr"
  },
  {
    "id": "ca1f9cfe-a140-49ae-a24a-443173fc662a",
    "name": "Brew Lab",
    "brewery_type": "brewpub",
    "address_1": "7925 Marty St",
    "address_2": null,
    "address_3": null,
    "city": "Overland Park",
    "state_province": "Kansas",
    "postal_code": "66204-3727",
    "country": "United States",
    "longitude": -94.66993927,
    "latitude": 38.98568748,
    "phone": "9134002343",
    "website_url": "http://www.brewlabkc.com",
    "state": "Kansas",
    "street": "7925 Marty St"
  },
  {
    "id": "ff125d8f-74ad-4c15-8154-b5a4ef9d767f",
    "name": "Brew Life Brewing",
    "brewery_type": "micro",
    "address_1": "5767 Beneva Rd",
    "address_2": null,
    "address_3": null,
    "city": "Sarasota",
    "state_province": "Florida",
    "postal_code": "34233-4105",
    "country": "United States",
    "longitude": -82.49751806,
    "latitude": 27.27001312,
    "phone": "9419523831",
    "website_url": "http://www.brewlifebrewing.com",
    "state": "Florida",
    "street": "5767 Beneva Rd"
  },
  {
    "id": "4694844c-ce2d-411f-9dce-22a5ff52802d",
    "name": "Brew Link Brewing",
    "brewery_type": "proprietor",
    "address_1": "212 E. Main",
    "address_2": null,
    "address_3": null,
    "city": "Plainfield",
    "state_province": "Indiana",
    "postal_code": "46168-9659",
    "country": "United States",
    "longitude": null,
    "latitude": null,
    "phone": "3172037788",
    "website_url": "http://www.brewlinkbrewing.com",
    "state": "Indiana",
    "street": "212 E. Main"
  },
  {
    "id": "89948fc1-81d5-4b23-ad27-5730b2872e33",
    "name": "Brew Practitioners, LLC.",
    "brewery_type": "micro",
    "address_1": "36 Main St",
    "address_2": null,
    "address_3": null,
    "city": "Florence",
    "state_province": "Massachusetts",
    "postal_code": "01062-3152",
    "country": "United States",
    "longitude": null,
    "latitude": null,
    "phone": "4135842444",
    "website_url": "http://www.brewpractitioners.com",
    "state": "Massachusetts",
    "street": "36 Main St"
  },
  {
    "id": "28af5586-7124-43e6-b99c-c91bc63b90d3",
    "name": "Brew Pub and Kitchen",
    "brewery_type": "brewpub",
    "address_1": "117 W College Dr",
    "address_2": null,
    "address_3": null,
    "city": "Durango",
    "state_province": "Colorado",
    "postal_code": "81301-5407",
    "country": "United States",
    "longitude": -107.8831549,
    "latitude": 37.27036464,
    "phone": "9702595959",
    "website_url": "http://www.brewpubkitchen.com",
    "state": "Colorado",
    "street": "117 W College Dr"
  },
  {
    "id": "4f12d983-7c03-42f3-b6b3-929059fd798f",
    "name": "Brew Rebellion",
    "brewery_type": "micro",
    "address_1": "33 S San Gorgonio Ave",
    "address_2": null,
    "address_3": null,
    "city": "Banning",
    "state_province": "California",
    "postal_code": "92220-6001",
    "country": "United States",
    "longitude": -116.876825,
    "latitude": 33.92568489,
    "phone": "9519074844",
    "website_url": null,
    "state": "California",
    "street": "33 S San Gorgonio Ave"
  },
  {
    "id": "0d4f2536-6686-4da4-a456-93da2a6faf53",
    "name": "Brew Rebellion",
    "brewery_type": "closed",
    "address_1": "195 N Del Rosa Dr",
    "address_2": null,
    "address_3": null,
    "city": "San Bernardino",
    "state_province": "California",
    "postal_code": "92408",
    "country": "United States",
    "longitude": -117.2511307,
    "latitude": 34.10279311,
    "phone": "9519074844",
    "website_url": "http://www.brewrebellion.com",
    "state": "California",
    "street": "195 N Del Rosa Dr"
  },
  {
    "id": "8ecb30eb-3537-4b11-8925-b63f09a0b3c9",
    "name": "Brew Republic Bierwerks",
    "brewery_type": "brewpub",
    "address_1": "15201 Potomac Town Pl Ste 120 Stonebridge @ Potomac Town Center",
    "address_2": null,
    "address_3": null,
    "city": "Woodbridge",
    "state_province": "Virginia",
    "postal_code": "22191-6592",
    "country": "United States",
    "longitude": null,
    "latitude": null,
    "phone": "7035947950",
    "website_url": "http://brewrepublic.beer",
    "state": "Virginia",
    "street": "15201 Potomac Town Pl Ste 120 Stonebridge @ Potomac Town Center"
  },
  {
    "id": "87a67e8d-eb75-4c9a-b32d-0c4c55e884cc",
    "name": "Brew Studio",
    "brewery_type": "micro",
    "address_1": "Meadowview Road",
    "address_2": null,
    "address_3": null,
    "city": "Lancing",
    "state_province": "West Sussex",
    "postal_code": "BN15 0HU",
    "country": "England",
    "longitude": -0.330956,
    "latitude": 50.838777,
    "phone": "7980978350",
    "website_url": "https://www.brewstudio.co.uk/",
    "state": "West Sussex",
    "street": "Meadowview Road"
  },
  {
    "id": "80792259-7b13-4e7c-a574-f044714302a4",
    "name": "Brew Works of Fremont",
    "brewery_type": "brewpub",
    "address_1": "5909 S Warner Ave",
    "address_2": null,
    "address_3": null,
    "city": "Fremont",
    "state_province": "Michigan",
    "postal_code": "49412",
    "country": "United States",
    "longitude": -85.94003325,
    "latitude": 43.44380716,
    "phone": "2313355105",
    "website_url": "http://www.thecommonsoffremont.com",
    "state": "Michigan",
    "street": "5909 S Warner Ave"
  },
  {
    "id": "b41b75b3-1fda-4ccc-94b9-58ab8b9454c6",
    "name": "Brewability Lab",
    "brewery_type": "micro",
    "address_1": "12445 E 39th Ave Unit 314",
    "address_2": null,
    "address_3": null,
    "city": "Denver",
    "state_province": "Colorado",
    "postal_code": "80239-3456",
    "country": "United States",
    "longitude": null,
    "latitude": null,
    "phone": "8163515085",
    "website_url": "http://www.Brewabilitylab.com",
    "state": "Colorado",
    "street": "12445 E 39th Ave Unit 314"
  },
  {
    "id": "4d98fc4c-5c85-4cce-a092-b6d3a19ca70a",
    "name": "BrewBakers Brewery",
    "brewery_type": "micro",
    "address_1": "11927 84th St NE",
    "address_2": null,
    "address_3": null,
    "city": "Lake Stevens",
    "state_province": "Washington",
    "postal_code": "98258-8906",
    "country": "United States",
    "longitude": -122.0677165,
    "latitude": 48.07328466,
    "phone": "3606919025",
    "website_url": "http://www.brewbakersbrewery.com",
    "state": "Washington",
    "street": "11927 84th St NE"
  },
  {
    "id": "879d91a6-e62d-43e4-863f-680eb6675d5b",
    "name": "Brewbakers Brewing Co",
    "brewery_type": "brewpub",
    "address_1": "219 E Main St",
    "address_2": null,
    "address_3": null,
    "city": "Visalia",
    "state_province": "California",
    "postal_code": "93291-6355",
    "country": "United States",
    "longitude": -119.2906961,
    "latitude": 36.3300786,
    "phone": "5596272739",
    "website_url": "http://www.brewbakersbrewingco.com",
    "state": "California",
    "street": "219 E Main St"
  },
  {
    "id": "a19e46c7-9f1d-415c-995b-0415b85ca81c",
    "name": "Brewcaipa Brewing Co.",
    "brewery_type": "micro",
    "address_1": "35058 Yucaipa Blvd",
    "address_2": null,
    "address_3": null,
    "city": "Yucaipa",
    "state_province": "California",
    "postal_code": "92399-4337",
    "country": "United States",
    "longitude": -117.0403021,
    "latitude": 34.033958,
    "phone": "9092722337",
    "website_url": "http://www.brewcaipa.com",
    "state": "California",
    "street": "35058 Yucaipa Blvd"
  },
  {
    "id": "7db0fe62-fb6c-4949-9a25-d0f318959a1b",
    "name": "BrewDog Berlin Mitte",
    "brewery_type": "bar",
    "address_1": "Ackerstra\u00dfe 29",
    "address_2": null,
    "address_3": null,
    "city": "Berlin",
    "state_province": "Berlin",
    "postal_code": "10115",
    "country": "Germany",
    "longitude": 52.5170043,
    "latitude": 13.4132225,
    "phone": "493048477770",
    "website_url": "https://www.brewdog.com/eu_de/brewdog-berlin-mitte",
    "state": "Berlin",
    "street": "Ackerstra\u00dfe 29"
  },
  {
    "id": "e58d60d7-92f7-4f8d-8a1a-6d02c25a32ee",
    "name": "BrewDog Berlin Mitte",
    "brewery_type": "bar",
    "address_1": "Ackerstra\u00dfe 29",
    "address_2": null,
    "address_3": null,
    "city": "Berlin",
    "state_province": "Berlin",
    "postal_code": "10115",
    "country": "Germany",
    "longitude": 52.5170043,
    "latitude": 13.4132225,
    "phone": "493048477770",
    "website_url": "https://www.brewdog.com/eu_de/brewdog-berlin-mitte",
    "state": "Berlin",
    "street": "Ackerstra\u00dfe 29"
  },
  {
    "id": "5bf2b773-e8ae-4849-b2f7-dfc3b4163deb",
    "name": "BrewDog Brewing Company, LLC",
    "brewery_type": "micro",
    "address_1": "96 Gender Rd",
    "address_2": null,
    "address_3": null,
    "city": "Canal Winchester",
    "state_province": "Ohio",
    "postal_code": "43110-7539",
    "country": "United States",
    "longitude": -82.8311352,
    "latitude": 39.8225954,
    "phone": "6149083059",
    "website_url": "http://www.brewdog.com/usa",
    "state": "Ohio",
    "street": "96 Gender Rd"
  },
  {
    "id": "b235bb6e-ff89-4860-923a-71c5ab5f183d",
    "name": "Brewdog Short North & Kennels",
    "brewery_type": "brewpub",
    "address_1": "1175 N High St",
    "address_2": null,
    "address_3": null,
    "city": "Columbus",
    "state_province": "Ohio",
    "postal_code": "43201",
    "country": "United States",
    "longitude": -83.00579,
    "latitude": 39.98637,
    "phone": "614-908-3053",
    "website_url": "https://www.brewdog.com/",
    "state": "Ohio",
    "street": "1175 N High St"
  },
  {
    "id": "cd7c55be-0a82-43f9-bba7-b43eff43c24d",
    "name": "Brewed By Gnomes",
    "brewery_type": "contract",
    "address_1": "1735 SE 33rd Ave",
    "address_2": null,
    "address_3": null,
    "city": "Portland",
    "state_province": "Oregon",
    "postal_code": "97214-5024",
    "country": "United States",
    "longitude": -122.6308531,
    "latitude": 45.51021595,
    "phone": null,
    "website_url": null,
    "state": "Oregon",
    "street": "1735 SE 33rd Ave"
  },
  {
    "id": "61c3bf4d-95e0-4afd-8d93-b2764ae5eba5",
    "name": "Brewer's Alley Restaurant and Brewery",
    "brewery_type": "brewpub",
    "address_1": "124 N Market St",
    "address_2": null,
    "address_3": null,
    "city": "Frederick",
    "state_province": "Maryland",
    "postal_code": "21701-5422",
    "country": "United States",
    "longitude": -77.41045515,
    "latitude": 39.41607325,
    "phone": "3016310089",
    "website_url": "http://www.brewers-alley.com",
    "state": "Maryland",
    "street": "124 N Market St"
  },
  {
    "id": "a82d1b5a-b811-4252-97e4-af7887f2ffab",
    "name": "Brewerie at Union Station, The",
    "brewery_type": "brewpub",
    "address_1": "123 W 14th St",
    "address_2": null,
    "address_3": null,
    "city": "Erie",
    "state_province": "Pennsylvania",
    "postal_code": "16501-1717",
    "country": "United States",
    "longitude": -80.0819415,
    "latitude": 42.1211965,
    "phone": "8144542200",
    "website_url": "http://www.brewerie.com",
    "state": "Pennsylvania",
    "street": "123 W 14th St"
  },
  {
    "id": "3c666d47-78ff-4e4c-a1f0-c5a9aeb9ad9c",
    "name": "Brewers",
    "brewery_type": "planning",
    "address_1": null,
    "address_2": null,
    "address_3": null,
    "city": "Charlotte",
    "state_province": "North Carolina",
    "postal_code": "28217",
    "country": "United States",
    "longitude": null,
    "latitude": null,
    "phone": null,
    "website_url": null,
    "state": "North Carolina",
    "street": null
  },
  {
    "id": "7d21464e-0574-44fb-901c-2481e843d8ec",
    "name": "Brewers Tasting Room",
    "brewery_type": "brewpub",
    "address_1": "11270 4th St N Ste 202",
    "address_2": null,
    "address_3": null,
    "city": "Saint Petersburg",
    "state_province": "Florida",
    "postal_code": "33716-2937",
    "country": "United States",
    "longitude": null,
    "latitude": null,
    "phone": "7278733900",
    "website_url": "http://www.brewerstastingroom.com",
    "state": "Florida",
    "street": "11270 4th St N Ste 202"
  },
  {
    "id": "01684e03-04b3-45e2-92f8-2c6e57d49b5a",
    "name": "Brewers Union Local 180",
    "brewery_type": "brewpub",
    "address_1": "48329 E 1st St",
    "address_2": null,
    "address_3": null,
    "city": "Oakridge",
    "state_province": "Oregon",
    "postal_code": "97463-9700",
    "country": "United States",
    "longitude": -122.4568787,
    "latitude": 43.7478831,
    "phone": "5417822024",
    "website_url": "http://www.brewersunion.com",
    "state": "Oregon",
    "street": "48329 E 1st St"
  },
  {
    "id": "cfac009a-caae-4462-beb3-1f603674e2a6",
    "name": "Brewery 26",
    "brewery_type": "micro",
    "address_1": "5829 SE Powell Blvd",
    "address_2": null,
    "address_3": null,
    "city": "Portland",
    "state_province": "Oregon",
    "postal_code": "97206",
    "country": "United States",
    "longitude": -122.60275,
    "latitude": 45.49758,
    "phone": "9712548488",
    "website_url": "http://www.brewery26.com",
    "state": "Oregon",
    "street": "5829 SE Powell Blvd"
  },
  {
    "id": "9c2e1d47-fae6-463d-9f85-d95d6c6e1bdc",
    "name": "Brewery 33 Hocking Hills, LLC",
    "brewery_type": "micro",
    "address_1": "12684 College Prospect Dr",
    "address_2": null,
    "address_3": null,
    "city": "Logan",
    "state_province": "Ohio",
    "postal_code": "43138-8983",
    "country": "United States",
    "longitude": -82.44991565,
    "latitude": 39.54378185,
    "phone": null,
    "website_url": null,
    "state": "Ohio",
    "street": "12684 College Prospect Dr"
  },
  {
    "id": "4cd1320b-4f5f-4117-916f-d70be24a44bf",
    "name": "Brewery 4 Two 4",
    "brewery_type": "micro",
    "address_1": "321 Douglas Ave Ste 120",
    "address_2": null,
    "address_3": null,
    "city": "Holland",
    "state_province": "Michigan",
    "postal_code": "49424-6599",
    "country": "United States",
    "longitude": null,
    "latitude": null,
    "phone": "6163777773",
    "website_url": "http://brewery424.com",
    "state": "Michigan",
    "street": "321 Douglas Ave Ste 120"
  },
  {
    "id": "560bd628-7e50-4072-824d-9de843aeb13a",
    "name": "Brewery 719",
    "brewery_type": "micro",
    "address_1": "817 E 3rd St",
    "address_2": null,
    "address_3": null,
    "city": "Alliance",
    "state_province": "Nebraska",
    "postal_code": "69301-3945",
    "country": "United States",
    "longitude": -102.8602451,
    "latitude": 42.0971391,
    "phone": "3087612719",
    "website_url": "http://www.brewery719.com",
    "state": "Nebraska",
    "street": "817 E 3rd St"
  },
  {
    "id": "b2e61351-5eb1-45ad-b20f-f4786be4a496",
    "name": "Brewery 85",
    "brewery_type": "micro",
    "address_1": "6 Whitlee Ct",
    "address_2": null,
    "address_3": null,
    "city": "Greenville",
    "state_province": "South Carolina",
    "postal_code": "29607-3791",
    "country": "United States",
    "longitude": -82.34915005,
    "latitude": 34.8028183,
    "phone": null,
    "website_url": "http://www.brewery85.com",
    "state": "South Carolina",
    "street": "6 Whitlee Ct"
  },
  {
    "id": "affcbbea-9dce-435f-9440-d0964cebae7a",
    "name": "Brewery 99",
    "brewery_type": "micro",
    "address_1": "417 Broad St Ste F",
    "address_2": null,
    "address_3": null,
    "city": "New Bern",
    "state_province": "North Carolina",
    "postal_code": "28560-4900",
    "country": "United States",
    "longitude": null,
    "latitude": null,
    "phone": "2522596393",
    "website_url": "http://www.brewery99.com",
    "state": "North Carolina",
    "street": "417 Broad St Ste F"
  },
  {
    "id": "6b04fb31-0531-49fc-8dbf-517138e6c1dd",
    "name": "Brewery ARS",
    "brewery_type": "micro",
    "address_1": "1927-29 W Passyunk Ave",
    "address_2": null,
    "address_3": null,
    "city": "Philadelphia",
    "state_province": "Pennsylvania",
    "postal_code": "19145-3620",
    "country": "United States",
    "longitude": null,
    "latitude": null,
    "phone": "2159605173",
    "website_url": "http://breweryars.com",
    "state": "Pennsylvania",
    "street": "1927-29 W Passyunk Ave"
  },
  {
    "id": "43f8e8d9-501d-4980-bf70-e34eae21afa2",
    "name": "Brewery At Abigaile",
    "brewery_type": "brewpub",
    "address_1": "1301 Manhattan Ave",
    "address_2": null,
    "address_3": null,
    "city": "Hermosa Beach",
    "state_province": "California",
    "postal_code": "90254-3666",
    "country": "United States",
    "longitude": -118.4048656,
    "latitude": 33.8734519,
    "phone": "3107988227",
    "website_url": "http://www.abigailerestaurant.com",
    "state": "California",
    "street": "1301 Manhattan Ave"
  },
  {
    "id": "0de9defa-ecfa-45b8-90e7-0857a6f28d41",
    "name": "Brewery At Lake Tahoe",
    "brewery_type": "brewpub",
    "address_1": "3542 Lake Tahoe Blvd",
    "address_2": null,
    "address_3": null,
    "city": "South Lake Tahoe",
    "state_province": "California",
    "postal_code": "96150-8900",
    "country": "United States",
    "longitude": -119.9619157,
    "latitude": 38.94679433,
    "phone": "5305444369",
    "website_url": "http://www.brewerylaketahoe.com",
    "state": "California",
    "street": "3542 Lake Tahoe Blvd"
  },
  {
    "id": "bf4a35aa-c5ec-4f50-a64d-42400b752212",
    "name": "Brewery At Simmzys Burbank",
    "brewery_type": "brewpub",
    "address_1": "3000 W Olive Ave",
    "address_2": null,
    "address_3": null,
    "city": "Burbank",
    "state_province": "California",
    "postal_code": "91505-4537",
    "country": "United States",
    "longitude": -118.3336262,
    "latitude": 34.1572656,
    "phone": "8189622500",
    "website_url": "http://www.Simmzys.com",
    "state": "California",
    "street": "3000 W Olive Ave"
  },
  {
    "id": "14864393-a19e-42f2-81ef-bf28407a3571",
    "name": "Brewery At The Culinary Institute Of America",
    "brewery_type": "brewpub",
    "address_1": "1946 Campus Dr",
    "address_2": null,
    "address_3": null,
    "city": "Hyde Park",
    "state_province": "New York",
    "postal_code": "12538",
    "country": "United States",
    "longitude": -73.9331926,
    "latitude": 41.7459268,
    "phone": null,
    "website_url": null,
    "state": "New York",
    "street": "1946 Campus Dr"
  },
  {
    "id": "783c1657-bb0f-4718-87eb-676a8094d167",
    "name": "Brewery Becker",
    "brewery_type": "brewpub",
    "address_1": "500 W Main St",
    "address_2": null,
    "address_3": null,
    "city": "Brighton",
    "state_province": "Michigan",
    "postal_code": "48116-1471",
    "country": "United States",
    "longitude": -83.785481,
    "latitude": 42.529522,
    "phone": "8108440225",
    "website_url": "http://www.brauereibecker.us",
    "state": "Michigan",
    "street": "500 W Main St"
  },
  {
    "id": "cbdfe3ef-928c-4444-b5f1-c1a2fcd3e14b",
    "name": "Brewery Bhavana",
    "brewery_type": "micro",
    "address_1": "218 S Blount St",
    "address_2": null,
    "address_3": null,
    "city": "Raleigh",
    "state_province": "North Carolina",
    "postal_code": "27601",
    "country": "United States",
    "longitude": -78.6366938,
    "latitude": 35.77786298,
    "phone": "4154701370",
    "website_url": "http://brewerybhavana.com",
    "state": "North Carolina",
    "street": "218 S Blount St"
  },
  {
    "id": "195554b8-264d-43d6-b26d-6bee62c41a8f",
    "name": "Brewery Draconum",
    "brewery_type": "micro",
    "address_1": "24407 Main St # 09",
    "address_2": null,
    "address_3": null,
    "city": "Newhall",
    "state_province": "California",
    "postal_code": "91321-2801",
    "country": "United States",
    "longitude": -118.5298732,
    "latitude": 34.38122051,
    "phone": "6619931846",
    "website_url": null,
    "state": "California",
    "street": "24407 Main St # 09"
  },
  {
    "id": "88977bac-d0ac-41b8-bcde-bfc17bb0d043",
    "name": "Brewery Emperial",
    "brewery_type": "brewpub",
    "address_1": "1829 Oak St",
    "address_2": null,
    "address_3": null,
    "city": "Kansas City",
    "state_province": "Missouri",
    "postal_code": "64108",
    "country": "United States",
    "longitude": -94.57886314,
    "latitude": 39.09119471,
    "phone": "8169459625",
    "website_url": "http://www.breweryemperial.com",
    "state": "Missouri",
    "street": "1829 Oak St"
  },
  {
    "id": "e0bf1313-ecf0-45c9-8b70-8ed121ec6a27",
    "name": "Brewery Faisan",
    "brewery_type": "planning",
    "address_1": null,
    "address_2": null,
    "address_3": null,
    "city": "Detroit",
    "state_province": "Michigan",
    "postal_code": "48207",
    "country": "United States",
    "longitude": null,
    "latitude": null,
    "phone": "5867032030",
    "website_url": "http://www.breweryfaisan.com",
    "state": "Michigan",
    "street": null
  },
  {
    "id": "189be7db-796b-40db-87bf-daac88a4fac7",
    "name": "Brewery Ferment",
    "brewery_type": "micro",
    "address_1": "511 S Union St",
    "address_2": null,
    "address_3": null,
    "city": "Traverse City",
    "state_province": "Michigan",
    "postal_code": "49684-3246",
    "country": "United States",
    "longitude": -85.62353552,
    "latitude": 44.75888715,
    "phone": "2317358113",
    "website_url": "http://www.breweryferment.com",
    "state": "Michigan",
    "street": "511 S Union St"
  },
  {
    "id": "46f3fd8a-7cf1-489d-a8e5-de47f92ac020",
    "name": "Brewery Legitimus",
    "brewery_type": "micro",
    "address_1": "283 Main St",
    "address_2": null,
    "address_3": null,
    "city": "New Hartford",
    "state_province": "Connecticut",
    "postal_code": "06057-2750",
    "country": "United States",
    "longitude": null,
    "latitude": null,
    "phone": "8608108894",
    "website_url": "http://www.brewerylegitimus.com",
    "state": "Connecticut",
    "street": "283 Main St"
  },
  {
    "id": "ece3c7b9-4049-4a2d-b24e-d805797f9c3b",
    "name": "Brewery Ommegang",
    "brewery_type": "regional",
    "address_1": "656 County Highway 33",
    "address_2": null,
    "address_3": null,
    "city": "Cooperstown",
    "state_province": "New York",
    "postal_code": "13326-4737",
    "country": "United States",
    "longitude": -74.855063,
    "latitude": 42.753418,
    "phone": "8005441809",
    "website_url": "http://www.ommegang.com",
    "state": "New York",
    "street": "656 County Highway 33"
  },
  {
    "id": "cdc4b4be-ac3e-4ee8-8d93-87e0d8f14f0c",
    "name": "Brewery Resolute",
    "brewery_type": "planning",
    "address_1": null,
    "address_2": null,
    "address_3": null,
    "city": "Stevens Point",
    "state_province": "Wisconsin",
    "postal_code": "54481-1843",
    "country": "United States",
    "longitude": null,
    "latitude": null,
    "phone": "7153214617",
    "website_url": null,
    "state": "Wisconsin",
    "street": null
  },
  {
    "id": "7086390e-9e2a-4730-a80c-0e4861967701",
    "name": "Brewery Rickoli",
    "brewery_type": "micro",
    "address_1": "4335 Wadsworth Blvd",
    "address_2": null,
    "address_3": null,
    "city": "Wheat Ridge",
    "state_province": "Colorado",
    "postal_code": "80033-4621",
    "country": "United States",
    "longitude": -105.0818046,
    "latitude": 39.7757286,
    "phone": "3034316862",
    "website_url": "http://www.breweryrickoli.com",
    "state": "Colorado",
    "street": "4335 Wadsworth Blvd"
  },
  {
    "id": "e193cecd-958f-4820-97d3-df215dea84b5",
    "name": "Brewery Silvaticus",
    "brewery_type": "brewpub",
    "address_1": "9 Water St",
    "address_2": null,
    "address_3": null,
    "city": "Amesbury",
    "state_province": "Massachusetts",
    "postal_code": "01913-2936",
    "country": "United States",
    "longitude": -70.9295559,
    "latitude": 42.8573815,
    "phone": "9785042337",
    "website_url": "http://www.silvaticusbeers.com",
    "state": "Massachusetts",
    "street": "9 Water St"
  },
  {
    "id": "b6de3e97-fdec-4ac0-924d-5775fa7006bf",
    "name": "Brewery Terra Firma",
    "brewery_type": "micro",
    "address_1": "2959 Hartman Rd",
    "address_2": null,
    "address_3": null,
    "city": "Traverse City",
    "state_province": "Michigan",
    "postal_code": "49685-8838",
    "country": "United States",
    "longitude": -85.63510581,
    "latitude": 44.71509875,
    "phone": "2319291600",
    "website_url": "http://www.breweryterrafirma.com",
    "state": "Michigan",
    "street": "2959 Hartman Rd"
  },
  {
    "id": "3b19690b-d08f-4648-947e-d182ad865593",
    "name": "Brewery Twenty Five",
    "brewery_type": "micro",
    "address_1": "106 3rd St",
    "address_2": null,
    "address_3": null,
    "city": "Hollister",
    "state_province": "California",
    "postal_code": "95023",
    "country": "United States",
    "longitude": -121.4008369,
    "latitude": 36.85359382,
    "phone": "8316367640",
    "website_url": "http://www.brewerytwentyfive.com",
    "state": "California",
    "street": "106 3rd St"
  }
]