[
  {
    "id": "760581e5-1ed8-452e-82e5-4a845f088c12",
    "name": "Lake Effect Brewing Company",
    "brewery_type": "micro",
    "address_1": "4727 W Montrose Ave",
    "address_2": null,
    "address_3": null,
    "city": "Chicago",
    "state_province": "Illinois",
    "postal_code": "60641-1504",
    "country": "United States",
    "longitude": -87.7459687,
    "latitude": 41.9604369,
    "phone": "3129194473",
    "website_url": "http://www.lakeeffectbrewing.com",
    "state": "Illinois",
    "street": "4727 W Montrose Ave"
  },
  {
    "id": "5fbb8bd8-de7e-4a7c-be21-f5f291e84026",
    "name": "Lake Gaston Brewing Company",
    "brewery_type": "brewpub",
    "address_1": "124 Hay St",
    "address_2": null,
    "address_3": null,
    "city": "Fayetteville",
    "state_province": "North Carolina",
    "postal_code": "28301-5650",
    "country": "United States",
    "longitude": -78.87881455,
    "latitude": 35.0528321,
    "phone": "9107790444",
    "website_url": "http://www.lakegastonbrew.com",
    "state": "North Carolina",
    "street": "124 Hay St"
  },
  {
    "id": "3466a4a4-b6dc-4aa5-b3bd-0277c3105e39",
    "name": "Lake George Beer Hub",
    "brewery_type": "micro",
    "address_1": "1043 State Route 9",
    "address_2": null,
    "address_3": null,
    "city": "Queensbury",
    "state_province": "New York",
    "postal_code": "12804-1374",
    "country": "United States",
    "longitude": null,
    "latitude": null,
    "phone": "5182230372",
    "website_url": "http://www.lakegeorgebrewingcompany.com",
    "state": "New York",
    "street": "1043 State Route 9"
  },
  {
    "id": "07b2c580-d9ef-4618-a2d4-bcbf4799a854",
    "name": "Lake Louie Brewing Co",
    "brewery_type": "micro",
    "address_1": "7556 Pine Rd",
    "address_2": null,
    "address_3": null,
    "city": "Arena",
    "state_province": "Wisconsin",
    "postal_code": "53503-9236",
    "country": "United States",
    "longitude": -89.93226918,
    "latitude": 43.17299719,
    "phone": "6087532675",
    "website_url": "http://www.lakelouie.com",
    "state": "Wisconsin",
    "street": "7556 Pine Rd"
  },
  {
    "id": "fa5713fd-507f-458e-bf79-0e4f552281f4",
    "name": "Lake Monster Brewing",
    "brewery_type": "micro",
    "address_1": "550 Vandalia St Ste 160",
    "address_2": null,
    "address_3": null,
    "city": "Saint Paul",
    "state_province": "Minnesota",
    "postal_code": "55114-1997",
    "country": "United States",
    "longitude": -93.19071829,
    "latitude": 44.95927578,
    "phone": null,
    "website_url": null,
    "state": "Minnesota",
    "street": "550 Vandalia St Ste 160"
  },
  {
    "id": "00745d83-0317-4c50-bb86-df7f6a98220b",
    "name": "Lake of the Woods Brewing Company",
    "brewery_type": "planning",
    "address_1": null,
    "address_2": null,
    "address_3": null,
    "city": "Williams",
    "state_province": "Minnesota",
    "postal_code": "56686-4652",
    "country": "United States",
    "longitude": null,
    "latitude": null,
    "phone": "8074682337",
    "website_url": null,
    "state": "Minnesota",
    "street": null
  },
  {
    "id": "2122a24b-761a-40e0-aed7-5ed13881fe48",
    "name": "Lake Placid Pub and Brewery",
    "brewery_type": "brewpub",
    "address_1": "813 Mirror Lake Dr",
    "address_2": null,
    "address_3": null,
    "city": "Lake Placid",
    "state_province": "New York",
    "postal_code": "12946-3829",
    "country": "United States",
    "longitude": -73.98108306,
    "latitude": 44.28340973,
    "phone": "5185233813",
    "website_url": "http://www.ubuale.com",
    "state": "New York",
    "street": "813 Mirror Lake Dr"
  },
  {
    "id": "54a9a10c-dd29-45f7-8b67-0a0c7b6ad2b6",
    "name": "Lake Rat Brewing",
    "brewery_type": "brewpub",
    "address_1": "108 S Main St",
    "address_2": null,
    "address_3": null,
    "city": "Celina",
    "state_province": "Ohio",
    "postal_code": "45822",
    "country": "United States",
    "longitude": -84.57069367,
    "latitude": 40.54820057,
    "phone": "4197331830",
    "website_url": "http://www.lakeratbrewing.com",
    "state": "Ohio",
    "street": "108 S Main St"
  },
  {
    "id": "4d099da0-bbe4-4a93-8d4f-f9e2cc12653a",
    "name": "Lake St Brewing",
    "brewery_type": "planning",
    "address_1": null,
    "address_2": null,
    "address_3": null,
    "city": "Oak Park",
    "state_province": "Illinois",
    "postal_code": "60302-1355",
    "country": "United States",
    "longitude": null,
    "latitude": null,
    "phone": "7732512125",
    "website_url": null,
    "state": "Illinois",
    "street": null
  },
  {
    "id": "249b9b41-61c6-47da-855e-41bc35e43bcb",
    "name": "Lake St George Brewing Company",
    "brewery_type": "micro",
    "address_1": "4 Marshall Shore Rd",
    "address_2": null,
    "address_3": null,
    "city": "Liberty",
    "state_province": "Maine",
    "postal_code": "04949",
    "country": "United States",
    "longitude": null,
    "latitude": null,
    "phone": "2075893031",
    "website_url": "http://www.lakestgeorgebrewing.com",
    "state": "Maine",
    "street": "4 Marshall Shore Rd"
  },
  {
    "id": "6f495faa-5c38-45f5-987e-c2201ea1c206",
    "name": "Lake Stevens Brewing Company",
    "brewery_type": "micro",
    "address_1": "2010 Grade Rd",
    "address_2": null,
    "address_3": null,
    "city": "Lake Stevens",
    "state_province": "Washington",
    "postal_code": "98258-9182",
    "country": "United States",
    "longitude": -122.0632552,
    "latitude": 48.01611072,
    "phone": "3605243678",
    "website_url": "https://www.lakestevensbrewingco.com",
    "state": "Washington",
    "street": "2010 Grade Rd"
  },
  {
    "id": "259fd742-dcfc-4a77-90dc-78e89103fef9",
    "name": "Lake Superior Brewing Co",
    "brewery_type": "micro",
    "address_1": "2711 W Superior St Ste 204",
    "address_2": null,
    "address_3": null,
    "city": "Duluth",
    "state_province": "Minnesota",
    "postal_code": "55806-1893",
    "country": "United States",
    "longitude": null,
    "latitude": null,
    "phone": "2187234000",
    "website_url": "http://www.lakesuperiorbrewing.com",
    "state": "Minnesota",
    "street": "2711 W Superior St Ste 204"
  },
  {
    "id": "39958031-1672-4ef4-aa2f-c143a352ae05",
    "name": "Lake Superior Brewing Co",
    "brewery_type": "brewpub",
    "address_1": "N-14283 Lake Avenue",
    "address_2": null,
    "address_3": null,
    "city": "Grand Marais",
    "state_province": "Michigan",
    "postal_code": "49839",
    "country": "United States",
    "longitude": null,
    "latitude": null,
    "phone": "9064942337",
    "website_url": "http://www.grandmaraismichigan.com/LSBC",
    "state": "Michigan",
    "street": "N-14283 Lake Avenue"
  },
  {
    "id": "b7c67a98-42bc-4fd8-a7f8-d60527385c1e",
    "name": "Lake Tahoe AleWorX",
    "brewery_type": "micro",
    "address_1": "2050 Lake Tahoe Blvd",
    "address_2": null,
    "address_3": null,
    "city": "South Lake Tahoe",
    "state_province": "California",
    "postal_code": "96150-6404",
    "country": "United States",
    "longitude": -120.0019957,
    "latitude": 38.91476209,
    "phone": "5306000442",
    "website_url": "http://www.laketahoealeworx.com",
    "state": "California",
    "street": "2050 Lake Tahoe Blvd"
  },
  {
    "id": "9e2794b8-6979-455c-9abf-d59473456d65",
    "name": "Lake Texoma Lodge And Resort",
    "brewery_type": "brewpub",
    "address_1": "3263 US 70",
    "address_2": null,
    "address_3": null,
    "city": "Mead",
    "state_province": "Oklahoma",
    "postal_code": "73449-5020",
    "country": "United States",
    "longitude": -96.488335,
    "latitude": 33.998197,
    "phone": "5809310100",
    "website_url": "http://laketexomalodge.com",
    "state": "Oklahoma",
    "street": "3263 US 70"
  },
  {
    "id": "dff1b174-0608-4025-9d5c-dcc38fc05944",
    "name": "Lake Time Brewery",
    "brewery_type": "micro",
    "address_1": "801 Main Ave Ste C",
    "address_2": null,
    "address_3": null,
    "city": "Clear Lake",
    "state_province": "Iowa",
    "postal_code": "50428-1919",
    "country": "United States",
    "longitude": -93.378387,
    "latitude": 43.137066,
    "phone": "6413572040",
    "website_url": "http://www.laketimebrewery.com",
    "state": "Iowa",
    "street": "801 Main Ave Ste C"
  },
  {
    "id": "ca3ec22e-8fdc-4437-9de0-d7af9e5cb382",
    "name": "Lake Tribe Brewing",
    "brewery_type": "micro",
    "address_1": "3357 Garber Dr Unit 4",
    "address_2": null,
    "address_3": null,
    "city": "Tallahassee",
    "state_province": "Florida",
    "postal_code": "32303-1123",
    "country": "United States",
    "longitude": null,
    "latitude": null,
    "phone": null,
    "website_url": "http://www.laketribebrewing.com",
    "state": "Florida",
    "street": "3357 Garber Dr Unit 4"
  },
  {
    "id": "fad85278-37f6-437b-b9bc-825f20882475",
    "name": "Lakefront Brewery Inc",
    "brewery_type": "regional",
    "address_1": "1872 N Commerce St",
    "address_2": null,
    "address_3": null,
    "city": "Milwaukee",
    "state_province": "Wisconsin",
    "postal_code": "53212-3701",
    "country": "United States",
    "longitude": -87.9051723,
    "latitude": 43.0547874,
    "phone": "4143728800",
    "website_url": "http://www.lakefrontbrewery.com",
    "state": "Wisconsin",
    "street": "1872 N Commerce St"
  },
  {
    "id": "613ec22c-761a-4d9b-bfa6-548d6349b1c0",
    "name": "Lakes & Legends Brewing Company",
    "brewery_type": "micro",
    "address_1": "1368 Lasalle Ave",
    "address_2": null,
    "address_3": null,
    "city": "Minneapolis",
    "state_province": "Minnesota",
    "postal_code": "55403-2316",
    "country": "United States",
    "longitude": -93.2794629,
    "latitude": 44.9689387,
    "phone": "6129996020",
    "website_url": "http://www.lakesandlegends.com",
    "state": "Minnesota",
    "street": "1368 Lasalle Ave"
  },
  {
    "id": "f4c82777-00d8-43b8-905f-ebec11e16795",
    "name": "Lakeville Brewing Co., LLC",
    "brewery_type": "brewpub",
    "address_1": "8790 Upper 208th Street W",
    "address_2": null,
    "address_3": null,
    "city": "Lakeville",
    "state_province": "Minnesota",
    "postal_code": "55044",
    "country": "United States",
    "longitude": -93.2438161,
    "latitude": 44.6477282,
    "phone": "9524692739",
    "website_url": "http://www.lakevillebrewing.com",
    "state": "Minnesota",
    "street": "8790 Upper 208th Street W"
  },
  {
    "id": "98fbb597-d6b0-4bf9-8029-4854766c568f",
    "name": "Lakewood Brewing Co",
    "brewery_type": "micro",
    "address_1": "2302 Executive Dr",
    "address_2": null,
    "address_3": null,
    "city": "Garland",
    "state_province": "Texas",
    "postal_code": "75041-6121",
    "country": "United States",
    "longitude": -96.6813726,
    "latitude": 32.88842285,
    "phone": "9728642337",
    "website_url": "http://www.lakewoodbrewing.com",
    "state": "Texas",
    "street": "2302 Executive Dr"
  },
  {
    "id": "52ea2f4a-4fa3-4b6e-9c96-bd89a8689d16",
    "name": "Lamplighter Brewing Co.",
    "brewery_type": "micro",
    "address_1": "284 Broadway",
    "address_2": null,
    "address_3": null,
    "city": "Cambridge",
    "state_province": "Massachusetts",
    "postal_code": "02139-1808",
    "country": "United States",
    "longitude": null,
    "latitude": null,
    "phone": "6179450450",
    "website_url": "http://www.lamplighterbrewing.com",
    "state": "Massachusetts",
    "street": "284 Broadway"
  },
  {
    "id": "8e0083cf-6e94-4d89-81ab-0c3ec0dfd83c",
    "name": "Lancaster Brewing Co",
    "brewery_type": "micro",
    "address_1": "302 N Plum St # 304",
    "address_2": null,
    "address_3": null,
    "city": "Lancaster",
    "state_province": "Pennsylvania",
    "postal_code": "17602-2402",
    "country": "United States",
    "longitude": -76.29853301,
    "latitude": 40.0438635,
    "phone": "7173916258",
    "website_url": "http://www.lancasterbrewing.com",
    "state": "Pennsylvania",
    "street": "302 N Plum St # 304"
  },
  {
    "id": "1405d04f-3c3d-4c07-8fae-d7a9e7187c09",
    "name": "Land Run Craft Brewing Co.",
    "brewery_type": "planning",
    "address_1": null,
    "address_2": null,
    "address_3": null,
    "city": "El Reno",
    "state_province": "Oklahoma",
    "postal_code": "73036-1019",
    "country": "United States",
    "longitude": null,
    "latitude": null,
    "phone": "4056267176",
    "website_url": null,
    "state": "Oklahoma",
    "street": null
  },
  {
    "id": "045c0c63-50a7-423d-b65a-681179f870e9",
    "name": "Land-Grant Brewing Company",
    "brewery_type": "micro",
    "address_1": "424 W Town St",
    "address_2": null,
    "address_3": null,
    "city": "Columbus",
    "state_province": "Ohio",
    "postal_code": "43215-4040",
    "country": "United States",
    "longitude": -83.01150763,
    "latitude": 39.95787195,
    "phone": "2169562634",
    "website_url": "http://www.landgrantbrewing.com",
    "state": "Ohio",
    "street": "424 W Town St"
  },
  {
    "id": "7bd1ef5b-ae67-445a-a4ea-72700db24150",
    "name": "Lander Brewing Co",
    "brewery_type": "brewpub",
    "address_1": "148 Main St",
    "address_2": null,
    "address_3": null,
    "city": "Lander",
    "state_province": "Wyoming",
    "postal_code": "82520-3126",
    "country": "United States",
    "longitude": -108.739316,
    "latitude": 42.8348632,
    "phone": "3073328227",
    "website_url": "http://www.landerbrewing.com",
    "state": "Wyoming",
    "street": "148 Main St"
  },
  {
    "id": "0d571efd-3562-4e7a-8b73-728e3929c416",
    "name": "Landlocked Ales",
    "brewery_type": "micro",
    "address_1": "3225 S Wadsworth Blvd Unit R",
    "address_2": null,
    "address_3": null,
    "city": "Lakewood",
    "state_province": "Colorado",
    "postal_code": "80227-5009",
    "country": "United States",
    "longitude": null,
    "latitude": null,
    "phone": "3032848748",
    "website_url": "http://www.landlockedales.com",
    "state": "Colorado",
    "street": "3225 S Wadsworth Blvd Unit R"
  },
  {
    "id": "60f5240c-7860-4044-99fc-a537b1c3296a",
    "name": "Landon Winery",
    "brewery_type": "micro",
    "address_1": "2508 Lee Street",
    "address_2": null,
    "address_3": null,
    "city": "Greenville",
    "state_province": "Texas",
    "postal_code": "75401",
    "country": "United States",
    "longitude": -96.10598813,
    "latitude": 33.13987105,
    "phone": "9034547878",
    "website_url": "http://www.landonwinery.com",
    "state": "Texas",
    "street": "2508 Lee Street"
  },
  {
    "id": "602d2208-7f70-4996-b6cd-2e7b12f1be66",
    "name": "Lanikai Brewing Co",
    "brewery_type": "micro",
    "address_1": "175-C Hamakua Dr",
    "address_2": null,
    "address_3": null,
    "city": "Kailua",
    "state_province": "Hawaii",
    "postal_code": "96734",
    "country": "United States",
    "longitude": -157.7403266,
    "latitude": 21.39044286,
    "phone": null,
    "website_url": "https://www.lanikaibrewing.com",
    "state": "Hawaii",
    "street": "175-C Hamakua Dr"
  },
  {
    "id": "8a3a7075-3f20-4947-b093-b685a18caf7e",
    "name": "Lansing Brewing Company",
    "brewery_type": "brewpub",
    "address_1": "518 E Shiawassee St",
    "address_2": null,
    "address_3": null,
    "city": "Lansing",
    "state_province": "Michigan",
    "postal_code": "48912-1214",
    "country": "United States",
    "longitude": -84.5455093,
    "latitude": 42.7368424,
    "phone": "5175996001",
    "website_url": null,
    "state": "Michigan",
    "street": "518 E Shiawassee St"
  },
  {
    "id": "6f57d1be-a7fb-456c-979c-cf4cda27f63d",
    "name": "Lantern Brewing",
    "brewery_type": "micro",
    "address_1": "938 N 95th St",
    "address_2": null,
    "address_3": null,
    "city": "Seattle",
    "state_province": "Washington",
    "postal_code": "98103-3206",
    "country": "United States",
    "longitude": -122.3455994,
    "latitude": 47.6980806,
    "phone": "2067295350",
    "website_url": "http://www.lanternbrewing.com",
    "state": "Washington",
    "street": "938 N 95th St"
  },
  {
    "id": "498336ae-d10e-4598-a7f8-74a60ebb1312",
    "name": "LaOtto Brewing LLC",
    "brewery_type": "brewpub",
    "address_1": "202 S Main St",
    "address_2": null,
    "address_3": null,
    "city": "Laotto",
    "state_province": "Indiana",
    "postal_code": "46763-4800",
    "country": "United States",
    "longitude": null,
    "latitude": null,
    "phone": "2608973360",
    "website_url": null,
    "state": "Indiana",
    "street": "202 S Main St"
  },
  {
    "id": "ea302610-7ff2-449c-acda-074e4610143c",
    "name": "Lariat Lodge Brewing",
    "brewery_type": "brewpub",
    "address_1": "27618 Fireweed Dr",
    "address_2": null,
    "address_3": null,
    "city": "Evergreen",
    "state_province": "Colorado",
    "postal_code": "80439-8462",
    "country": "United States",
    "longitude": -105.3136925,
    "latitude": 39.63935145,
    "phone": "3036741842",
    "website_url": "http://www.LariatLodgeBrewing.com",
    "state": "Colorado",
    "street": "27618 Fireweed Dr"
  },
  {
    "id": "97e95da5-4527-40fa-9690-2d195561b45e",
    "name": "Lark Brewing",
    "brewery_type": "brewpub",
    "address_1": "3295 University Ave",
    "address_2": null,
    "address_3": null,
    "city": "Waterloo",
    "state_province": "Iowa",
    "postal_code": "50701-2003",
    "country": "United States",
    "longitude": -92.39002129,
    "latitude": 42.50147007,
    "phone": "3192385275",
    "website_url": "http://www.larkbrewing.com",
    "state": "Iowa",
    "street": "3295 University Ave"
  },
  {
    "id": "d1cb16f8-70d9-4819-aea9-75c9ed9f959a",
    "name": "Larrabee Lager Co",
    "brewery_type": "brewpub",
    "address_1": "4151 Meridian St",
    "address_2": "Suite 100",
    "address_3": null,
    "city": "Bellingham",
    "state_province": "Washington",
    "postal_code": "98226",
    "country": "United States",
    "longitude": -122.490476,
    "latitude": 48.791769,
    "phone": "3606565768",
    "website_url": "https://www.larrabeelagerco.com/",
    "state": "Washington",
    "street": "4151 Meridian St"
  },
  {
    "id": "540e67b5-83ff-427b-a3d6-5e8fb187ad81",
    "name": "Larrikin Beer",
    "brewery_type": "brewpub",
    "address_1": "Belfast Street",
    "address_2": null,
    "address_3": null,
    "city": "Hove",
    "state_province": "East Sussex",
    "postal_code": "BN3 3YS",
    "country": "England",
    "longitude": -0.175401,
    "latitude": 50.830522,
    "phone": "1273241881",
    "website_url": "https://www.urchinpub.co.uk/",
    "state": "East Sussex",
    "street": "Belfast Street"
  },
  {
    "id": "ac58a585-c2cf-4ac8-861b-2a45acba63a7",
    "name": "Las Cazuelas Brewing",
    "brewery_type": "brewpub",
    "address_1": "4051 Sara Rd SE",
    "address_2": null,
    "address_3": null,
    "city": "Rio Rancho",
    "state_province": "New Mexico",
    "postal_code": "87124-1031",
    "country": "United States",
    "longitude": -106.6559686,
    "latitude": 35.23142306,
    "phone": "5059949364",
    "website_url": "http://www.cazuelasmexicangrill.com",
    "state": "New Mexico",
    "street": "4051 Sara Rd SE"
  },
  {
    "id": "6122eb31-07f0-4546-9067-651dd3ef684a",
    "name": "Lassen Ale Works @ The Pioneer Saloon",
    "brewery_type": "brewpub",
    "address_1": "724 Main St",
    "address_2": null,
    "address_3": null,
    "city": "Susanville",
    "state_province": "California",
    "postal_code": "96130-4372",
    "country": "United States",
    "longitude": -120.6326661,
    "latitude": 40.4055904,
    "phone": "5302577666",
    "website_url": "http://www.lassenaleworks.com",
    "state": "California",
    "street": "724 Main St"
  },
  {
    "id": "2533ff4b-6bf8-4219-88c6-4eb45865e467",
    "name": "Last Call Brewing Co",
    "brewery_type": "micro",
    "address_1": "944 Shepard Ct Ste C",
    "address_2": null,
    "address_3": null,
    "city": "Oakdale",
    "state_province": "California",
    "postal_code": "95361-7785",
    "country": "United States",
    "longitude": -120.8501901,
    "latitude": 37.76676049,
    "phone": "8885125592",
    "website_url": "http://www.lastcallbrewing.com",
    "state": "California",
    "street": "944 Shepard Ct Ste C"
  },
  {
    "id": "347f8eaf-8de7-4f8d-9055-7bb3d9634210",
    "name": "Last Chair Brewery & Restaurant",
    "brewery_type": "brewpub",
    "address_1": "5 NH-25",
    "address_2": null,
    "address_3": null,
    "city": "Plymouth",
    "state_province": "New Hampshire",
    "postal_code": "03264",
    "country": "United States",
    "longitude": null,
    "latitude": null,
    "phone": "6032389545",
    "website_url": "https://www.thelastchairnh.com/",
    "state": "New Hampshire",
    "street": "5 NH-25"
  },
  {
    "id": "dc24a14b-053d-4ce8-9f70-00cff94ed4a6",
    "name": "Last Days of Autumn Brewing",
    "brewery_type": "brewpub",
    "address_1": "808 E Magnolia Ave",
    "address_2": null,
    "address_3": null,
    "city": "Knoxville",
    "state_province": "Tennessee",
    "postal_code": "37917-7637",
    "country": "United States",
    "longitude": -83.914805,
    "latitude": 35.97603,
    "phone": "8652024298",
    "website_url": "http://www.lastdaysofautumn.com",
    "state": "Tennessee",
    "street": "808 E Magnolia Ave"
  },
  {
    "id": "d08ba7d7-3d15-4127-bd79-89f9f482efd3",
    "name": "Last Frontier Brewing Company",
    "brewery_type": "brewpub",
    "address_1": "238 N Boundary St",
    "address_2": null,
    "address_3": null,
    "city": "Wasilla",
    "state_province": "Alaska",
    "postal_code": "99654-7127",
    "country": "United States",
    "longitude": -149.4395534,
    "latitude": 61.581483,
    "phone": "9073577200",
    "website_url": "https://lastfrontierbrew.com",
    "state": "Alaska",
    "street": "238 N Boundary St"
  },
  {
    "id": "841cd723-8ea8-449b-ac58-cab18ba0360d",
    "name": "Last Mile Brewery",
    "brewery_type": "micro",
    "address_1": "221 Swanzey St Unit F",
    "address_2": null,
    "address_3": null,
    "city": "Keystone",
    "state_province": "South Dakota",
    "postal_code": "57751-2042",
    "country": "United States",
    "longitude": -103.4237317,
    "latitude": 43.89448562,
    "phone": null,
    "website_url": "http://lastmilebeer.com",
    "state": "South Dakota",
    "street": "221 Swanzey St Unit F"
  },
  {
    "id": "12327675-9ad1-496a-90b9-d3d46a68b8b1",
    "name": "Last Mile Brewery",
    "brewery_type": "micro",
    "address_1": "635 Creek Dr Unit C",
    "address_2": null,
    "address_3": null,
    "city": "Rapid City",
    "state_province": "South Dakota",
    "postal_code": "57703-4012",
    "country": "United States",
    "longitude": -103.1866638,
    "latitude": 44.07909761,
    "phone": null,
    "website_url": "http://lastmilebeer.com",
    "state": "South Dakota",
    "street": "635 Creek Dr Unit C"
  },
  {
    "id": "ba33dfcc-f926-4762-9d58-62cfcbfa1c5b",
    "name": "Last Name Brewing",
    "brewery_type": "micro",
    "address_1": "2120 Porterfield Way",
    "address_2": null,
    "address_3": null,
    "city": "Upland",
    "state_province": "California",
    "postal_code": "91786-2111",
    "country": "United States",
    "longitude": -117.690875,
    "latitude": 34.10932596,
    "phone": "9095790032",
    "website_url": "http://www.lastnamebrewing.com",
    "state": "California",
    "street": "2120 Porterfield Way"
  },
  {
    "id": "940ff56d-c454-425a-9de1-ceda447405af",
    "name": "Last Stand Brewing Company",
    "brewery_type": "micro",
    "address_1": "12345 Pauls Valley Rd",
    "address_2": null,
    "address_3": null,
    "city": "Austin",
    "state_province": "Texas",
    "postal_code": "78737-9615",
    "country": "United States",
    "longitude": null,
    "latitude": null,
    "phone": "5123733629",
    "website_url": "http://www.laststandbrewing.com",
    "state": "Texas",
    "street": "12345 Pauls Valley Rd"
  },
  {
    "id": "56d73bd8-c80f-48e6-8b26-fa2121896823",
    "name": "Last Wave Brewing Co",
    "brewery_type": "micro",
    "address_1": "601 Bay Ave",
    "address_2": null,
    "address_3": null,
    "city": "Point Pleasant Beach",
    "state_province": "New Jersey",
    "postal_code": "08742-2536",
    "country": "United States",
    "longitude": -74.051905,
    "latitude": 40.089573,
    "phone": "7329035278",
    "website_url": "http://www.lastwavebrewing.com",
    "state": "New Jersey",
    "street": "601 Bay Ave"
  },
  {
    "id": "0e175a90-d11f-4089-8170-0218afe784d8",
    "name": "Lasting Brass Craft Brewing",
    "brewery_type": "micro",
    "address_1": "1864 Watertown Ave",
    "address_2": null,
    "address_3": null,
    "city": "Oakville",
    "state_province": "Connecticut",
    "postal_code": "06779-1754",
    "country": "United States",
    "longitude": -73.0716733,
    "latitude": 41.5801589,
    "phone": "8604172581",
    "website_url": "http://www.lastingbrass.com",
    "state": "Connecticut",
    "street": "1864 Watertown Ave"
  },
  {
    "id": "557f528d-1b5e-40ee-bc7c-faeaba038bd6",
    "name": "Latchkey Brewing Co",
    "brewery_type": "micro",
    "address_1": "1795 Hancock St Mission Brewery Plaza",
    "address_2": null,
    "address_3": null,
    "city": "San Diego",
    "state_province": "California",
    "postal_code": "92110-2006",
    "country": "United States",
    "longitude": -117.1836532,
    "latitude": 32.74209039,
    "phone": "9165551212",
    "website_url": "http://www.latchkeybrew.com",
    "state": "California",
    "street": "1795 Hancock St Mission Brewery Plaza"
  },
  {
    "id": "df0c8917-503f-4c64-916c-8ea9870dab60",
    "name": "Late Night Hype Brewing Co",
    "brewery_type": "micro",
    "address_1": "Unit 17",
    "address_2": "Andrew Court",
    "address_3": "South Douglas Streeet",
    "city": "Clydebank",
    "state_province": "West Dunbartonshire",
    "postal_code": "G81 1PD",
    "country": "Scotland",
    "longitude": -4.4023283,
    "latitude": 55.8959515,
    "phone": "1412611278",
    "website_url": "http://www.latenighthypebrewing.com/",
    "state": "West Dunbartonshire",
    "street": "Unit 17"
  }
]