[
  {
    "id": "55a4aaa7-503f-45e4-bd82-522e5ad20d42",
    "name": "New Era Fine Fermentations",
    "brewery_type": "micro",
    "address_1": "321 S Frankfort Ave",
    "address_2": null,
    "address_3": null,
    "city": "Tulsa",
    "state_province": "Oklahoma",
    "postal_code": "74120",
    "country": "United States",
    "longitude": -95.984497,
    "latitude": 36.1548985,
    "phone": "9183670640",
    "website_url": "http://www.neffbrewing.com",
    "state": "Oklahoma",
    "street": "321 S Frankfort Ave"
  },
  {
    "id": "c33c63b9-317d-4f75-a5ea-fc492766cae9",
    "name": "New Glarus Brewing Co",
    "brewery_type": "regional",
    "address_1": "2400 State Highway 69",
    "address_2": null,
    "address_3": null,
    "city": "New Glarus",
    "state_province": "Wisconsin",
    "postal_code": "53574",
    "country": "United States",
    "longitude": -89.6312918,
    "latitude": 42.8095311,
    "phone": "6085275850",
    "website_url": "http://www.newglarusbrewing.com",
    "state": "Wisconsin",
    "street": "2400 State Highway 69"
  },
  {
    "id": "edc8857b-8955-48f1-8b22-a16b5693d1fc",
    "name": "New Glarus Brewing Co - Riverside",
    "brewery_type": "micro",
    "address_1": "2400 State Hwy 69",
    "address_2": null,
    "address_3": null,
    "city": "New Glarus",
    "state_province": "Wisconsin",
    "postal_code": "53574",
    "country": "United States",
    "longitude": null,
    "latitude": null,
    "phone": "6085275851",
    "website_url": "http://www.newglarusbrewing.com",
    "state": "Wisconsin",
    "street": "2400 State Hwy 69"
  },
  {
    "id": "547f2a09-6f76-4801-a631-ed0b0b9ffb60",
    "name": "New Glory Craft Brewery",
    "brewery_type": "micro",
    "address_1": "8251 Alpine Ave",
    "address_2": null,
    "address_3": null,
    "city": "Sacramento",
    "state_province": "California",
    "postal_code": "95826-4708",
    "country": "United States",
    "longitude": -121.402102,
    "latitude": 38.53562933,
    "phone": "9164519355",
    "website_url": "http://www.newglorybeer.com",
    "state": "California",
    "street": "8251 Alpine Ave"
  },
  {
    "id": "6822dfaf-6c12-448f-a8b7-4855aa280994",
    "name": "New Groove Artisan Brewery",
    "brewery_type": "brewpub",
    "address_1": "4078 Highway 9",
    "address_2": null,
    "address_3": null,
    "city": "Boiling Springs",
    "state_province": "South Carolina",
    "postal_code": "29316-8501",
    "country": "United States",
    "longitude": -82.017032,
    "latitude": 35.072809,
    "phone": "8645863900",
    "website_url": "http://www.newgroovebrew.com",
    "state": "South Carolina",
    "street": "4078 Highway 9"
  },
  {
    "id": "3b1b09ef-f184-420f-85b7-f4585546ccc7",
    "name": "New Heights Brewing Co",
    "brewery_type": "micro",
    "address_1": "928 5th Ave S",
    "address_2": null,
    "address_3": null,
    "city": "Nashville",
    "state_province": "Tennessee",
    "postal_code": "37203-4612",
    "country": "United States",
    "longitude": -86.7706476,
    "latitude": 36.1491212,
    "phone": "6154906901",
    "website_url": "http://www.newheightsbrewing.com",
    "state": "Tennessee",
    "street": "928 5th Ave S"
  },
  {
    "id": "b88aedd3-6a71-4619-9589-2ff83748a5a0",
    "name": "New Helvetia Brewing Company",
    "brewery_type": "micro",
    "address_1": "1730 Broadway",
    "address_2": null,
    "address_3": null,
    "city": "Sacramento",
    "state_province": "California",
    "postal_code": "95818-2320",
    "country": "United States",
    "longitude": -121.4899398,
    "latitude": 38.5607772,
    "phone": "9164699889",
    "website_url": "http://www.newhelvetiabrew.com",
    "state": "California",
    "street": "1730 Broadway"
  },
  {
    "id": "c0b2baea-ccb7-4bd2-8793-9e2691a9a6ad",
    "name": "New Holland Brewing",
    "brewery_type": "planning",
    "address_1": null,
    "address_2": null,
    "address_3": null,
    "city": "Battle Creek",
    "state_province": "Michigan",
    "postal_code": "49017",
    "country": "United States",
    "longitude": null,
    "latitude": null,
    "phone": null,
    "website_url": null,
    "state": "Michigan",
    "street": null
  },
  {
    "id": "c141e061-ebed-4b52-8ab6-3b5d53955f18",
    "name": "New Holland Brewing Co",
    "brewery_type": "regional",
    "address_1": "66 E 8th St",
    "address_2": null,
    "address_3": null,
    "city": "Holland",
    "state_province": "Michigan",
    "postal_code": "49423-3504",
    "country": "United States",
    "longitude": -86.10411872,
    "latitude": 42.79010355,
    "phone": "6163556422",
    "website_url": "http://www.newhollandbrew.com",
    "state": "Michigan",
    "street": "66 E 8th St"
  },
  {
    "id": "7228225d-87b3-450e-bb6d-838d21e0975f",
    "name": "New Holland Brewing Co - Production Facility",
    "brewery_type": "regional",
    "address_1": "690 Commerce Ct",
    "address_2": null,
    "address_3": null,
    "city": "Holland",
    "state_province": "Michigan",
    "postal_code": "49424-2913",
    "country": "United States",
    "longitude": null,
    "latitude": null,
    "phone": "6165102259",
    "website_url": null,
    "state": "Michigan",
    "street": "690 Commerce Ct"
  },
  {
    "id": "03aa438e-fd51-47a7-a3ce-3c6fde02295c",
    "name": "New Image Brewing Co",
    "brewery_type": "brewpub",
    "address_1": "5622 Yukon St",
    "address_2": null,
    "address_3": null,
    "city": "Arvada",
    "state_province": "Colorado",
    "postal_code": "80002-2446",
    "country": "United States",
    "longitude": -105.0824595,
    "latitude": 39.79938347,
    "phone": "7708811010",
    "website_url": "http://www.nibrewing.com",
    "state": "Colorado",
    "street": "5622 Yukon St"
  },
  {
    "id": "c51a1926-490d-4558-a569-7664be014334",
    "name": "New Jersey Beer Co",
    "brewery_type": "micro",
    "address_1": "4201 Tonnelle Ave",
    "address_2": null,
    "address_3": null,
    "city": "North Bergen",
    "state_province": "New Jersey",
    "postal_code": "07047-2430",
    "country": "United States",
    "longitude": -74.0428134,
    "latitude": 40.7714151,
    "phone": "2017588342",
    "website_url": "http://www.njbeerco.com",
    "state": "New Jersey",
    "street": "4201 Tonnelle Ave"
  },
  {
    "id": "1f10e149-7bb3-43b4-9102-feebb8f5f65a",
    "name": "New Magnolia Brewing Co",
    "brewery_type": "micro",
    "address_1": "1616 Bevis St",
    "address_2": null,
    "address_3": null,
    "city": "Houston",
    "state_province": "Texas",
    "postal_code": "77008",
    "country": "United States",
    "longitude": null,
    "latitude": null,
    "phone": null,
    "website_url": "https://www.instagram.com/newmagnoliabrewing/?hl=en",
    "state": "Texas",
    "street": "1616 Bevis St"
  },
  {
    "id": "bd61da27-2aa3-411f-aeff-6d141479c847",
    "name": "New Mexico State University Department Of Chemical",
    "brewery_type": "planning",
    "address_1": null,
    "address_2": null,
    "address_3": null,
    "city": "Las Cruces",
    "state_province": "New Mexico",
    "postal_code": "88003",
    "country": "United States",
    "longitude": null,
    "latitude": null,
    "phone": "5756461213",
    "website_url": "http://chme.nmsu.edu",
    "state": "New Mexico",
    "street": null
  },
  {
    "id": "b3ffdca4-08b3-4759-9520-74691fd65bf6",
    "name": "New Oberpfalz Brewing",
    "brewery_type": "brewpub",
    "address_1": "121 E Main St",
    "address_2": null,
    "address_3": null,
    "city": "Griffith",
    "state_province": "Indiana",
    "postal_code": "46319-2243",
    "country": "United States",
    "longitude": -87.42727571,
    "latitude": 41.52270212,
    "phone": "3127381308",
    "website_url": "http://www.newoberpfalz.com",
    "state": "Indiana",
    "street": "121 E Main St"
  },
  {
    "id": "9eb2f4e3-a109-438b-8a64-61b3d572488c",
    "name": "New Orleans Lager and Ale Brewing (NOLA Brewing)",
    "brewery_type": "micro",
    "address_1": "3001 Tchoupitoulas St",
    "address_2": null,
    "address_3": null,
    "city": "New Orleans",
    "state_province": "Louisiana",
    "postal_code": "70115-1039",
    "country": "United States",
    "longitude": -90.08141776,
    "latitude": 29.9199522,
    "phone": "5048969996",
    "website_url": "http://www.nolabrewing.com",
    "state": "Louisiana",
    "street": "3001 Tchoupitoulas St"
  },
  {
    "id": "60ad3907-0555-4573-8d41-a669adfbc777",
    "name": "New Paltz Brewing Company",
    "brewery_type": "micro",
    "address_1": "7174 Route 209",
    "address_2": null,
    "address_3": null,
    "city": "Wawarsing",
    "state_province": "New York",
    "postal_code": "12489",
    "country": "United States",
    "longitude": null,
    "latitude": null,
    "phone": "8454193040",
    "website_url": "http://www.pfalzerbrau.com",
    "state": "New York",
    "street": "7174 Route 209"
  },
  {
    "id": "d0ef1b88-ae8d-4d85-889c-16bf9f4fb58e",
    "name": "New Planet Beer Co",
    "brewery_type": "contract",
    "address_1": "3980 Broadway St Ste 103 # 116",
    "address_2": null,
    "address_3": null,
    "city": "Boulder",
    "state_province": "Colorado",
    "postal_code": "80304-1161",
    "country": "United States",
    "longitude": null,
    "latitude": null,
    "phone": "3034994978",
    "website_url": "http://www.newplanetbeer.com",
    "state": "Colorado",
    "street": "3980 Broadway St Ste 103 # 116"
  },
  {
    "id": "e5f6f505-df0a-440a-a014-57a6cd59e21b",
    "name": "New Province Brewing Company",
    "brewery_type": "micro",
    "address_1": "1310 W Hudson Rd",
    "address_2": null,
    "address_3": null,
    "city": "Rogers",
    "state_province": "Arkansas",
    "postal_code": "72756-2311",
    "country": "United States",
    "longitude": -94.13279216,
    "latitude": 36.355352,
    "phone": "4795313233",
    "website_url": "http://newprovincebrewing.com",
    "state": "Arkansas",
    "street": "1310 W Hudson Rd"
  },
  {
    "id": "b2080e4b-22ae-4a79-b04c-933448cb98dc",
    "name": "New Realm Brewing",
    "brewery_type": "planning",
    "address_1": null,
    "address_2": null,
    "address_3": null,
    "city": "Virginia Beach",
    "state_province": "Virginia",
    "postal_code": "23454",
    "country": "United States",
    "longitude": null,
    "latitude": null,
    "phone": null,
    "website_url": null,
    "state": "Virginia",
    "street": null
  },
  {
    "id": "285b5827-7b82-428b-856c-f12e3756c663",
    "name": "New Realm Brewing",
    "brewery_type": "planning",
    "address_1": null,
    "address_2": null,
    "address_3": null,
    "city": "Charlotte",
    "state_province": "North Carolina",
    "postal_code": "28203",
    "country": "United States",
    "longitude": null,
    "latitude": null,
    "phone": null,
    "website_url": null,
    "state": "North Carolina",
    "street": null
  },
  {
    "id": "2d2814f6-493a-48aa-b037-1710e2926a61",
    "name": "New Realm Brewing",
    "brewery_type": "brewpub",
    "address_1": "550 Somerset Ter NE Unit 101",
    "address_2": null,
    "address_3": null,
    "city": "Atlanta",
    "state_province": "Georgia",
    "postal_code": "30306-4317",
    "country": "United States",
    "longitude": null,
    "latitude": null,
    "phone": "4049682778",
    "website_url": "http://www.newrealmbrewing.com",
    "state": "Georgia",
    "street": "550 Somerset Ter NE Unit 101"
  },
  {
    "id": "41c942ce-4213-44eb-a73b-d6541d7a807c",
    "name": "New Republic Brewing",
    "brewery_type": "micro",
    "address_1": "11405 N Dowling Rd Ste C",
    "address_2": null,
    "address_3": null,
    "city": "College Station",
    "state_province": "Texas",
    "postal_code": "77845-8500",
    "country": "United States",
    "longitude": null,
    "latitude": null,
    "phone": "7134894667",
    "website_url": "http://www.nrb.beer",
    "state": "Texas",
    "street": "11405 N Dowling Rd Ste C"
  },
  {
    "id": "c6d7e285-5fbb-4a5c-acc2-6d1555340ac2",
    "name": "New River Brewing",
    "brewery_type": "micro",
    "address_1": "9211 NC Hwy 194 N Unit A",
    "address_2": null,
    "address_3": null,
    "city": "Lansing",
    "state_province": "North Carolina",
    "postal_code": "28643",
    "country": "United States",
    "longitude": null,
    "latitude": null,
    "phone": "9194528367",
    "website_url": "http://www.newriverbrewing.beer",
    "state": "North Carolina",
    "street": "9211 NC Hwy 194 N Unit A"
  },
  {
    "id": "612e347f-19d3-4bab-896a-ba6783ef3cd9",
    "name": "New Sarum Brewing",
    "brewery_type": "micro",
    "address_1": "109 N Lee St",
    "address_2": null,
    "address_3": null,
    "city": "Salisbury",
    "state_province": "North Carolina",
    "postal_code": "28144",
    "country": "United States",
    "longitude": -80.46853163,
    "latitude": 35.66652728,
    "phone": "7043105048",
    "website_url": "http://www.newsarumbrewing.com",
    "state": "North Carolina",
    "street": "109 N Lee St"
  },
  {
    "id": "d482fba0-cae2-4d98-b1ad-5de60ebef9ef",
    "name": "New Smyrna Beach Brewing Co",
    "brewery_type": "micro",
    "address_1": "143 Canal St",
    "address_2": null,
    "address_3": null,
    "city": "New Smyrna Beach",
    "state_province": "Florida",
    "postal_code": "32168-7067",
    "country": "United States",
    "longitude": -80.92236384,
    "latitude": 29.02541495,
    "phone": "3869573802",
    "website_url": "http://www.newsmyrnabrewing.com",
    "state": "Florida",
    "street": "143 Canal St"
  },
  {
    "id": "65d76230-d04a-4104-bec6-83cdb4431b7b",
    "name": "New South Brewing Co",
    "brewery_type": "micro",
    "address_1": "1109 Campbell St",
    "address_2": null,
    "address_3": null,
    "city": "Myrtle Beach",
    "state_province": "South Carolina",
    "postal_code": "29577-3527",
    "country": "United States",
    "longitude": -78.88989113,
    "latitude": 33.69734797,
    "phone": "8439162337",
    "website_url": "http://www.newsouthbrewing.com",
    "state": "South Carolina",
    "street": "1109 Campbell St"
  },
  {
    "id": "8b37edb9-f2e1-45a9-bafe-53bd74bceb9b",
    "name": "New Terrain Brewing Company",
    "brewery_type": "micro",
    "address_1": "16401 Table Mountain Pkwy",
    "address_2": null,
    "address_3": null,
    "city": "Golden",
    "state_province": "Colorado",
    "postal_code": "80403-1863",
    "country": "United States",
    "longitude": -105.1851036,
    "latitude": 39.77781975,
    "phone": "7206977848",
    "website_url": "http://newterrainbrewing.com",
    "state": "Colorado",
    "street": "16401 Table Mountain Pkwy"
  },
  {
    "id": "8a5156f9-1517-4f92-831c-20788cd4e0ef",
    "name": "New Trail Brewing Company",
    "brewery_type": "micro",
    "address_1": "240 Arch St Bldg 18",
    "address_2": null,
    "address_3": null,
    "city": "Williamsport",
    "state_province": "Pennsylvania",
    "postal_code": "17701-7810",
    "country": "United States",
    "longitude": null,
    "latitude": null,
    "phone": null,
    "website_url": "http://www.newtrailbrewing.com",
    "state": "Pennsylvania",
    "street": "240 Arch St Bldg 18"
  },
  {
    "id": "88c6fe70-e9aa-4658-b6d8-0b4859be19aa",
    "name": "New Union Brewing",
    "brewery_type": "micro",
    "address_1": "400 W Main St",
    "address_2": null,
    "address_3": null,
    "city": "Lowell",
    "state_province": "Michigan",
    "postal_code": "49331-1617",
    "country": "United States",
    "longitude": -85.355545,
    "latitude": 42.931398,
    "phone": "6163197171",
    "website_url": "http://www.newunionbrewery.com",
    "state": "Michigan",
    "street": "400 W Main St"
  },
  {
    "id": "ca3fbf41-dcfb-478e-bede-15a75f61090b",
    "name": "New Village Brewery and Taproom",
    "brewery_type": "micro",
    "address_1": "702 Broad St",
    "address_2": null,
    "address_3": null,
    "city": "Oriental",
    "state_province": "North Carolina",
    "postal_code": "28571-9778",
    "country": "United States",
    "longitude": -76.69472257,
    "latitude": 35.02921067,
    "phone": "2522496132",
    "website_url": "http://www.newvillagebrewery.com",
    "state": "North Carolina",
    "street": "702 Broad St"
  },
  {
    "id": "1e59404f-441b-44b8-83d8-7ab28fb49828",
    "name": "New York Beer Project",
    "brewery_type": "brewpub",
    "address_1": "6933 S Transit Rd",
    "address_2": null,
    "address_3": null,
    "city": "Lockport",
    "state_province": "New York",
    "postal_code": "14094-6330",
    "country": "United States",
    "longitude": -78.69614336,
    "latitude": 43.0897514,
    "phone": "7167436927",
    "website_url": "http://www.nybeerproject.com",
    "state": "New York",
    "street": "6933 S Transit Rd"
  },
  {
    "id": "9b0aded2-f485-490f-b527-7cf3218af77b",
    "name": "Newaygo Brewing Co",
    "brewery_type": "brewpub",
    "address_1": "19 State Rd",
    "address_2": null,
    "address_3": null,
    "city": "Newaygo",
    "state_province": "Michigan",
    "postal_code": "49337-7951",
    "country": "United States",
    "longitude": -85.79585808,
    "latitude": 43.42386642,
    "phone": "2314526551",
    "website_url": "http://www.newaygobrewing.com",
    "state": "Michigan",
    "street": "19 State Rd"
  },
  {
    "id": "2c946155-4263-420c-8b11-eca20cdf51ff",
    "name": "Newburgh Brewing Company",
    "brewery_type": "micro",
    "address_1": "88 S Colden St",
    "address_2": null,
    "address_3": null,
    "city": "Newburgh",
    "state_province": "New York",
    "postal_code": "12550-5640",
    "country": "United States",
    "longitude": -74.00811699,
    "latitude": 41.49659119,
    "phone": "8455692337",
    "website_url": "http://www.newburghbrewing.com",
    "state": "New York",
    "street": "88 S Colden St"
  },
  {
    "id": "c94db1c9-bd81-4a4d-a3c6-bfab07f991cc",
    "name": "Newburyport Brewing Co",
    "brewery_type": "micro",
    "address_1": "4 New Pasture Rd",
    "address_2": null,
    "address_3": null,
    "city": "Newburyport",
    "state_province": "Massachusetts",
    "postal_code": "01950-4040",
    "country": "United States",
    "longitude": -70.88715582,
    "latitude": 42.8019577,
    "phone": "9784638700",
    "website_url": "http://www.nbptbrewing.com",
    "state": "Massachusetts",
    "street": "4 New Pasture Rd"
  },
  {
    "id": "3e49da3b-a8b2-454c-a97d-ada31a36d104",
    "name": "Newgrass Brewing Company",
    "brewery_type": "micro",
    "address_1": "213 S Lafayette St",
    "address_2": null,
    "address_3": null,
    "city": "Shelby",
    "state_province": "North Carolina",
    "postal_code": "28150-5349",
    "country": "United States",
    "longitude": -81.54035756,
    "latitude": 35.29061978,
    "phone": "7049371280",
    "website_url": "http://www.newgrassbrewing.com",
    "state": "North Carolina",
    "street": "213 S Lafayette St"
  },
  {
    "id": "a3649b1f-6f4d-47f4-b4e6-572cef4b510b",
    "name": "Newport Craft Bewing & Distilling Co",
    "brewery_type": "micro",
    "address_1": "293 JT Connell Hwy",
    "address_2": null,
    "address_3": null,
    "city": "Newport",
    "state_province": "Rhode Island",
    "postal_code": "02840",
    "country": "United States",
    "longitude": -71.3159781,
    "latitude": 41.5140254,
    "phone": "4018495232",
    "website_url": "https://newportcraft.com",
    "state": "Rhode Island",
    "street": "293 JT Connell Hwy"
  },
  {
    "id": "62dc4ca3-d24f-4ee5-bf94-f5517066bc30",
    "name": "Next Chapter Brewpub",
    "brewery_type": "planning",
    "address_1": null,
    "address_2": null,
    "address_3": null,
    "city": "Auburn",
    "state_province": "New York",
    "postal_code": "13021-4620",
    "country": "United States",
    "longitude": null,
    "latitude": null,
    "phone": null,
    "website_url": "http://www.nextchapterbrewpub.com",
    "state": "New York",
    "street": null
  },
  {
    "id": "cc6d0abb-b1d2-4ff0-be2a-d5b506804d26",
    "name": "Next Door Brewing Company",
    "brewery_type": "brewpub",
    "address_1": "2439 Atwood Ave",
    "address_2": null,
    "address_3": null,
    "city": "Madison",
    "state_province": "Wisconsin",
    "postal_code": "53704-5604",
    "country": "United States",
    "longitude": -89.34572018,
    "latitude": 43.09371275,
    "phone": "6087293683",
    "website_url": "http://www.nextdoorbrewing.com",
    "state": "Wisconsin",
    "street": "2439 Atwood Ave"
  },
  {
    "id": "0d6daf79-df94-4045-966e-20dae3433511",
    "name": "Next Trick Brewing LLC",
    "brewery_type": "brewpub",
    "address_1": "2370 US Route 5",
    "address_2": null,
    "address_3": null,
    "city": "West Burke",
    "state_province": "Vermont",
    "postal_code": "05871-",
    "country": "United States",
    "longitude": null,
    "latitude": null,
    "phone": "8023281364",
    "website_url": "http://www.nexttrickbrewing.com",
    "state": "Vermont",
    "street": "2370 US Route 5"
  },
  {
    "id": "b140291a-b48c-4ed0-bafd-fee68859e48f",
    "name": "Nexus Brewery",
    "brewery_type": "brewpub",
    "address_1": "4730 Pan American Fwy NE Ste D",
    "address_2": null,
    "address_3": null,
    "city": "Albuquerque",
    "state_province": "New Mexico",
    "postal_code": "87109-2204",
    "country": "United States",
    "longitude": null,
    "latitude": null,
    "phone": "5052424100",
    "website_url": "http://www.nexusbrewery.com",
    "state": "New Mexico",
    "street": "4730 Pan American Fwy NE Ste D"
  },
  {
    "id": "4fe7c651-b3db-4d96-83fd-8d37e856c822",
    "name": "Nickel Beer Co",
    "brewery_type": "micro",
    "address_1": "1485 Hollow Glen Rd",
    "address_2": null,
    "address_3": null,
    "city": "Julian",
    "state_province": "California",
    "postal_code": "92036",
    "country": "United States",
    "longitude": -116.5901544,
    "latitude": 33.07629942,
    "phone": "7607652337",
    "website_url": "http://www.nickelbeerco.com",
    "state": "California",
    "street": "1485 Hollow Glen Rd"
  },
  {
    "id": "3bc90ba0-66f5-4728-a5b3-049e98d37a3c",
    "name": "Nickelpoint Brewing Co",
    "brewery_type": "micro",
    "address_1": "506 Pershing Rd",
    "address_2": null,
    "address_3": null,
    "city": "Raleigh",
    "state_province": "North Carolina",
    "postal_code": "27608-2624",
    "country": "United States",
    "longitude": -78.63369468,
    "latitude": 35.8045808,
    "phone": "9199165961",
    "website_url": "http://www.nickelpointbrewing.com",
    "state": "North Carolina",
    "street": "506 Pershing Rd"
  },
  {
    "id": "9cac1034-004e-42e5-803a-20051f1f79f3",
    "name": "Night Shift Brewing - Lovejoy Wharf",
    "brewery_type": "regional",
    "address_1": "1 Lovejoy Wharf",
    "address_2": "#101",
    "address_3": null,
    "city": "Boston",
    "state_province": "Massachusetts",
    "postal_code": "02114",
    "country": "United States",
    "longitude": -71.059706849229,
    "latitude": 42.367662536249,
    "phone": null,
    "website_url": null,
    "state": "Massachusetts",
    "street": "1 Lovejoy Wharf"
  },
  {
    "id": "b5e1df63-f7fe-4350-b724-f55935e77638",
    "name": "Night Shift Brewing, Inc",
    "brewery_type": "regional",
    "address_1": "87 Santilli Hwy",
    "address_2": null,
    "address_3": null,
    "city": "Everett",
    "state_province": "Massachusetts",
    "postal_code": "02149-1906",
    "country": "United States",
    "longitude": -71.0677001,
    "latitude": 42.4059393,
    "phone": "6172944233",
    "website_url": "http://www.nightshiftbrewing.com",
    "state": "Massachusetts",
    "street": "87 Santilli Hwy"
  },
  {
    "id": "fc18188e-adce-4ed3-8c6d-35a746da8e86",
    "name": "NightLife Brewing Co",
    "brewery_type": "micro",
    "address_1": "1588 Nw 7th St",
    "address_2": null,
    "address_3": null,
    "city": "Miami",
    "state_province": "Florida",
    "postal_code": "33125",
    "country": "United States",
    "longitude": -80.22131343,
    "latitude": 25.7800687,
    "phone": "7867872337",
    "website_url": "http://www.nightlifebrewingco.com",
    "state": "Florida",
    "street": "1588 Nw 7th St"
  },
  {
    "id": "b0c7325d-5406-4b94-9a9b-9f951189a42c",
    "name": "Nimble Brewing",
    "brewery_type": "micro",
    "address_1": "1735 Oak St",
    "address_2": null,
    "address_3": null,
    "city": "Kansas City",
    "state_province": "Missouri",
    "postal_code": "64108",
    "country": "United States",
    "longitude": -94.579238,
    "latitude": 39.095177,
    "phone": "8167871822",
    "website_url": "http://www.nimblebrewing.com",
    "state": "Missouri",
    "street": "1735 Oak St"
  },
  {
    "id": "87c2dc5c-0a40-40ee-a689-acff555737b2",
    "name": "Nimble Hill Brewing Co",
    "brewery_type": "micro",
    "address_1": "3971 SR 6",
    "address_2": null,
    "address_3": null,
    "city": "Tunkhannock",
    "state_province": "Pennsylvania",
    "postal_code": "18657",
    "country": "United States",
    "longitude": null,
    "latitude": null,
    "phone": "5708369463",
    "website_url": "http://www.nimblehillbrewingcompany.com",
    "state": "Pennsylvania",
    "street": "3971 SR 6"
  },
  {
    "id": "1f13514b-646f-4685-8e73-a3bdef8e651c",
    "name": "Nine Band Brewing Co.",
    "brewery_type": "micro",
    "address_1": "9 Prestige Cir",
    "address_2": null,
    "address_3": null,
    "city": "Allen",
    "state_province": "Texas",
    "postal_code": "75002-3419",
    "country": "United States",
    "longitude": -96.67280786,
    "latitude": 33.0931001,
    "phone": "9726635707",
    "website_url": "http://www.ninebandbrewing.com",
    "state": "Texas",
    "street": "9 Prestige Cir"
  },
  {
    "id": "66825536-6e93-4eed-aa6c-eba138076b0e",
    "name": "Nine Giant Brewing",
    "brewery_type": "brewpub",
    "address_1": "6095 Montgomery Rd",
    "address_2": null,
    "address_3": null,
    "city": "Cincinnati",
    "state_province": "Ohio",
    "postal_code": "45213-1617",
    "country": "United States",
    "longitude": -84.4276285,
    "latitude": 39.1822755,
    "phone": "5133664550",
    "website_url": "http://www.ninegiant.com",
    "state": "Ohio",
    "street": "6095 Montgomery Rd"
  }
]