[
  {
    "id": "8626498b-4e07-433b-92ac-41a27a0676f3",
    "name": "Button Brew House, LLC",
    "brewery_type": "micro",
    "address_1": "6800 N Camino Martin Ste 160",
    "address_2": null,
    "address_3": null,
    "city": "Tucson",
    "state_province": "Arizona",
    "postal_code": "85741-2395",
    "country": "United States",
    "longitude": null,
    "latitude": null,
    "phone": "5202688543",
    "website_url": "http://www.button.beer",
    "state": "Arizona",
    "street": "6800 N Camino Martin Ste 160"
  },
  {
    "id": "7499d5f1-3dee-4207-a073-aea0d069ea6b",
    "name": "Buttonwoods Brewery",
    "brewery_type": "micro",
    "address_1": "530 Wellington Ave Ste 22",
    "address_2": null,
    "address_3": null,
    "city": "Cranston",
    "state_province": "Rhode Island",
    "postal_code": "02910-2997",
    "country": "United States",
    "longitude": -71.4263784,
    "latitude": 41.7731564,
    "phone": "4014612337",
    "website_url": "http://www.buttonwoodsbrewery.com",
    "state": "Rhode Island",
    "street": "530 Wellington Ave Ste 22"
  },
  {
    "id": "047e6c05-5c5f-4eee-b953-0a7c796404c3",
    "name": "Buzz Bomb Brewing Co",
    "brewery_type": "micro",
    "address_1": "406 E Adams St",
    "address_2": null,
    "address_3": null,
    "city": "Springfield",
    "state_province": "Illinois",
    "postal_code": "62701",
    "country": "United States",
    "longitude": -89.65050394,
    "latitude": 39.8005279,
    "phone": "2176794157",
    "website_url": "http://www.buzzbombbrewingco.com",
    "state": "Illinois",
    "street": "406 E Adams St"
  },
  {
    "id": "3fba5b89-2f49-4d45-8cf6-efc97bea8933",
    "name": "Buzzards Bay Brewing Co",
    "brewery_type": "micro",
    "address_1": "98 Horseneck Rd",
    "address_2": null,
    "address_3": null,
    "city": "Westport",
    "state_province": "Massachusetts",
    "postal_code": "02790-1399",
    "country": "United States",
    "longitude": -71.04970461,
    "latitude": 41.55207456,
    "phone": "5086362288",
    "website_url": "http://www.buzzardsbrew.com",
    "state": "Massachusetts",
    "street": "98 Horseneck Rd"
  },
  {
    "id": "47b3c151-04cb-47bb-8b74-f46bd3ee1fc3",
    "name": "BW Farm, LLC",
    "brewery_type": "planning",
    "address_1": null,
    "address_2": null,
    "address_3": null,
    "city": "Owings",
    "state_province": "Maryland",
    "postal_code": "20736-9109",
    "country": "United States",
    "longitude": null,
    "latitude": null,
    "phone": "2406727995",
    "website_url": null,
    "state": "Maryland",
    "street": null
  },
  {
    "id": "70d54bc5-737f-4e00-9e47-a41584043db7",
    "name": "Byareg\u00e5rdens Brygghus",
    "brewery_type": "micro",
    "address_1": "Syllinge 18",
    "address_2": null,
    "address_3": null,
    "city": "Veddige",
    "state_province": "Halland",
    "postal_code": "432 66",
    "country": "Sweden",
    "longitude": null,
    "latitude": null,
    "phone": "+46 705-378336",
    "website_url": "https://byaregardensbrygghus.se/",
    "state": "Halland",
    "street": "Syllinge 18"
  },
  {
    "id": "24ed88ac-5267-4d15-be7a-c6fa35befd1f",
    "name": "Byers Brewing Company",
    "brewery_type": "planning",
    "address_1": null,
    "address_2": null,
    "address_3": null,
    "city": "DeKalb",
    "state_province": "Illinois",
    "postal_code": "60115-4661",
    "country": "United States",
    "longitude": null,
    "latitude": null,
    "phone": "8159705318",
    "website_url": null,
    "state": "Illinois",
    "street": null
  },
  {
    "id": "72a548d0-8bed-4ab0-ac92-467a4cf5546e",
    "name": "Byway Brewing Company",
    "brewery_type": "brewpub",
    "address_1": "2825 Carlson Dr",
    "address_2": null,
    "address_3": null,
    "city": "Hammond",
    "state_province": "Indiana",
    "postal_code": "46323-1183",
    "country": "United States",
    "longitude": null,
    "latitude": null,
    "phone": "2198445458",
    "website_url": "http://www.bywaybrewing.beer",
    "state": "Indiana",
    "street": "2825 Carlson Dr"
  },
  {
    "id": "4d071d65-60eb-4e9a-9efa-9a65bf811cd3",
    "name": "C.B. and Potts/Big Horn Brewery - Englewood",
    "brewery_type": "closed",
    "address_1": "6575 Greenwood Plaza Blvd",
    "address_2": null,
    "address_3": null,
    "city": "Englewood",
    "state_province": "Colorado",
    "postal_code": "80111-4933",
    "country": "United States",
    "longitude": null,
    "latitude": null,
    "phone": "3037701982",
    "website_url": "http://www.cbpotts.com",
    "state": "Colorado",
    "street": "6575 Greenwood Plaza Blvd"
  },
  {
    "id": "0ba6de0f-d84b-4e89-a608-8a5d70a7d612",
    "name": "C.B. and Potts/Big Horn Brewery - Highlands Ranch",
    "brewery_type": "closed",
    "address_1": "43 W Centennial Blvd",
    "address_2": null,
    "address_3": null,
    "city": "Highlands Ranch",
    "state_province": "Colorado",
    "postal_code": "80129-2323",
    "country": "United States",
    "longitude": -104.9887246,
    "latitude": 39.56211674,
    "phone": "7203441200",
    "website_url": "http://www.cbpotts.com",
    "state": "Colorado",
    "street": "43 W Centennial Blvd"
  },
  {
    "id": "cfacd093-a793-4110-b337-ba26fa5f0d3e",
    "name": "C.B. and Potts/Big Horn Brewery - Westminster",
    "brewery_type": "closed",
    "address_1": "1257 W 120th Ave",
    "address_2": null,
    "address_3": null,
    "city": "Westminster",
    "state_province": "Colorado",
    "postal_code": "80234-2725",
    "country": "United States",
    "longitude": -105.0040899,
    "latitude": 39.91376115,
    "phone": "3034515767",
    "website_url": "http://www.cbpotts.com",
    "state": "Colorado",
    "street": "1257 W 120th Ave"
  },
  {
    "id": "ef9d5ee5-045d-4d41-92f9-2d518fa0cc7a",
    "name": "Cabarrus Brewing Company",
    "brewery_type": "micro",
    "address_1": "329 McGill Ave NW",
    "address_2": null,
    "address_3": null,
    "city": "Concord",
    "state_province": "North Carolina",
    "postal_code": "28027-6149",
    "country": "United States",
    "longitude": -80.60600028,
    "latitude": 35.41573578,
    "phone": "7044904487",
    "website_url": "http://www.cabarrusbrewing.com",
    "state": "North Carolina",
    "street": "329 McGill Ave NW"
  },
  {
    "id": "06b8b131-a227-414a-ac7f-fd63c63828b9",
    "name": "Cabin Boys Brewery",
    "brewery_type": "micro",
    "address_1": "1717 E. 7th Steeet",
    "address_2": null,
    "address_3": null,
    "city": "Tulsa",
    "state_province": "Oklahoma",
    "postal_code": "74104",
    "country": "United States",
    "longitude": -95.966947,
    "latitude": 36.1515468,
    "phone": "9189334033",
    "website_url": "http://www.cabinboysbrewery.com",
    "state": "Oklahoma",
    "street": "1717 E. 7th Steeet"
  },
  {
    "id": "847fc182-b1fd-4e3a-bf42-a4aab6d5a0e6",
    "name": "Cabinet Mountain Brewing Co",
    "brewery_type": "brewpub",
    "address_1": "206 Mineral Ave",
    "address_2": null,
    "address_3": null,
    "city": "Libby",
    "state_province": "Montana",
    "postal_code": "59923-1952",
    "country": "United States",
    "longitude": -115.5506412,
    "latitude": 48.3936508,
    "phone": "4062932739",
    "website_url": "http://www.cabinetmountainbrewing.com",
    "state": "Montana",
    "street": "206 Mineral Ave"
  },
  {
    "id": "1bb1a62c-5339-4a44-acf7-5a960fbb39b1",
    "name": "Caboose Brewing Co.",
    "brewery_type": "brewpub",
    "address_1": "520 Mill St NE",
    "address_2": null,
    "address_3": null,
    "city": "Vienna",
    "state_province": "Virginia",
    "postal_code": "22180-4526",
    "country": "United States",
    "longitude": -77.2705542,
    "latitude": 38.9077525,
    "phone": "7034734870",
    "website_url": "http://caboosebrewing.com",
    "state": "Virginia",
    "street": "520 Mill St NE"
  },
  {
    "id": "37fcc36b-c5ec-44e6-8b33-8c6dea8cb01f",
    "name": "Cacapon Mountain Brewing Co",
    "brewery_type": "micro",
    "address_1": "42 Williams St",
    "address_2": null,
    "address_3": null,
    "city": "Berkeley Springs",
    "state_province": "West Virginia",
    "postal_code": "25411-5306",
    "country": "United States",
    "longitude": -78.234601495241,
    "latitude": 39.690778971971,
    "phone": null,
    "website_url": "http://www.cacaponbrewing.com",
    "state": "West Virginia",
    "street": "42 Williams St"
  },
  {
    "id": "1a4ac5aa-6d2f-41ef-80b5-b4b11db57b9a",
    "name": "Cactus Land Brewing Company",
    "brewery_type": "micro",
    "address_1": "368 County Road 325",
    "address_2": null,
    "address_3": null,
    "city": "Adkins",
    "state_province": "Texas",
    "postal_code": "78101-2812",
    "country": "United States",
    "longitude": null,
    "latitude": null,
    "phone": "2104142776",
    "website_url": "http://www.cactuslandbrewing.com",
    "state": "Texas",
    "street": "368 County Road 325"
  },
  {
    "id": "6d35da2a-ee38-4b85-ba89-0cfd1180e4f5",
    "name": "Caf\u00e9 Football",
    "brewery_type": "bar",
    "address_1": "920 East Coast Park",
    "address_2": "Parkland Green",
    "address_3": "#01-28",
    "city": "Singapore",
    "state_province": "Singapore",
    "postal_code": "449875",
    "country": "Singapore",
    "longitude": 1.2990479159542,
    "latitude": 103.9061601,
    "phone": "+65 8827 7490",
    "website_url": null,
    "state": "Singapore",
    "street": "920 East Coast Park"
  },
  {
    "id": "c0c8f2f1-ec01-4d3e-8faf-b05f3f18f945",
    "name": "Cafe Karibo",
    "brewery_type": "brewpub",
    "address_1": "27 N 3rd St",
    "address_2": null,
    "address_3": null,
    "city": "Fernandina Beach",
    "state_province": "Florida",
    "postal_code": "32034-4111",
    "country": "United States",
    "longitude": -81.46300291,
    "latitude": 30.6716253,
    "phone": "9042775269",
    "website_url": "http://www.cafekaribo.com",
    "state": "Florida",
    "street": "27 N 3rd St"
  },
  {
    "id": "b04c9621-bb87-439d-a499-94cb432bde90",
    "name": "Cafe Luis",
    "brewery_type": "bar",
    "address_1": "Weizberg 7",
    "address_2": null,
    "address_3": null,
    "city": "Weiz",
    "state_province": "Steiermark",
    "postal_code": "8160",
    "country": "Austria",
    "longitude": 15.635828044555,
    "latitude": 47.223789228965,
    "phone": "+4331723924",
    "website_url": null,
    "state": "Steiermark",
    "street": "Weizberg 7"
  },
  {
    "id": "0acbc5f2-6427-46e0-8302-7c26017975ec",
    "name": "Caf\u00e9 Wolfgang Ranner",
    "brewery_type": "bar",
    "address_1": "20 Eastwood Road",
    "address_2": "Eastwood Centre",
    "address_3": "#01-06",
    "city": "Singapore",
    "state_province": "Singapore",
    "postal_code": "486442",
    "country": "Singapore",
    "longitude": 1.3215789923362,
    "latitude": 103.95544389743,
    "phone": "+65 9118 0336",
    "website_url": "https://ranner.sg/",
    "state": "Singapore",
    "street": "20 Eastwood Road"
  },
  {
    "id": "9355bc7c-bdc7-40c3-8932-e840c996ed86",
    "name": "Caf\ufffd Okei",
    "brewery_type": "bar",
    "address_1": "Feldkirchenstra\ufffde 40",
    "address_2": null,
    "address_3": null,
    "city": "Kalsdorf bei Graz",
    "state_province": "Steiermark",
    "postal_code": "8401",
    "country": "Austria",
    "longitude": 15.460420275615,
    "latitude": 46.971319127868,
    "phone": "+43313557156",
    "website_url": "https://okei.at",
    "state": "Steiermark",
    "street": "Feldkirchenstra\ufffde 40"
  },
  {
    "id": "07abdcde-be13-49ed-9000-409d7d3d1975",
    "name": "Cage Brewing",
    "brewery_type": "micro",
    "address_1": "2001 1st Ave S",
    "address_2": null,
    "address_3": null,
    "city": "Saint Petersburg",
    "state_province": "Florida",
    "postal_code": "33712-1201",
    "country": "United States",
    "longitude": -82.660409,
    "latitude": 27.770292,
    "phone": "7272014278",
    "website_url": null,
    "state": "Florida",
    "street": "2001 1st Ave S"
  },
  {
    "id": "a476acbb-451e-4eb5-a250-55c9216ea153",
    "name": "Cahaba Brewing Co",
    "brewery_type": "micro",
    "address_1": "4500 5th Ave S Ste C",
    "address_2": null,
    "address_3": null,
    "city": "Birmingham",
    "state_province": "Alabama",
    "postal_code": "35222-2911",
    "country": "United States",
    "longitude": null,
    "latitude": null,
    "phone": "2059669444",
    "website_url": "http://www.cahababrewing.com",
    "state": "Alabama",
    "street": "4500 5th Ave S Ste C"
  },
  {
    "id": "0254d394-bf18-4793-900b-7320ae176e3c",
    "name": "Cairn Brewing",
    "brewery_type": "micro",
    "address_1": "7204 NE 175th St",
    "address_2": null,
    "address_3": null,
    "city": "Kenmore",
    "state_province": "Washington",
    "postal_code": "98028-3561",
    "country": "United States",
    "longitude": -122.2440866,
    "latitude": 47.7571424,
    "phone": "4259495295",
    "website_url": "http://www.cairnbrewing.com",
    "state": "Washington",
    "street": "7204 NE 175th St"
  },
  {
    "id": "6265172a-55a2-405b-8a59-efbd4de3adfd",
    "name": "Cajun Brewing",
    "brewery_type": "micro",
    "address_1": "206 Rayburn St",
    "address_2": null,
    "address_3": null,
    "city": "Lafayette",
    "state_province": "Louisiana",
    "postal_code": "70506-4130",
    "country": "United States",
    "longitude": -92.04978922,
    "latitude": 30.21549043,
    "phone": "3378069196",
    "website_url": "http://www.cajunbrewing.com",
    "state": "Louisiana",
    "street": "206 Rayburn St"
  },
  {
    "id": "756d4443-74b5-423d-b0a7-a7731e7f7883",
    "name": "Calapooia Brewing Co / Siletz Ales",
    "brewery_type": "micro",
    "address_1": "140 NE Hill St",
    "address_2": null,
    "address_3": null,
    "city": "Albany",
    "state_province": "Oregon",
    "postal_code": "97321-3002",
    "country": "United States",
    "longitude": -123.0937773,
    "latitude": 44.6394668,
    "phone": "5419281931",
    "website_url": "http://www.calapooiabrewing.com",
    "state": "Oregon",
    "street": "140 NE Hill St"
  },
  {
    "id": "914b9f4c-d6eb-45cc-aa64-f93a41958c35",
    "name": "Caldera Brewing Co",
    "brewery_type": "micro",
    "address_1": "590 Clover Ln",
    "address_2": null,
    "address_3": null,
    "city": "Ashland",
    "state_province": "Oregon",
    "postal_code": "97520-3709",
    "country": "United States",
    "longitude": -122.6633744,
    "latitude": 42.18373846,
    "phone": "5414824677",
    "website_url": "http://www.calderabrewing.com",
    "state": "Oregon",
    "street": "590 Clover Ln"
  },
  {
    "id": "87f356ba-1eee-4480-96a9-5877cc669edb",
    "name": "Caledonia Brewing",
    "brewery_type": "micro",
    "address_1": "587 Main St",
    "address_2": null,
    "address_3": null,
    "city": "Dunedin",
    "state_province": "Florida",
    "postal_code": "34698-4998",
    "country": "United States",
    "longitude": -82.7840735,
    "latitude": 28.01394225,
    "phone": "7273515105",
    "website_url": "http://www.caledoniabrewing.com",
    "state": "Florida",
    "street": "587 Main St"
  },
  {
    "id": "c3aa08ce-050b-440d-a8c1-0b45cbceedd5",
    "name": "Calfkiller Brewing Co",
    "brewery_type": "micro",
    "address_1": "1839 Blue Springs Rd",
    "address_2": null,
    "address_3": null,
    "city": "Sparta",
    "state_province": "Tennessee",
    "postal_code": "38583-2714",
    "country": "United States",
    "longitude": -85.42206083,
    "latitude": 35.94460668,
    "phone": "9317392337",
    "website_url": "http://www.calfkillerbeer.com",
    "state": "Tennessee",
    "street": "1839 Blue Springs Rd"
  },
  {
    "id": "2a7ed844-ea02-4a69-a41c-1fc7c476dd16",
    "name": "Calibration Brewery",
    "brewery_type": "brewpub",
    "address_1": "119 Armour Rd",
    "address_2": null,
    "address_3": null,
    "city": "Kansas City",
    "state_province": "Missouri",
    "postal_code": "64116-3502",
    "country": "United States",
    "longitude": -94.578762,
    "latitude": 39.141723,
    "phone": "8169948277",
    "website_url": "http://www.calibrationbrewery.com",
    "state": "Missouri",
    "street": "119 Armour Rd"
  },
  {
    "id": "b6618fdf-562c-47d8-8f99-da37d0ed00fb",
    "name": "Calicraft Brewing Co",
    "brewery_type": "micro",
    "address_1": "2700 Mitchell Dr Bldg 2",
    "address_2": null,
    "address_3": null,
    "city": "Walnut Creek",
    "state_province": "California",
    "postal_code": "94598-1602",
    "country": "United States",
    "longitude": -122.0257068,
    "latitude": 37.93059284,
    "phone": null,
    "website_url": null,
    "state": "California",
    "street": "2700 Mitchell Dr Bldg 2"
  },
  {
    "id": "bcea0930-14a2-4b22-898c-729ea6abe693",
    "name": "California Cider Co.",
    "brewery_type": "planning",
    "address_1": null,
    "address_2": null,
    "address_3": null,
    "city": "Sebastopol",
    "state_province": "California",
    "postal_code": "95472",
    "country": "United States",
    "longitude": -122.8332502,
    "latitude": 38.3845125,
    "phone": "7078291101",
    "website_url": "http://www.acecider.com",
    "state": "California",
    "street": null
  },
  {
    "id": "23905042-9078-410a-a3f5-0ede37924815",
    "name": "California Wild Ales",
    "brewery_type": "contract",
    "address_1": "4204 Sorrento Valley Blvd",
    "address_2": null,
    "address_3": null,
    "city": "San Diego",
    "state_province": "California",
    "postal_code": "92121-1446",
    "country": "United States",
    "longitude": -117.2146488,
    "latitude": 32.905002,
    "phone": null,
    "website_url": null,
    "state": "California",
    "street": "4204 Sorrento Valley Blvd"
  },
  {
    "id": "5494f614-38f1-4c0d-822d-58977264bb89",
    "name": "Call To Arms Brewing Company",
    "brewery_type": "micro",
    "address_1": "4526 Tennyson St",
    "address_2": null,
    "address_3": null,
    "city": "Denver",
    "state_province": "Colorado",
    "postal_code": "80212-2527",
    "country": "United States",
    "longitude": -105.0435373,
    "latitude": 39.7788541,
    "phone": null,
    "website_url": "http://www.facebook.com/calltoarmsbrewing",
    "state": "Colorado",
    "street": "4526 Tennyson St"
  },
  {
    "id": "06f89ef6-e14a-4642-9609-46c6aad9813f",
    "name": "Callahan West Brewery",
    "brewery_type": "micro",
    "address_1": "20 Main St",
    "address_2": null,
    "address_3": null,
    "city": "Mosquero",
    "state_province": "New Mexico",
    "postal_code": "87733",
    "country": "United States",
    "longitude": -103.9581938,
    "latitude": 35.77706974,
    "phone": null,
    "website_url": null,
    "state": "New Mexico",
    "street": "20 Main St"
  },
  {
    "id": "2b34e802-aa74-4ab7-baf3-3de5c82bd751",
    "name": "Callsign Brewing",
    "brewery_type": "micro",
    "address_1": "1447 Gentry St",
    "address_2": null,
    "address_3": null,
    "city": "North Kansas City",
    "state_province": "Missouri",
    "postal_code": "64116",
    "country": "United States",
    "longitude": -94.574428,
    "latitude": 39.138525,
    "phone": "8162552320",
    "website_url": "http://www.callsignbrewing.com",
    "state": "Missouri",
    "street": "1447 Gentry St"
  },
  {
    "id": "40a385d5-25cb-4bf4-9b04-fd1501f8b8fb",
    "name": "Calusa Brewing Company",
    "brewery_type": "micro",
    "address_1": "5701 Derek Ave",
    "address_2": null,
    "address_3": null,
    "city": "Sarasota",
    "state_province": "Florida",
    "postal_code": "34233-2413",
    "country": "United States",
    "longitude": -82.483799,
    "latitude": 27.269363,
    "phone": "9419228150",
    "website_url": "http://www.calusabrewing.com",
    "state": "Florida",
    "street": "5701 Derek Ave"
  },
  {
    "id": "66830819-c0ed-462b-b7c6-5b6006fa7df0",
    "name": "Calvert Brewing Co",
    "brewery_type": "micro",
    "address_1": "150 Adelina Rd",
    "address_2": null,
    "address_3": null,
    "city": "Prince Frederick",
    "state_province": "Maryland",
    "postal_code": "20678-3709",
    "country": "United States",
    "longitude": null,
    "latitude": null,
    "phone": "4104148486",
    "website_url": "http://www.calvertbrewingcompany.com",
    "state": "Maryland",
    "street": "150 Adelina Rd"
  },
  {
    "id": "a440c125-f424-4b18-9adc-27c2965ce6ac",
    "name": "Calvert Brewing Co",
    "brewery_type": "micro",
    "address_1": "15850 Commerce Ct",
    "address_2": null,
    "address_3": null,
    "city": "Upper Marlboro",
    "state_province": "Maryland",
    "postal_code": "20774-7437",
    "country": "United States",
    "longitude": null,
    "latitude": null,
    "phone": "2402454609",
    "website_url": "http://calvertbrewingcompany.com",
    "state": "Maryland",
    "street": "15850 Commerce Ct"
  },
  {
    "id": "a4979f24-580a-467a-8cb3-5ce9df1d30b4",
    "name": "Cambridge Brewing Co",
    "brewery_type": "brewpub",
    "address_1": "1 Kendall Sq Ste B1102",
    "address_2": null,
    "address_3": null,
    "city": "Cambridge",
    "state_province": "Massachusetts",
    "postal_code": "02139-1592",
    "country": "United States",
    "longitude": null,
    "latitude": null,
    "phone": "6174941994",
    "website_url": "http://www.cambridgebrewingcompany.com",
    "state": "Massachusetts",
    "street": "1 Kendall Sq Ste B1102"
  },
  {
    "id": "ad254a69-0bd9-491e-be5b-0a35d174fb4e",
    "name": "Cambridge House Brew Pub - Granby",
    "brewery_type": "brewpub",
    "address_1": "357 Salmon Brook St",
    "address_2": null,
    "address_3": null,
    "city": "Granby",
    "state_province": "Connecticut",
    "postal_code": "06035-0438",
    "country": "United States",
    "longitude": -72.79259539,
    "latitude": 41.96631414,
    "phone": "8606532739",
    "website_url": "http://www.cbh.beer",
    "state": "Connecticut",
    "street": "357 Salmon Brook St"
  },
  {
    "id": "73852083-1f03-41da-bc57-e471e315cbb2",
    "name": "Camino Brewing Co LLC",
    "brewery_type": "micro",
    "address_1": "718 S 1st St",
    "address_2": null,
    "address_3": null,
    "city": "San Jose",
    "state_province": "California",
    "postal_code": "95113",
    "country": "United States",
    "longitude": -121.8823478,
    "latitude": 37.32530178,
    "phone": null,
    "website_url": "http://www.caminobrewing.com",
    "state": "California",
    "street": "718 S 1st St"
  },
  {
    "id": "4a928417-cd54-4806-9085-98b4d47f8e81",
    "name": "Camp Colvos Brewing",
    "brewery_type": "micro",
    "address_1": "17636 Vashon Hwy SW",
    "address_2": null,
    "address_3": null,
    "city": "Vashon",
    "state_province": "Washington",
    "postal_code": "98070-6052",
    "country": "United States",
    "longitude": -122.4602697,
    "latitude": 47.44701386,
    "phone": "2069473527",
    "website_url": "http://www.campcolvos.com",
    "state": "Washington",
    "street": "17636 Vashon Hwy SW"
  },
  {
    "id": "ca9d8589-4cf5-400e-b1df-7df7eb5d28c0",
    "name": "Campbell Brewing Co",
    "brewery_type": "micro",
    "address_1": "200 E Campbell Ave",
    "address_2": null,
    "address_3": null,
    "city": "Campbell",
    "state_province": "California",
    "postal_code": "95008-2010",
    "country": "United States",
    "longitude": -121.9332743,
    "latitude": 37.2870748,
    "phone": "4088662699",
    "website_url": null,
    "state": "California",
    "street": "200 E Campbell Ave"
  },
  {
    "id": "c3019525-367a-466c-96d9-97174d3df80f",
    "name": "Campsite Brewing Company",
    "brewery_type": "brewpub",
    "address_1": "321 E Front St",
    "address_2": null,
    "address_3": null,
    "city": "Covina",
    "state_province": "California",
    "postal_code": "91723",
    "country": "United States",
    "longitude": -117.88386203144,
    "latitude": 34.091867007947,
    "phone": "6263801467",
    "website_url": "https://www.campsitebrewingco.com/",
    "state": "California",
    "street": "321 E Front St"
  },
  {
    "id": "33615ed7-57bb-4d02-84d6-d24e02a6cf1f",
    "name": "Can Of Worms Brewing",
    "brewery_type": "planning",
    "address_1": null,
    "address_2": null,
    "address_3": null,
    "city": "Glendale",
    "state_province": "California",
    "postal_code": "91214-1713",
    "country": "United States",
    "longitude": -118.2462486,
    "latitude": 34.192912,
    "phone": "8187975520",
    "website_url": "http://www.canofwormsbrewing.com",
    "state": "California",
    "street": null
  },
  {
    "id": "ea9cb09f-6a1f-4635-b3d8-4817e75571ea",
    "name": "Canal Park Brewery",
    "brewery_type": "brewpub",
    "address_1": "300 Canal Park Dr",
    "address_2": null,
    "address_3": null,
    "city": "Duluth",
    "state_province": "Minnesota",
    "postal_code": "55802-2316",
    "country": "United States",
    "longitude": null,
    "latitude": null,
    "phone": "2184644790",
    "website_url": "http://www.canalparkbrewery.com",
    "state": "Minnesota",
    "street": "300 Canal Park Dr"
  },
  {
    "id": "e431db8a-9c36-46c0-90e0-05644f37a056",
    "name": "Candia Road Brewing / Nepenthe Ale House",
    "brewery_type": "micro",
    "address_1": "840 Candia Rd",
    "address_2": null,
    "address_3": null,
    "city": "Manchester",
    "state_province": "New Hampshire",
    "postal_code": "03109-5201",
    "country": "United States",
    "longitude": -71.41301096,
    "latitude": 42.9849563,
    "phone": "6039358123",
    "website_url": "http://www.candiaroad.com",
    "state": "New Hampshire",
    "street": "840 Candia Rd"
  },
  {
    "id": "604378f2-9c18-4ac2-bd4b-206f4423d9ea",
    "name": "Cane River Brewing Co., L.L.C",
    "brewery_type": "closed",
    "address_1": null,
    "address_2": null,
    "address_3": null,
    "city": "Natchitoches",
    "state_province": "Louisiana",
    "postal_code": "71457",
    "country": "United States",
    "longitude": null,
    "latitude": null,
    "phone": "3184719115",
    "website_url": "http://www.caneriverbrewing.com",
    "state": "Louisiana",
    "street": null
  }
]