[
  {
    "id": "d832ea72-d8ca-4b3e-a7f0-679599883d89",
    "name": "Canjob Taproom",
    "brewery_type": "bar",
    "address_1": "50 Tiong Bahru Rd",
    "address_2": "#01-03",
    "address_3": "Link Hotel",
    "city": "Singapore",
    "state_province": "Singapore",
    "postal_code": "168733",
    "country": "Singapore",
    "longitude": 103.8339047,
    "latitude": 1.2853965,
    "phone": "93853497",
    "website_url": "https://www.canjobtaproom.com/",
    "state": "Singapore",
    "street": "50 Tiong Bahru Rd"
  },
  {
    "id": "45e03113-32c2-44db-be6c-6955633fba06",
    "name": "Cannon Ball Brewing Company",
    "brewery_type": "brewpub",
    "address_1": "1702 Bellefontaine St",
    "address_2": null,
    "address_3": null,
    "city": "Indianapolis",
    "state_province": "Indiana",
    "postal_code": "46202-1813",
    "country": "United States",
    "longitude": -86.14245603,
    "latitude": 39.79046798,
    "phone": "3174265978",
    "website_url": "http://www.cannonballbrewingindy.com",
    "state": "Indiana",
    "street": "1702 Bellefontaine St"
  },
  {
    "id": "cf741ae8-b09e-40af-9ea7-065f0736a458",
    "name": "Cannon Brewpub",
    "brewery_type": "brewpub",
    "address_1": "1041 Broadway",
    "address_2": null,
    "address_3": null,
    "city": "Columbus",
    "state_province": "Georgia",
    "postal_code": "31901-5256",
    "country": "United States",
    "longitude": null,
    "latitude": null,
    "phone": "7066532337",
    "website_url": null,
    "state": "Georgia",
    "street": "1041 Broadway"
  },
  {
    "id": "e5b709a1-dce7-4271-9057-e56ceea26b83",
    "name": "Cannonball Creek Brewing Co",
    "brewery_type": "micro",
    "address_1": "393 Washington Ave Unit A",
    "address_2": null,
    "address_3": null,
    "city": "Golden",
    "state_province": "Colorado",
    "postal_code": "80403-1889",
    "country": "United States",
    "longitude": null,
    "latitude": null,
    "phone": "3032780111",
    "website_url": "http://www.cannonballcreekbrewing.com",
    "state": "Colorado",
    "street": "393 Washington Ave Unit A"
  },
  {
    "id": "72935233-3b46-42b0-901e-3548937da57e",
    "name": "Canon & Draw Brewing Company",
    "brewery_type": "micro",
    "address_1": "1527 W Main St",
    "address_2": null,
    "address_3": null,
    "city": "Richmond",
    "state_province": "Virginia",
    "postal_code": "23220",
    "country": "United States",
    "longitude": -77.46012854,
    "latitude": 37.54707897,
    "phone": "8043530536",
    "website_url": "http://www.canonanddraw.beer",
    "state": "Virginia",
    "street": "1527 W Main St"
  },
  {
    "id": "14f8c0f8-5f24-4eb8-865a-437cd5ec28dc",
    "name": "Canteen Brewhouse",
    "brewery_type": "micro",
    "address_1": "2381 Aztec Rd NE",
    "address_2": null,
    "address_3": null,
    "city": "Albuquerque",
    "state_province": "New Mexico",
    "postal_code": "87107-4207",
    "country": "United States",
    "longitude": -106.617653,
    "latitude": 35.12025411,
    "phone": "5058304629",
    "website_url": "http://www.canteenbrewhouse.com",
    "state": "New Mexico",
    "street": "2381 Aztec Rd NE"
  },
  {
    "id": "2fc0714f-eec5-4451-9b6f-aa19f58efac5",
    "name": "Canterbury Aleworks",
    "brewery_type": "micro",
    "address_1": "305 Baptist Hill Rd",
    "address_2": null,
    "address_3": null,
    "city": "Canterbury",
    "state_province": "New Hampshire",
    "postal_code": "03224-2509",
    "country": "United States",
    "longitude": -71.51484346,
    "latitude": 43.38577573,
    "phone": "6034914539",
    "website_url": "http://www.canterburyaleworks.com",
    "state": "New Hampshire",
    "street": "305 Baptist Hill Rd"
  },
  {
    "id": "1b4e8f0d-b445-4221-a357-975287794915",
    "name": "Canton Brew Works, LLC",
    "brewery_type": "micro",
    "address_1": "8521 N Lilley Rd",
    "address_2": null,
    "address_3": null,
    "city": "Canton",
    "state_province": "Michigan",
    "postal_code": "48187-2091",
    "country": "United States",
    "longitude": -83.4586331,
    "latitude": 42.3224786,
    "phone": "7349277081",
    "website_url": "http://www.cantonbrewworks.com",
    "state": "Michigan",
    "street": "8521 N Lilley Rd"
  },
  {
    "id": "c7cedf0a-db47-42a9-8642-dda456d33f52",
    "name": "Canton Brewing Company",
    "brewery_type": "brewpub",
    "address_1": "120 3rd St NW",
    "address_2": null,
    "address_3": null,
    "city": "Canton",
    "state_province": "Ohio",
    "postal_code": "44702",
    "country": "United States",
    "longitude": -81.37453867,
    "latitude": 40.7998289,
    "phone": null,
    "website_url": "http://www.drinkcantonbeer.com",
    "state": "Ohio",
    "street": "120 3rd St NW"
  },
  {
    "id": "235b3275-293e-45e5-8b6f-0bfbaac4e016",
    "name": "Canvas Brewery",
    "brewery_type": "micro",
    "address_1": "Fortmoy Aglish",
    "address_2": null,
    "address_3": null,
    "city": "Roscrea",
    "state_province": "Tipperary",
    "postal_code": "E53 D822",
    "country": "Ireland",
    "longitude": -8.116511364,
    "latitude": 53.0479286,
    "phone": "353871268539",
    "website_url": "https://www.canvasbrewery.com/",
    "state": "Tipperary",
    "street": "Fortmoy Aglish"
  },
  {
    "id": "8aeaf9bc-b9a0-4278-ad0a-bf13f936269e",
    "name": "Canyon Club Brewery",
    "brewery_type": "planning",
    "address_1": null,
    "address_2": null,
    "address_3": null,
    "city": "Moraga",
    "state_province": "California",
    "postal_code": "94556",
    "country": "United States",
    "longitude": -122.12883,
    "latitude": 37.834897,
    "phone": "8087992005",
    "website_url": "http://www.canyonclub.works",
    "state": "California",
    "street": null
  },
  {
    "id": "d423e8d9-731a-4f9a-a8a9-939d21a2419a",
    "name": "Canyon Creek Brewing",
    "brewery_type": "micro",
    "address_1": "3060 Gabel Rd",
    "address_2": null,
    "address_3": null,
    "city": "Billings",
    "state_province": "Montana",
    "postal_code": "59102-7336",
    "country": "United States",
    "longitude": -108.5916752,
    "latitude": 45.74436502,
    "phone": "4066562528",
    "website_url": "http://www.canyoncreekbrewing.com",
    "state": "Montana",
    "street": "3060 Gabel Rd"
  },
  {
    "id": "5d70e9c5-09dd-4ab7-9efe-bb064ddf705c",
    "name": "Canyon Lakes Golf Course & Brewery",
    "brewery_type": "brewpub",
    "address_1": "640 Bollinger Canyon Way",
    "address_2": null,
    "address_3": null,
    "city": "San Ramon",
    "state_province": "California",
    "postal_code": "94582-4971",
    "country": "United States",
    "longitude": -121.94788,
    "latitude": 37.77114856,
    "phone": null,
    "website_url": "http://www.canyonlakesgolfbrew.com",
    "state": "California",
    "street": "640 Bollinger Canyon Way"
  },
  {
    "id": "9749c8f4-5273-449f-9563-0dcd12a14e42",
    "name": "Cape Ann Brewing Co",
    "brewery_type": "brewpub",
    "address_1": "11 Rogers St",
    "address_2": null,
    "address_3": null,
    "city": "Gloucester",
    "state_province": "Massachusetts",
    "postal_code": "01930-5014",
    "country": "United States",
    "longitude": -70.66509344,
    "latitude": 42.61161602,
    "phone": "9782827399",
    "website_url": null,
    "state": "Massachusetts",
    "street": "11 Rogers St"
  },
  {
    "id": "7e1b62e7-054d-4dc9-8359-da4c874cc154",
    "name": "Cape Ann Lanes",
    "brewery_type": "planning",
    "address_1": null,
    "address_2": null,
    "address_3": null,
    "city": "Gloucester",
    "state_province": "Massachusetts",
    "postal_code": "01930-2256",
    "country": "United States",
    "longitude": null,
    "latitude": null,
    "phone": "9788799714",
    "website_url": null,
    "state": "Massachusetts",
    "street": null
  },
  {
    "id": "c179ca31-f60a-4726-9ca8-96774c426f00",
    "name": "Cape Charles Brewing Company",
    "brewery_type": "brewpub",
    "address_1": "2198 Stone Rd",
    "address_2": null,
    "address_3": null,
    "city": "Cape Charles",
    "state_province": "Virginia",
    "postal_code": "23310-2706",
    "country": "United States",
    "longitude": -75.992111,
    "latitude": 37.269795,
    "phone": "7574494839",
    "website_url": "http://www.capecharlesbrewing.com",
    "state": "Virginia",
    "street": "2198 Stone Rd"
  },
  {
    "id": "972823fa-5950-4bba-94e7-9a959b09a2bf",
    "name": "Cape Cod Beer",
    "brewery_type": "micro",
    "address_1": "1336 Phinneys Ln Ste 2-2",
    "address_2": null,
    "address_3": null,
    "city": "Hyannis",
    "state_province": "Massachusetts",
    "postal_code": "02601-1875",
    "country": "United States",
    "longitude": null,
    "latitude": null,
    "phone": "5087904200",
    "website_url": "http://www.capecodbeer.com",
    "state": "Massachusetts",
    "street": "1336 Phinneys Ln Ste 2-2"
  },
  {
    "id": "ed03dc32-f0b3-4466-a9ec-069e31f25ba0",
    "name": "Cape May Brewing Company",
    "brewery_type": "micro",
    "address_1": "409 Breakwater Rd",
    "address_2": null,
    "address_3": null,
    "city": "Cape May",
    "state_province": "New Jersey",
    "postal_code": "08204-4537",
    "country": "United States",
    "longitude": -74.91285755,
    "latitude": 39.00066318,
    "phone": "6098499933",
    "website_url": "http://www.capemaybrewery.com",
    "state": "New Jersey",
    "street": "409 Breakwater Rd"
  },
  {
    "id": "984c0f6a-3f2d-4ca2-9462-1a7c637e363e",
    "name": "Cape May Brewing Company - Rio Grande",
    "brewery_type": "micro",
    "address_1": "1288 Hornet Rd",
    "address_2": null,
    "address_3": null,
    "city": "Rio Grande",
    "state_province": "New Jersey",
    "postal_code": "08242-2210",
    "country": "United States",
    "longitude": null,
    "latitude": null,
    "phone": "6098499933",
    "website_url": "http://www.capemaybrewery.com",
    "state": "New Jersey",
    "street": "1288 Hornet Rd"
  },
  {
    "id": "b6ea2f3b-b21b-43f8-8696-c182d8ed087f",
    "name": "Cape Vincent Brewing Co",
    "brewery_type": "micro",
    "address_1": "296 Broadway St",
    "address_2": null,
    "address_3": null,
    "city": "Cape Vincent",
    "state_province": "New York",
    "postal_code": "13618",
    "country": "United States",
    "longitude": -76.33484565,
    "latitude": 44.12823687,
    "phone": null,
    "website_url": "http://www.capevincentbrewing.com",
    "state": "New York",
    "street": "296 Broadway St"
  },
  {
    "id": "e07b6621-ed3a-4aaf-ad46-81b0f4d44fee",
    "name": "Capital Brewery Co Inc",
    "brewery_type": "regional",
    "address_1": "7734 Terrace Ave",
    "address_2": null,
    "address_3": null,
    "city": "Middleton",
    "state_province": "Wisconsin",
    "postal_code": "53562-3163",
    "country": "United States",
    "longitude": -89.51657978,
    "latitude": 43.09489645,
    "phone": "6088367100",
    "website_url": "http://www.capitalbrewery.com",
    "state": "Wisconsin",
    "street": "7734 Terrace Ave"
  },
  {
    "id": "2682641e-3fa6-4700-b9ed-87ded91e1ca5",
    "name": "Capitol City Brewing Co",
    "brewery_type": "contract",
    "address_1": "2 Massachusetts Ave NE",
    "address_2": null,
    "address_3": null,
    "city": "Washington",
    "state_province": "District of Columbia",
    "postal_code": "20002-4945",
    "country": "United States",
    "longitude": -77.0082686,
    "latitude": 38.8979293,
    "phone": "2028422337",
    "website_url": "http://www.capcitybrew.com",
    "state": "District of Columbia",
    "street": "2 Massachusetts Ave NE"
  },
  {
    "id": "dea46586-2772-4573-a964-f9a1d1bbc902",
    "name": "Capitol Creek Brewery",
    "brewery_type": "brewpub",
    "address_1": "371 Market St",
    "address_2": null,
    "address_3": null,
    "city": "Basalt",
    "state_province": "Colorado",
    "postal_code": "81621-7409",
    "country": "United States",
    "longitude": null,
    "latitude": null,
    "phone": "8704043657",
    "website_url": "http://www.capitolcreekbrewery.com",
    "state": "Colorado",
    "street": "371 Market St"
  },
  {
    "id": "42a358b3-4457-4f5a-8914-6b22352d9aed",
    "name": "Capstan Bar Brewing Company",
    "brewery_type": "micro",
    "address_1": "2036 Exploration Way",
    "address_2": null,
    "address_3": null,
    "city": "Hampton",
    "state_province": "Virginia",
    "postal_code": "23666-6260",
    "country": "United States",
    "longitude": -76.3994756,
    "latitude": 37.082339,
    "phone": "7577887276",
    "website_url": "http://www.capstanbarbrewing.com",
    "state": "Virginia",
    "street": "2036 Exploration Way"
  },
  {
    "id": "dd562978-8660-491c-b8ac-515a8fc975be",
    "name": "Captain Fatty's",
    "brewery_type": "micro",
    "address_1": "6483 Calle Real Ste D",
    "address_2": null,
    "address_3": null,
    "city": "Goleta",
    "state_province": "California",
    "postal_code": "93117-1541",
    "country": "United States",
    "longitude": -119.8524005,
    "latitude": 34.4394769,
    "phone": null,
    "website_url": "http://www.captainfattys.com",
    "state": "California",
    "street": "6483 Calle Real Ste D"
  },
  {
    "id": "38973645-52f6-4b59-9f8b-8b88730e3ff9",
    "name": "Captain Lawrence Brewing Co",
    "brewery_type": "regional",
    "address_1": "444 Saw Mill River Rd Ste 100",
    "address_2": null,
    "address_3": null,
    "city": "Elmsford",
    "state_province": "New York",
    "postal_code": "10523-1031",
    "country": "United States",
    "longitude": -73.839113,
    "latitude": 41.03486,
    "phone": "9147412337",
    "website_url": "http://www.captainlawrencebrewing.com",
    "state": "New York",
    "street": "444 Saw Mill River Rd Ste 100"
  },
  {
    "id": "f99f9f8d-d2e0-4f23-9644-c95ff543e235",
    "name": "Caracara Brewing Company",
    "brewery_type": "micro",
    "address_1": "100 E Market St",
    "address_2": null,
    "address_3": null,
    "city": "Lockhart",
    "state_province": "Texas",
    "postal_code": "78644-2747",
    "country": "United States",
    "longitude": -97.672065,
    "latitude": 29.883798,
    "phone": null,
    "website_url": "http://www.caracarabrewingcompany.com",
    "state": "Texas",
    "street": "100 E Market St"
  },
  {
    "id": "0ea0d27c-ea9a-4f75-91c2-4009c12b6c45",
    "name": "Carbon Brewing Company",
    "brewery_type": "planning",
    "address_1": null,
    "address_2": null,
    "address_3": null,
    "city": "Brazil",
    "state_province": "Indiana",
    "postal_code": "47834-7046",
    "country": "United States",
    "longitude": null,
    "latitude": null,
    "phone": null,
    "website_url": "http://www.carbonbrewing.com",
    "state": "Indiana",
    "street": null
  },
  {
    "id": "f12deb0c-12ed-42e3-8706-d9cb1cb6a52a",
    "name": "Carbondale Beer Works",
    "brewery_type": "brewpub",
    "address_1": "647 Main St",
    "address_2": null,
    "address_3": null,
    "city": "Carbondale",
    "state_province": "Colorado",
    "postal_code": "81623-1934",
    "country": "United States",
    "longitude": -107.2134909,
    "latitude": 39.40060712,
    "phone": null,
    "website_url": "http://www.carbondalebeerworks.com",
    "state": "Colorado",
    "street": "647 Main St"
  },
  {
    "id": "846e6b9a-e4ea-46ae-9597-fbdcdc4568c7",
    "name": "Cardinal Craft Brewing Academy/ Skagit Valley College",
    "brewery_type": "micro",
    "address_1": "15579 Peterson Rd",
    "address_2": null,
    "address_3": null,
    "city": "Burlington",
    "state_province": "Washington",
    "postal_code": "98233-3625",
    "country": "United States",
    "longitude": -122.3533958,
    "latitude": 48.4719343,
    "phone": "3604162537",
    "website_url": "http://www.skagit.edu",
    "state": "Washington",
    "street": "15579 Peterson Rd"
  },
  {
    "id": "79c363c6-1f8d-4714-be5c-ba9095d427d2",
    "name": "Carey's Brew House",
    "brewery_type": "brewpub",
    "address_1": "58 Bridge St",
    "address_2": null,
    "address_3": null,
    "city": "Corning",
    "state_province": "New York",
    "postal_code": "14830-2239",
    "country": "United States",
    "longitude": -77.06089704,
    "latitude": 42.15025771,
    "phone": "6073775651",
    "website_url": "http://www.careysbrewhouse.com",
    "state": "New York",
    "street": "58 Bridge St"
  },
  {
    "id": "aee2380a-6178-4db4-9688-7559cc0f8c43",
    "name": "Carillon Brewing Company",
    "brewery_type": "brewpub",
    "address_1": "1000 Carillon Blvd",
    "address_2": null,
    "address_3": null,
    "city": "Dayton",
    "state_province": "Ohio",
    "postal_code": "45409-2023",
    "country": "United States",
    "longitude": -84.20121,
    "latitude": 39.730102,
    "phone": "9372932841",
    "website_url": "http://www.carillonbrewingco.org",
    "state": "Ohio",
    "street": "1000 Carillon Blvd"
  },
  {
    "id": "4d29ef0e-2d79-4adf-a613-32de90d16705",
    "name": "Carlingford Brewing Company",
    "brewery_type": "micro",
    "address_1": "The Old Mill, , Riverstown, Co. Louth",
    "address_2": "Dundalk Road",
    "address_3": "Riverstown",
    "city": "Carlingford",
    "state_province": "Louth",
    "postal_code": "A91 D850",
    "country": "Ireland",
    "longitude": -6.2239907,
    "latitude": 53.994002,
    "phone": "353429397519",
    "website_url": "http://carlingfordbrewing.ie/",
    "state": "Louth",
    "street": "The Old Mill, , Riverstown, Co. Louth"
  },
  {
    "id": "6ddc96ca-73d4-420f-a4f1-9139120a9f1d",
    "name": "Carlow Brewing Company",
    "brewery_type": "micro",
    "address_1": "Muine Bheag Business Park",
    "address_2": "Royal Oak Rd",
    "address_3": "Moneybeg",
    "city": "Bagenalstown",
    "state_province": "Carlow",
    "postal_code": "R21 DR77",
    "country": "Ireland",
    "longitude": -6.9783782,
    "latitude": 52.6965818,
    "phone": "353599720509",
    "website_url": "http://www.carlowbrewing.com/",
    "state": "Carlow",
    "street": "Muine Bheag Business Park"
  },
  {
    "id": "f603839f-51db-44f5-ad0e-b8f8184bc945",
    "name": "Carlskrona Bryggeri AB",
    "brewery_type": "micro",
    "address_1": "Trantorps G\u00e5rd 1",
    "address_2": "c/o Trantorps G\u00e5rd",
    "address_3": null,
    "city": "Karlskrona",
    "state_province": "Blekinge",
    "postal_code": "371 91",
    "country": "Sweden",
    "longitude": 15.582,
    "latitude": 56.21074,
    "phone": "070-822 11 29",
    "website_url": null,
    "state": "Blekinge",
    "street": "Trantorps G\u00e5rd 1"
  },
  {
    "id": "e5c79228-a725-4fb7-a853-5b0a43590466",
    "name": "Carlyle Brewing Co",
    "brewery_type": "brewpub",
    "address_1": "215 E State St",
    "address_2": null,
    "address_3": null,
    "city": "Rockford",
    "state_province": "Illinois",
    "postal_code": "61104-1010",
    "country": "United States",
    "longitude": -89.09053,
    "latitude": 42.2689989,
    "phone": "8159632739",
    "website_url": "http://www.carlylebrewing.com",
    "state": "Illinois",
    "street": "215 E State St"
  },
  {
    "id": "6d4e169d-8a90-46c3-9960-e1001ac18dcd",
    "name": "Carmody Irish Pub & Brewing",
    "brewery_type": "brewpub",
    "address_1": "308 E Superior St",
    "address_2": null,
    "address_3": null,
    "city": "Duluth",
    "state_province": "Minnesota",
    "postal_code": "55802-2120",
    "country": "United States",
    "longitude": -92.09418809,
    "latitude": 46.78986799,
    "phone": "2187404747",
    "website_url": "http://www.carmodyirishpub.com",
    "state": "Minnesota",
    "street": "308 E Superior St"
  },
  {
    "id": "44e4fb51-0d59-4164-9c60-c74b19f7c20e",
    "name": "Carolina Bauernhaus Ales",
    "brewery_type": "brewpub",
    "address_1": "115 Federal St",
    "address_2": null,
    "address_3": null,
    "city": "Anderson",
    "state_province": "South Carolina",
    "postal_code": "29625-4364",
    "country": "United States",
    "longitude": null,
    "latitude": null,
    "phone": "8644018167",
    "website_url": "http://carolinabauernhaus.com",
    "state": "South Carolina",
    "street": "115 Federal St"
  },
  {
    "id": "737792a8-6c59-4e95-82cf-7cdc6cb079c1",
    "name": "Carolina Brewery - Chapel Hill",
    "brewery_type": "brewpub",
    "address_1": "460 W Franklin St",
    "address_2": null,
    "address_3": null,
    "city": "Chapel Hill",
    "state_province": "North Carolina",
    "postal_code": "27516",
    "country": "United States",
    "longitude": -79.0627304,
    "latitude": 35.9106269,
    "phone": "9199421800",
    "website_url": "http://www.carolinabrewery.com",
    "state": "North Carolina",
    "street": "460 W Franklin St"
  },
  {
    "id": "68d63e28-2666-47f4-9d74-daf21aa85e80",
    "name": "Carolina Brewery - Pittsboro",
    "brewery_type": "micro",
    "address_1": "120 Lowes Dr Ste 100",
    "address_2": null,
    "address_3": null,
    "city": "Pittsboro",
    "state_province": "North Carolina",
    "postal_code": "27312-8872",
    "country": "United States",
    "longitude": -79.1652429,
    "latitude": 35.7438093,
    "phone": "9195452337",
    "website_url": "http://www.carolinabrewery.com",
    "state": "North Carolina",
    "street": "120 Lowes Dr Ste 100"
  },
  {
    "id": "76d1605e-55fc-4c6b-8ba2-7a8d30eac9f6",
    "name": "Carolina Brewing Co",
    "brewery_type": "micro",
    "address_1": "140 Thomas Mill Rd",
    "address_2": null,
    "address_3": null,
    "city": "Holly Springs",
    "state_province": "North Carolina",
    "postal_code": "27540-9372",
    "country": "United States",
    "longitude": -78.85444105,
    "latitude": 35.6561051,
    "phone": "9195572337",
    "website_url": "http://www.carolinabrew.com",
    "state": "North Carolina",
    "street": "140 Thomas Mill Rd"
  },
  {
    "id": "e86edb51-0915-4c48-af9a-db55ae5156ff",
    "name": "Carroll Brewing Co.",
    "brewery_type": "micro",
    "address_1": "226 E 5th St",
    "address_2": null,
    "address_3": null,
    "city": "Carroll",
    "state_province": "Iowa",
    "postal_code": "51401-2743",
    "country": "United States",
    "longitude": -94.86534008,
    "latitude": 42.06385868,
    "phone": "5157090030",
    "website_url": "http://www.carrollbrewing.com",
    "state": "Iowa",
    "street": "226 E 5th St"
  },
  {
    "id": "d8ec5a8b-a005-492b-aa90-87aad31fe060",
    "name": "Carson's Brewery",
    "brewery_type": "micro",
    "address_1": "2404 Lynch Rd",
    "address_2": null,
    "address_3": null,
    "city": "Evansville",
    "state_province": "Indiana",
    "postal_code": "47711-2953",
    "country": "United States",
    "longitude": null,
    "latitude": null,
    "phone": "8127598229",
    "website_url": "http://www.carsonsbrewery.com",
    "state": "Indiana",
    "street": "2404 Lynch Rd"
  },
  {
    "id": "808baca1-ffa2-4ee5-8810-77e1b058f0be",
    "name": "Carters Brewing",
    "brewery_type": "micro",
    "address_1": "2526 Montana Ave",
    "address_2": null,
    "address_3": null,
    "city": "Billings",
    "state_province": "Montana",
    "postal_code": "59101-2313",
    "country": "United States",
    "longitude": -108.5016538,
    "latitude": 45.78291334,
    "phone": "4068617712",
    "website_url": "http://www.cartersbrewing.com",
    "state": "Montana",
    "street": "2526 Montana Ave"
  },
  {
    "id": "58bf2433-166c-4880-9f9f-aed22abb8d4a",
    "name": "Carton Brewing Co",
    "brewery_type": "micro",
    "address_1": "6 E Washington Ave",
    "address_2": null,
    "address_3": null,
    "city": "Atlantic Highlands",
    "state_province": "New Jersey",
    "postal_code": "07716-1230",
    "country": "United States",
    "longitude": -74.0381651,
    "latitude": 40.4117685,
    "phone": "7326542337",
    "website_url": "http://www.cartonbrewing.com",
    "state": "New Jersey",
    "street": "6 E Washington Ave"
  },
  {
    "id": "8b44ff77-fb30-4b24-afa6-844d9af5c8af",
    "name": "Carver Brewing Co",
    "brewery_type": "brewpub",
    "address_1": "1022 Main Ave",
    "address_2": null,
    "address_3": null,
    "city": "Durango",
    "state_province": "Colorado",
    "postal_code": "81301-5124",
    "country": "United States",
    "longitude": -107.8800415,
    "latitude": 37.2748415,
    "phone": "9702592545",
    "website_url": "http://carverbrewing.com",
    "state": "Colorado",
    "street": "1022 Main Ave"
  },
  {
    "id": "acdc94d7-84a9-49d4-b604-cdb737ca2834",
    "name": "Cary Ale House",
    "brewery_type": "brewpub",
    "address_1": "208 W Main St Lowr 1",
    "address_2": null,
    "address_3": null,
    "city": "Cary",
    "state_province": "Illinois",
    "postal_code": "60013-2786",
    "country": "United States",
    "longitude": null,
    "latitude": null,
    "phone": "8476397244",
    "website_url": "http://caryalehousebrewing.com",
    "state": "Illinois",
    "street": "208 W Main St Lowr 1"
  },
  {
    "id": "e35cdda6-f0be-4e2a-890c-bdb6659f581e",
    "name": "Casa Agria Specialty Ales",
    "brewery_type": "proprietor",
    "address_1": "701 del Norte Blvd Ste 310",
    "address_2": null,
    "address_3": null,
    "city": "Oxnard",
    "state_province": "California",
    "postal_code": "93030-7980",
    "country": "United States",
    "longitude": -119.1276491,
    "latitude": 34.20845783,
    "phone": "8054851454",
    "website_url": null,
    "state": "California",
    "street": "701 del Norte Blvd Ste 310"
  },
  {
    "id": "a38bc569-6c71-4356-8456-e3a7bf13eab9",
    "name": "Casa Vieja LLC",
    "brewery_type": "planning",
    "address_1": null,
    "address_2": null,
    "address_3": null,
    "city": "Corrales",
    "state_province": "New Mexico",
    "postal_code": "87048-8616",
    "country": "United States",
    "longitude": null,
    "latitude": null,
    "phone": "5052691919",
    "website_url": "http://www.casaviejaevents.com",
    "state": "New Mexico",
    "street": null
  },
  {
    "id": "e3e0de2f-3ec3-4143-a278-efa284b6835c",
    "name": "Cascade Brewing",
    "brewery_type": "brewpub",
    "address_1": "7424 SW Beaverton Hillsdale Hwy",
    "address_2": null,
    "address_3": null,
    "city": "Portland",
    "state_province": "Oregon",
    "postal_code": "97225-2149",
    "country": "United States",
    "longitude": -122.699417,
    "latitude": 45.478513,
    "phone": "5032960110",
    "website_url": "http://www.cascadebrewing.com",
    "state": "Oregon",
    "street": "7424 SW Beaverton Hillsdale Hwy"
  }
]