[
  {
    "id": "101dd923-8a78-4db5-9902-663d4e80b07c",
    "name": "Check Six Brewing Co",
    "brewery_type": "micro",
    "address_1": "5130 Southport Supply Rd SE",
    "address_2": null,
    "address_3": null,
    "city": "Southport",
    "state_province": "North Carolina",
    "postal_code": "28461-9261",
    "country": "United States",
    "longitude": -78.0477587,
    "latitude": 33.952339,
    "phone": "9104779280",
    "website_url": "http://www.checksixbeer.com",
    "state": "North Carolina",
    "street": "5130 Southport Supply Rd SE"
  },
  {
    "id": "6264ddf4-1dc2-4591-baed-ad889c0b5230",
    "name": "Checkerspot Brewing Company",
    "brewery_type": "brewpub",
    "address_1": "175 W Ostend St",
    "address_2": null,
    "address_3": null,
    "city": "Baltimore",
    "state_province": "Maryland",
    "postal_code": "21230",
    "country": "United States",
    "longitude": -76.6195028,
    "latitude": 39.2749156,
    "phone": "4105915527",
    "website_url": "http://www.checkerspotbrewing.com",
    "state": "Maryland",
    "street": "175 W Ostend St"
  },
  {
    "id": "58144e11-89a4-41bd-b65f-5b33de2b654a",
    "name": "Cheeky Monkey Brewing Co / Lucky Strike Jillians",
    "brewery_type": "brewpub",
    "address_1": "3 Lansdowne St",
    "address_2": null,
    "address_3": null,
    "city": "Boston",
    "state_province": "Massachusetts",
    "postal_code": "02215-3412",
    "country": "United States",
    "longitude": -71.0946215,
    "latitude": 42.34729,
    "phone": "6178590030",
    "website_url": "http://www.cheekymonkeyboston.com",
    "state": "Massachusetts",
    "street": "3 Lansdowne St"
  },
  {
    "id": "5450f71d-24e7-414c-920d-e847da6912b0",
    "name": "Chehalem Valley Brewery",
    "brewery_type": "brewpub",
    "address_1": "2515 Portland Rd Ste B",
    "address_2": null,
    "address_3": null,
    "city": "Newberg",
    "state_province": "Oregon",
    "postal_code": "97132-1940",
    "country": "United States",
    "longitude": -122.9532838,
    "latitude": 45.3057205,
    "phone": "9718328131",
    "website_url": "http://www.chehalemvalleybrewery.com",
    "state": "Oregon",
    "street": "2515 Portland Rd Ste B"
  },
  {
    "id": "307dd9fc-a513-4e7a-902b-6f9c75a33db5",
    "name": "Chelsea Alehouse Brewery",
    "brewery_type": "brewpub",
    "address_1": "420 N Main St Ste 100",
    "address_2": null,
    "address_3": null,
    "city": "Chelsea",
    "state_province": "Michigan",
    "postal_code": "48118-1299",
    "country": "United States",
    "longitude": null,
    "latitude": null,
    "phone": "7344335500",
    "website_url": "http://www.chelseaalehouse.com",
    "state": "Michigan",
    "street": "420 N Main St Ste 100"
  },
  {
    "id": "f036f7ce-8dcf-4941-bf0c-310f7f7c1e7c",
    "name": "Chelsea Craft Brewing Co Llc",
    "brewery_type": "micro",
    "address_1": "463 E 173rd St",
    "address_2": null,
    "address_3": null,
    "city": "Bronx",
    "state_province": "New York",
    "postal_code": "10457-8105",
    "country": "United States",
    "longitude": -73.9015282,
    "latitude": 40.841904,
    "phone": "7184848850",
    "website_url": "http://www.chelseacraftbrewing.com",
    "state": "New York",
    "street": "463 E 173rd St"
  },
  {
    "id": "05386e92-6e04-44c0-93a1-549eca0cc645",
    "name": "Cheluna Brewing Company",
    "brewery_type": "micro",
    "address_1": "2501 Dallas St Unit 148",
    "address_2": null,
    "address_3": null,
    "city": "Aurora",
    "state_province": "Colorado",
    "postal_code": "80010-1045",
    "country": "United States",
    "longitude": null,
    "latitude": null,
    "phone": "7206000020",
    "website_url": "http://www.cheluna.com",
    "state": "Colorado",
    "street": "2501 Dallas St Unit 148"
  },
  {
    "id": "0aa7e0cb-3465-42c8-a6cd-2af04701f286",
    "name": "Cherokee Brewing + Pizza Company",
    "brewery_type": "brewpub",
    "address_1": "207-B West Cuyler St",
    "address_2": null,
    "address_3": null,
    "city": "Dalton",
    "state_province": "Georgia",
    "postal_code": "30720",
    "country": "United States",
    "longitude": -84.96940721,
    "latitude": 34.76976664,
    "phone": "7065299478",
    "website_url": "http://www.cherokeebrewingandpizza.com",
    "state": "Georgia",
    "street": "207-B West Cuyler St"
  },
  {
    "id": "7646821c-eb5d-4e8f-888e-d1f76f9cb366",
    "name": "Chesapeake Brewing Co",
    "brewery_type": "brewpub",
    "address_1": "114 West St",
    "address_2": null,
    "address_3": null,
    "city": "Annapolis",
    "state_province": "Maryland",
    "postal_code": "21401-2802",
    "country": "United States",
    "longitude": -76.4974843,
    "latitude": 38.9780984,
    "phone": "4102680000",
    "website_url": "http://www.chesbrewco.com",
    "state": "Maryland",
    "street": "114 West St"
  },
  {
    "id": "b2763258-7b12-4551-b16f-3c9deba2bc7e",
    "name": "Chesepiooc Real Ale Brewery",
    "brewery_type": "micro",
    "address_1": "2408 Crofton Blvd",
    "address_2": null,
    "address_3": null,
    "city": "Crofton",
    "state_province": "Maryland",
    "postal_code": "21114",
    "country": "United States",
    "longitude": -76.69804666,
    "latitude": 39.01687169,
    "phone": "4106301579",
    "website_url": "http://www.brewcrab.com",
    "state": "Maryland",
    "street": "2408 Crofton Blvd"
  },
  {
    "id": "e59e1145-0db1-4918-bf40-860407a2ca11",
    "name": "Cheshmeh Brewing Co",
    "brewery_type": "planning",
    "address_1": null,
    "address_2": null,
    "address_3": null,
    "city": "White Plains",
    "state_province": "New York",
    "postal_code": "10605-3517",
    "country": "United States",
    "longitude": null,
    "latitude": null,
    "phone": null,
    "website_url": null,
    "state": "New York",
    "street": null
  },
  {
    "id": "ad90e19c-cc4a-47ff-ba91-8779d55aa040",
    "name": "Chestnut Brew Works",
    "brewery_type": "micro",
    "address_1": "444 Brockway Ave",
    "address_2": null,
    "address_3": null,
    "city": "Morgantown",
    "state_province": "West Virginia",
    "postal_code": "26501",
    "country": "United States",
    "longitude": -79.9507513,
    "latitude": 39.6272755,
    "phone": "3042762737",
    "website_url": "http://www.chestnutbrewworks.com",
    "state": "West Virginia",
    "street": "444 Brockway Ave"
  },
  {
    "id": "4fbae1fe-8335-4381-becb-3412e5fa3763",
    "name": "Chetco Brewing Company",
    "brewery_type": "micro",
    "address_1": "830 Railroad St",
    "address_2": null,
    "address_3": null,
    "city": "Brookings",
    "state_province": "Oregon",
    "postal_code": "97415",
    "country": "United States",
    "longitude": -124.2875954,
    "latitude": 42.0521588,
    "phone": "5416615347",
    "website_url": "http://www.chetcobrew.com",
    "state": "Oregon",
    "street": "830 Railroad St"
  },
  {
    "id": "3c820163-0cdf-4f61-a2d7-bb294da08380",
    "name": "Chicago Beer Company",
    "brewery_type": "contract",
    "address_1": "1140 W Randolph St",
    "address_2": null,
    "address_3": null,
    "city": "Chicago",
    "state_province": "Illinois",
    "postal_code": "60607-1619",
    "country": "United States",
    "longitude": -87.65589165,
    "latitude": 41.88434,
    "phone": "7732448696",
    "website_url": "http://www.chicagobeerco.com",
    "state": "Illinois",
    "street": "1140 W Randolph St"
  },
  {
    "id": "d1998a9b-eacd-439c-be7f-09b9b84fc95a",
    "name": "Chicago Brewing Co - NV",
    "brewery_type": "brewpub",
    "address_1": "2201 S Fort Apache Rd",
    "address_2": null,
    "address_3": null,
    "city": "Las Vegas",
    "state_province": "Nevada",
    "postal_code": "89117-5704",
    "country": "United States",
    "longitude": -115.2983835,
    "latitude": 36.1475868,
    "phone": "7022543333",
    "website_url": "http://www.chicagobrewingcolv.com",
    "state": "Nevada",
    "street": "2201 S Fort Apache Rd"
  },
  {
    "id": "653a1d3f-2589-46f0-b8f5-e76db412ae53",
    "name": "Chili Line Brewing Co.",
    "brewery_type": "brewpub",
    "address_1": "204 N. Guadalupe St.",
    "address_2": null,
    "address_3": null,
    "city": "Santa Fe",
    "state_province": "New Mexico",
    "postal_code": "87501-1827",
    "country": "United States",
    "longitude": -105.9435314,
    "latitude": 35.68947555,
    "phone": "5055007903",
    "website_url": "http://www.chililinebrewery@gmail.com",
    "state": "New Mexico",
    "street": "204 N. Guadalupe St."
  },
  {
    "id": "0e0f9002-fe65-4484-a951-03045a1e08b1",
    "name": "CHILLAX Brewing Company LLC",
    "brewery_type": "planning",
    "address_1": null,
    "address_2": null,
    "address_3": null,
    "city": "Milford",
    "state_province": "Michigan",
    "postal_code": "48381-2243",
    "country": "United States",
    "longitude": null,
    "latitude": null,
    "phone": "2483883458",
    "website_url": null,
    "state": "Michigan",
    "street": null
  },
  {
    "id": "b7ba052d-c12c-4548-8727-0e949508d9e3",
    "name": "Chilly Water Brewing Company",
    "brewery_type": "brewpub",
    "address_1": "719 Virginia Ave Ste 105",
    "address_2": null,
    "address_3": null,
    "city": "Indianapolis",
    "state_province": "Indiana",
    "postal_code": "46203-1976",
    "country": "United States",
    "longitude": null,
    "latitude": null,
    "phone": "3179640518",
    "website_url": "http://www.chillywaterbrewing.com",
    "state": "Indiana",
    "street": "719 Virginia Ave Ste 105"
  },
  {
    "id": "c2f3c08f-5b47-4dba-93c4-328762b5a266",
    "name": "Chimera Brewing Company",
    "brewery_type": "brewpub",
    "address_1": "1001 W Magnolia Ave",
    "address_2": null,
    "address_3": null,
    "city": "Fort Worth",
    "state_province": "Texas",
    "postal_code": "76104-4504",
    "country": "United States",
    "longitude": -97.33528782,
    "latitude": 32.7303843,
    "phone": "8179238000",
    "website_url": "http://www.chimerabrew.com",
    "state": "Texas",
    "street": "1001 W Magnolia Ave"
  },
  {
    "id": "d048e2ca-6b0b-43b3-ac7b-2422af3aef33",
    "name": "Chino Hills Brewing Co.",
    "brewery_type": "brewpub",
    "address_1": "3280 Chino Hills Pkwy #1",
    "address_2": null,
    "address_3": null,
    "city": "Chino Hills",
    "state_province": "California",
    "postal_code": "91709",
    "country": "United States",
    "longitude": -117.7341019,
    "latitude": 33.98303313,
    "phone": "9092471800",
    "website_url": "http://www.chinohillsbrewingco.com",
    "state": "California",
    "street": "3280 Chino Hills Pkwy #1"
  },
  {
    "id": "d93058cf-49b3-4703-b194-d92f827e778f",
    "name": "Chino Valley Brewery",
    "brewery_type": "closed",
    "address_1": "1609 E. Grove Ave, Unit 109",
    "address_2": null,
    "address_3": null,
    "city": "Ontario",
    "state_province": "California",
    "postal_code": "91761-5786",
    "country": "United States",
    "longitude": -117.627567,
    "latitude": 34.05034112,
    "phone": "9512917117",
    "website_url": "http://www.chinovalleybrewery.com",
    "state": "California",
    "street": "1609 E. Grove Ave, Unit 109"
  },
  {
    "id": "8028941f-0c22-42e0-a99a-2e86a655aac5",
    "name": "Choc Beer Co",
    "brewery_type": "micro",
    "address_1": "120 S West 8th St",
    "address_2": null,
    "address_3": null,
    "city": "Krebs",
    "state_province": "Oklahoma",
    "postal_code": "74554-0066",
    "country": "United States",
    "longitude": -95.7247222,
    "latitude": 34.9258333,
    "phone": "9183023002",
    "website_url": "http://www.petes.org",
    "state": "Oklahoma",
    "street": "120 S West 8th St"
  },
  {
    "id": "01d63632-5f2c-4cae-82b3-a85ad36b0aa3",
    "name": "ChopHouse and Brewery - Denver",
    "brewery_type": "brewpub",
    "address_1": "1735 19th St Ste 100",
    "address_2": null,
    "address_3": null,
    "city": "Denver",
    "state_province": "Colorado",
    "postal_code": "80202-6002",
    "country": "United States",
    "longitude": null,
    "latitude": null,
    "phone": "3032960800",
    "website_url": "http://www.craftworksrestaurants.com",
    "state": "Colorado",
    "street": "1735 19th St Ste 100"
  },
  {
    "id": "7ff6ddb0-bd1e-4e5c-b2a3-bf66fac6e6d7",
    "name": "Choteau Creek Brewing Company",
    "brewery_type": "micro",
    "address_1": "40228 296th St",
    "address_2": null,
    "address_3": null,
    "city": "Wagner",
    "state_province": "South Dakota",
    "postal_code": "57380-6968",
    "country": "United States",
    "longitude": -98.1387997,
    "latitude": 43.11037166,
    "phone": null,
    "website_url": "http://www.facebook.com/loveourbeer",
    "state": "South Dakota",
    "street": "40228 296th St"
  },
  {
    "id": "cee664ba-c129-45ea-a00e-8fad713dcea0",
    "name": "Christian Moerlein Brewing Co",
    "brewery_type": "regional",
    "address_1": "1621 Moore St",
    "address_2": null,
    "address_3": null,
    "city": "Cincinnati",
    "state_province": "Ohio",
    "postal_code": "45202-6438",
    "country": "United States",
    "longitude": -84.51533432,
    "latitude": 39.11322509,
    "phone": "5138276025",
    "website_url": "http://www.christianmoerlein.com",
    "state": "Ohio",
    "street": "1621 Moore St"
  },
  {
    "id": "bbae1c38-aaae-4d38-b72a-9ed1ded92f05",
    "name": "Chubby Squirrel Brewing Company",
    "brewery_type": "brewpub",
    "address_1": "10382 Willard Way",
    "address_2": null,
    "address_3": null,
    "city": "Fairfax",
    "state_province": "Virginia",
    "postal_code": "22030-2508",
    "country": "United States",
    "longitude": -77.30201557,
    "latitude": 38.84818941,
    "phone": "5405588040",
    "website_url": "http://www.chubbysquirrelbrewing.com",
    "state": "Virginia",
    "street": "10382 Willard Way"
  },
  {
    "id": "65025df7-32bc-4a38-a4f5-09492aa403bb",
    "name": "ChuckAlek Independent Brewers",
    "brewery_type": "closed",
    "address_1": "2330 Main St Ste C",
    "address_2": null,
    "address_3": null,
    "city": "Ramona",
    "state_province": "California",
    "postal_code": "92065-2539",
    "country": "United States",
    "longitude": -116.8892394,
    "latitude": 33.02777389,
    "phone": null,
    "website_url": "http://www.chuckalek.com",
    "state": "California",
    "street": "2330 Main St Ste C"
  },
  {
    "id": "44b14d44-1156-467f-b3dc-c04127bccc6f",
    "name": "Chuckanut - South Nut",
    "brewery_type": "micro",
    "address_1": "11937 Higgins Airport Way",
    "address_2": null,
    "address_3": null,
    "city": "Burlington",
    "state_province": "Washington",
    "postal_code": "98233-5312",
    "country": "United States",
    "longitude": -122.411968,
    "latitude": 48.473804,
    "phone": "3607523377",
    "website_url": "https://chuckanutbrewery.com/south-nut/",
    "state": "Washington",
    "street": "11937 Higgins Airport Way"
  },
  {
    "id": "813e88ed-ddef-4c0c-9151-66ab6f745a2e",
    "name": "Chuckanut Brewery - North Nut",
    "brewery_type": "closed",
    "address_1": "601 W Holly St",
    "address_2": null,
    "address_3": null,
    "city": "Bellingham",
    "state_province": "Washington",
    "postal_code": "98225-3920",
    "country": "United States",
    "longitude": -122.4851164,
    "latitude": 48.7533261,
    "phone": "3607523377",
    "website_url": "https://chuckanutbrewery.com/north-nut/",
    "state": "Washington",
    "street": "601 W Holly St"
  },
  {
    "id": "9c5edc2a-5f36-449f-b407-dc124c466fe9",
    "name": "Chula Vista Brewery",
    "brewery_type": "micro",
    "address_1": "294 Third Ave",
    "address_2": null,
    "address_3": null,
    "city": "Chula Vista",
    "state_province": "California",
    "postal_code": "91910-2701",
    "country": "United States",
    "longitude": -117.080369,
    "latitude": 32.641495,
    "phone": "6196168806",
    "website_url": "http://www.chulavistabrewery.com",
    "state": "California",
    "street": "294 Third Ave"
  },
  {
    "id": "f644ee47-6458-4a46-9c25-b7e1ef8dd2e0",
    "name": "Church Brew Works/Lawrenceville Brewery Inc.",
    "brewery_type": "brewpub",
    "address_1": "3525 Liberty Ave",
    "address_2": null,
    "address_3": null,
    "city": "Pittsburgh",
    "state_province": "Pennsylvania",
    "postal_code": "15201-1324",
    "country": "United States",
    "longitude": -79.9643613,
    "latitude": 40.4620769,
    "phone": "4126888200",
    "website_url": "http://www.churchbrew.com",
    "state": "Pennsylvania",
    "street": "3525 Liberty Ave"
  },
  {
    "id": "3c601a1e-82a4-4cc3-a407-3a5e6306438a",
    "name": "Church Owl Beer",
    "brewery_type": "micro",
    "address_1": null,
    "address_2": null,
    "address_3": null,
    "city": "Stratford",
    "state_province": "Connecticut",
    "postal_code": "06615-7320",
    "country": "United States",
    "longitude": null,
    "latitude": null,
    "phone": null,
    "website_url": "http://www.churchowlbeer.com",
    "state": "Connecticut",
    "street": null
  },
  {
    "id": "6fae9a05-6763-4a14-9812-bc6101b5860c",
    "name": "Church Street Brewing Company",
    "brewery_type": "micro",
    "address_1": "1480 Industrial Dr Ste C",
    "address_2": null,
    "address_3": null,
    "city": "Itasca",
    "state_province": "Illinois",
    "postal_code": "60143-1857",
    "country": "United States",
    "longitude": null,
    "latitude": null,
    "phone": "6307098851",
    "website_url": "http://www.churchstreetbrew.com",
    "state": "Illinois",
    "street": "1480 Industrial Dr Ste C"
  },
  {
    "id": "14ea4e7c-498c-417e-89e9-eabaf9b7051f",
    "name": "Cibolo Creek Brewing Co.",
    "brewery_type": "brewpub",
    "address_1": "448 S Main St",
    "address_2": null,
    "address_3": null,
    "city": "Boerne",
    "state_province": "Texas",
    "postal_code": "78006-2338",
    "country": "United States",
    "longitude": -98.72996029,
    "latitude": 29.79015427,
    "phone": "8308165275",
    "website_url": "http://www.cibolocreekbrewing.com",
    "state": "Texas",
    "street": "448 S Main St"
  },
  {
    "id": "acf2e29a-72cf-4d57-8de8-99681e6cf598",
    "name": "Ciclops Cyderi and Brewery",
    "brewery_type": "brewpub",
    "address_1": "197 E Saint John St",
    "address_2": null,
    "address_3": null,
    "city": "Spartanburg",
    "state_province": "South Carolina",
    "postal_code": "29306-5121",
    "country": "United States",
    "longitude": -81.92952168,
    "latitude": 34.95241345,
    "phone": "8647049080",
    "website_url": "http://www.ciclopscyderiandbrewery.com",
    "state": "South Carolina",
    "street": "197 E Saint John St"
  },
  {
    "id": "028c442f-1eaa-45b0-b4be-3871ed49f217",
    "name": "Cigar City Airport Location",
    "brewery_type": "planning",
    "address_1": null,
    "address_2": null,
    "address_3": null,
    "city": "Tampa",
    "state_province": "Florida",
    "postal_code": "33607",
    "country": "United States",
    "longitude": null,
    "latitude": null,
    "phone": null,
    "website_url": null,
    "state": "Florida",
    "street": null
  },
  {
    "id": "1eff0c5d-93dc-4b96-acec-cdcfd85b6769",
    "name": "Cigar City Brewing Co",
    "brewery_type": "regional",
    "address_1": "3924 W Spruce St",
    "address_2": null,
    "address_3": null,
    "city": "Tampa",
    "state_province": "Florida",
    "postal_code": "33607-2441",
    "country": "United States",
    "longitude": -82.509195,
    "latitude": 27.959172,
    "phone": "8133486363",
    "website_url": "http://www.cigarcitybrewing.com",
    "state": "Florida",
    "street": "3924 W Spruce St"
  },
  {
    "id": "863f291f-32aa-40df-8810-f37911e4ae6a",
    "name": "Cinco Chagas",
    "brewery_type": "micro",
    "address_1": "Rua das Cavadas N8",
    "address_2": "Vale do Boi",
    "address_3": "Moita",
    "city": "Anadia",
    "state_province": "Aveiro",
    "postal_code": "3780-482",
    "country": "Portugal",
    "longitude": null,
    "latitude": null,
    "phone": null,
    "website_url": "https://cincochagas.pt",
    "state": "Aveiro",
    "street": "Rua das Cavadas N8"
  },
  {
    "id": "e26d38f2-3c74-4256-b0a8-971d3225aef0",
    "name": "Cinder Block Brewery",
    "brewery_type": "brewpub",
    "address_1": "110 E 18th Ave",
    "address_2": null,
    "address_3": null,
    "city": "North Kansas City",
    "state_province": "Missouri",
    "postal_code": "64116-3635",
    "country": "United States",
    "longitude": -94.57946521,
    "latitude": 39.14033716,
    "phone": "8165608365",
    "website_url": "http://www.cinderblockbrewery.com",
    "state": "Missouri",
    "street": "110 E 18th Ave"
  },
  {
    "id": "0331a476-a7f7-4c43-ab9f-00e427225443",
    "name": "Cinderlands Beer Co.",
    "brewery_type": "brewpub",
    "address_1": "3705 Butler St",
    "address_2": null,
    "address_3": null,
    "city": "Pittsburgh",
    "state_province": "Pennsylvania",
    "postal_code": "15201-1819",
    "country": "United States",
    "longitude": -79.9224894,
    "latitude": 40.4884044,
    "phone": "4122510656",
    "website_url": "http://www.cinderlands.com",
    "state": "Pennsylvania",
    "street": "3705 Butler St"
  },
  {
    "id": "e5ab0f7c-9606-42ce-8131-a8f6aa5af100",
    "name": "Circa Brewing Co",
    "brewery_type": "brewpub",
    "address_1": "141 Lawrence St",
    "address_2": null,
    "address_3": null,
    "city": "Brooklyn",
    "state_province": "New York",
    "postal_code": "11201",
    "country": "United States",
    "longitude": -73.986155,
    "latitude": 40.6917243,
    "phone": "7188580055",
    "website_url": "http://www.circabrewing.co",
    "state": "New York",
    "street": "141 Lawrence St"
  },
  {
    "id": "6305c46c-4977-4df8-9f2e-fc98709f971f",
    "name": "Circle 7 Brew Works",
    "brewery_type": "closed",
    "address_1": "20290 Corbridge Rd SE",
    "address_2": null,
    "address_3": null,
    "city": "Monroe",
    "state_province": "Washington",
    "postal_code": "98272-8602",
    "country": "United States",
    "longitude": -121.9584645,
    "latitude": 47.86794845,
    "phone": "2067470269",
    "website_url": null,
    "state": "Washington",
    "street": "20290 Corbridge Rd SE"
  },
  {
    "id": "1e40495c-ca51-455d-a24b-6769efc04060",
    "name": "Circle 9 Brewing",
    "brewery_type": "micro",
    "address_1": "7292 Opportunity Rd Ste C",
    "address_2": null,
    "address_3": null,
    "city": "San Diego",
    "state_province": "California",
    "postal_code": "92111-2223",
    "country": "United States",
    "longitude": -117.160822,
    "latitude": 32.82600737,
    "phone": "8582569462",
    "website_url": "https://ataraxiaaleworks.com/",
    "state": "California",
    "street": "7292 Opportunity Rd Ste C"
  },
  {
    "id": "acb378f5-15e7-4a1a-b73b-c1e49f17d8a1",
    "name": "Circle 9 Brewing",
    "brewery_type": "closed",
    "address_1": "7292 Opportunity Rd Ste C",
    "address_2": null,
    "address_3": null,
    "city": "San Diego",
    "state_province": "California",
    "postal_code": "92111-2223",
    "country": "United States",
    "longitude": -117.160822,
    "latitude": 32.82600737,
    "phone": "8586342537",
    "website_url": "http://www.circle9brewing.com",
    "state": "California",
    "street": "7292 Opportunity Rd Ste C"
  },
  {
    "id": "40c6daa0-a9f0-4ad9-94ab-b08c8848dad8",
    "name": "Circle and Square Brewery",
    "brewery_type": "micro",
    "address_1": "100 Depot St",
    "address_2": null,
    "address_3": null,
    "city": "Oxford",
    "state_province": "Mississippi",
    "postal_code": "38655",
    "country": "United States",
    "longitude": -89.52775101,
    "latitude": 34.36809,
    "phone": "6622050128",
    "website_url": "https://circleandsquare.beer/",
    "state": "Mississippi",
    "street": "100 Depot St"
  },
  {
    "id": "b9ff8168-abfc-429d-b6d4-8322c671a96d",
    "name": "Circle Brewing Company",
    "brewery_type": "micro",
    "address_1": "2340 W Braker Ln Ste B",
    "address_2": null,
    "address_3": null,
    "city": "Austin",
    "state_province": "Texas",
    "postal_code": "78758-4542",
    "country": "United States",
    "longitude": null,
    "latitude": null,
    "phone": "5128147599",
    "website_url": "http://www.circlebrewing.com",
    "state": "Texas",
    "street": "2340 W Braker Ln Ste B"
  },
  {
    "id": "7e749a31-8ae6-4997-9847-b3cdbd2e7c9e",
    "name": "Cisco Brewers",
    "brewery_type": "micro",
    "address_1": "5 Bartlett Farm Rd",
    "address_2": null,
    "address_3": null,
    "city": "Nantucket",
    "state_province": "Massachusetts",
    "postal_code": "02554-4341",
    "country": "United States",
    "longitude": -70.1292845,
    "latitude": 41.26135815,
    "phone": "5083255929",
    "website_url": "http://www.ciscobrewers.com",
    "state": "Massachusetts",
    "street": "5 Bartlett Farm Rd"
  },
  {
    "id": "b8ad748d-59b1-4860-a062-94cad3f77a70",
    "name": "Cismontane Brewing Co",
    "brewery_type": "micro",
    "address_1": "1409 E Warner Ave Ste C",
    "address_2": null,
    "address_3": null,
    "city": "Santa Ana",
    "state_province": "California",
    "postal_code": "92705-5432",
    "country": "United States",
    "longitude": -117.8518941,
    "latitude": 33.71623805,
    "phone": "9498882739",
    "website_url": "http://www.cismontanebrewing.com",
    "state": "California",
    "street": "1409 E Warner Ave Ste C"
  },
  {
    "id": "151d81b1-6d9b-4c31-80da-c8005d5e6205",
    "name": "Citizen Brewers",
    "brewery_type": "micro",
    "address_1": "5837 Mission Gorge Rd Ste A",
    "address_2": null,
    "address_3": null,
    "city": "San Diego",
    "state_province": "California",
    "postal_code": "92120-4060",
    "country": "United States",
    "longitude": -117.1003579,
    "latitude": 32.78109987,
    "phone": "7605877989",
    "website_url": "http://www.citizenbrewers.com",
    "state": "California",
    "street": "5837 Mission Gorge Rd Ste A"
  },
  {
    "id": "5eaf3169-986e-40f9-9f2b-426f04fee23b",
    "name": "City Acre Brewing Co",
    "brewery_type": "brewpub",
    "address_1": "3418 Topping St",
    "address_2": null,
    "address_3": null,
    "city": "Houston",
    "state_province": "Texas",
    "postal_code": "77093",
    "country": "United States",
    "longitude": -95.3350882,
    "latitude": 29.8570358,
    "phone": "8323770237",
    "website_url": "http://www.cityacrebrewing.com",
    "state": "Texas",
    "street": "3418 Topping St"
  }
]