[
  {
    "id": "90bd1462-fbc7-4ced-a354-cd24f3996576",
    "name": "Boone Valley Brewing Co",
    "brewery_type": "micro",
    "address_1": "816 7th St",
    "address_2": null,
    "address_3": null,
    "city": "Boone",
    "state_province": "Iowa",
    "postal_code": "50036-2818",
    "country": "United States",
    "longitude": -93.88096265,
    "latitude": 42.062643,
    "phone": "5154321232",
    "website_url": "http://www.boonevalleybrewing.com",
    "state": "Iowa",
    "street": "816 7th St"
  },
  {
    "id": "bcdb6b87-37af-4168-ae08-976e89498a10",
    "name": "Booneshine Brewing Company",
    "brewery_type": "micro",
    "address_1": "465 Industrial Park Dr.",
    "address_2": null,
    "address_3": null,
    "city": "Boone",
    "state_province": "North Carolina",
    "postal_code": "28607",
    "country": "United States",
    "longitude": -81.645208,
    "latitude": 36.222104,
    "phone": "8282634305",
    "website_url": "http://www.booneshine.beer",
    "state": "North Carolina",
    "street": "465 Industrial Park Dr."
  },
  {
    "id": "7dd5dd2e-62e8-427f-81a3-8ecfa17d63d6",
    "name": "Boot N Flute Brewery / Guild Wurst Tavern",
    "brewery_type": "brewpub",
    "address_1": "53 2nd St",
    "address_2": null,
    "address_3": null,
    "city": "Coralville",
    "state_province": "Iowa",
    "postal_code": "52241",
    "country": "United States",
    "longitude": -91.56271744,
    "latitude": 41.66788468,
    "phone": "3193331740",
    "website_url": "http://www.guildwursttavern.com",
    "state": "Iowa",
    "street": "53 2nd St"
  },
  {
    "id": "59b00fce-d9cf-4278-982e-684554d23b87",
    "name": "Boothbay Craft Brewery, Inc",
    "brewery_type": "micro",
    "address_1": "301 Adams Pond Rd",
    "address_2": null,
    "address_3": null,
    "city": "Boothbay",
    "state_province": "Maine",
    "postal_code": "04537-4334",
    "country": "United States",
    "longitude": null,
    "latitude": null,
    "phone": "2076333411",
    "website_url": "http://www.boothbaycraftbrewery.com",
    "state": "Maine",
    "street": "301 Adams Pond Rd"
  },
  {
    "id": "31a00e99-284f-419b-a1e9-93cc47cec627",
    "name": "Bootleg Brewers - Sandhills Brewing Company",
    "brewery_type": "brewpub",
    "address_1": "45145 829th Rd",
    "address_2": null,
    "address_3": null,
    "city": "Taylor",
    "state_province": "Nebraska",
    "postal_code": "68879-8120",
    "country": "United States",
    "longitude": -99.4254083,
    "latitude": 41.8662836,
    "phone": "3089423440",
    "website_url": "http://www.bootlegbrewers.com",
    "state": "Nebraska",
    "street": "45145 829th Rd"
  },
  {
    "id": "3ced5c24-34e0-4346-9167-572a6d2ba16c",
    "name": "Bootleggers Brewery",
    "brewery_type": "micro",
    "address_1": "130 S Highland Ave",
    "address_2": null,
    "address_3": null,
    "city": "Fullerton",
    "state_province": "California",
    "postal_code": "92832-1803",
    "country": "United States",
    "longitude": -117.928591,
    "latitude": 33.87004,
    "phone": "7148712337",
    "website_url": null,
    "state": "California",
    "street": "130 S Highland Ave"
  },
  {
    "id": "d9e00679-9ced-416c-9042-c1414a47dba4",
    "name": "Bootleggers Brewery",
    "brewery_type": "micro",
    "address_1": "1100 E Truslow Ave",
    "address_2": null,
    "address_3": null,
    "city": "Fullerton",
    "state_province": "California",
    "postal_code": "92831-4626",
    "country": "United States",
    "longitude": -117.9080095,
    "latitude": 33.86741253,
    "phone": "7148712337",
    "website_url": "http://www.bootleggersbrewery.com",
    "state": "California",
    "street": "1100 E Truslow Ave"
  },
  {
    "id": "76d91768-88ce-485a-91e2-83baf9d2f10c",
    "name": "Boots Brewing Company, Inc.",
    "brewery_type": "micro",
    "address_1": "89 Public Sq",
    "address_2": null,
    "address_3": null,
    "city": "Watertown",
    "state_province": "New York",
    "postal_code": "13601-2626",
    "country": "United States",
    "longitude": -75.90904644,
    "latitude": 43.97475173,
    "phone": "3157670794",
    "website_url": "http://www.bootsbrew.com",
    "state": "New York",
    "street": "89 Public Sq"
  },
  {
    "id": "e2c8bc39-b3c3-475a-8552-2b323d1d4e0a",
    "name": "Bootstrap Brewing",
    "brewery_type": "micro",
    "address_1": "142 Pratt St",
    "address_2": null,
    "address_3": null,
    "city": "Longmont",
    "state_province": "Colorado",
    "postal_code": "80501",
    "country": "United States",
    "longitude": -105.1062808,
    "latitude": 40.16140505,
    "phone": "3036524186",
    "website_url": null,
    "state": "Colorado",
    "street": "142 Pratt St"
  },
  {
    "id": "a3412077-804c-4613-a7e6-9546b47ced90",
    "name": "Bootstrap Brewing Co",
    "brewery_type": "micro",
    "address_1": "6778 N 79th St",
    "address_2": null,
    "address_3": null,
    "city": "Niwot",
    "state_province": "Colorado",
    "postal_code": "80503-7118",
    "country": "United States",
    "longitude": -105.1691581,
    "latitude": 40.09681247,
    "phone": "3036524186",
    "website_url": "http://www.bootstrapbrewing.com",
    "state": "Colorado",
    "street": "6778 N 79th St"
  },
  {
    "id": "e6f749a5-aa78-46ae-9e84-c001986a9305",
    "name": "Booze Brothers Brewing Co.",
    "brewery_type": "brewpub",
    "address_1": "2545 Progress St",
    "address_2": null,
    "address_3": null,
    "city": "Vista",
    "state_province": "California",
    "postal_code": "92081-8483",
    "country": "United States",
    "longitude": -117.218025,
    "latitude": 33.148212,
    "phone": "7602950217",
    "website_url": "http://www.boozebrothersbrewery.com",
    "state": "California",
    "street": "2545 Progress St"
  },
  {
    "id": "23239fd9-a723-4227-878a-4e3905885acb",
    "name": "Border Brewery/Border Brew Supply",
    "brewery_type": "micro",
    "address_1": "224 N Broadway Ste D14",
    "address_2": null,
    "address_3": null,
    "city": "Salem",
    "state_province": "New Hampshire",
    "postal_code": "03079-2145",
    "country": "United States",
    "longitude": null,
    "latitude": null,
    "phone": "6032169134",
    "website_url": "http://www.borderbrewsupply.com",
    "state": "New Hampshire",
    "street": "224 N Broadway Ste D14"
  },
  {
    "id": "05250da0-46b3-4d2a-bf60-c185f602780d",
    "name": "Border Brewing Company",
    "brewery_type": "micro",
    "address_1": "406 E 18th St",
    "address_2": null,
    "address_3": null,
    "city": "Kansas City",
    "state_province": "Missouri",
    "postal_code": "64108",
    "country": "United States",
    "longitude": -94.5786142,
    "latitude": 39.0917581,
    "phone": "8163156807",
    "website_url": "http://www.borderbrewco.com",
    "state": "Missouri",
    "street": "406 E 18th St"
  },
  {
    "id": "e1a5d62a-19a5-4a73-9aa6-0e7ca2799868",
    "name": "Border Town Pub",
    "brewery_type": "brewpub",
    "address_1": "22 N Dixie Hwy # 28",
    "address_2": null,
    "address_3": null,
    "city": "Momence",
    "state_province": "Illinois",
    "postal_code": "60954-1504",
    "country": "United States",
    "longitude": -87.66261835,
    "latitude": 41.16238275,
    "phone": "8154724340",
    "website_url": "http://www.BorderTownPub.com",
    "state": "Illinois",
    "street": "22 N Dixie Hwy # 28"
  },
  {
    "id": "b28d3c64-b98d-4c97-a1bd-ab2465b0dbdb",
    "name": "Border X Brewing",
    "brewery_type": "micro",
    "address_1": "2181 Logan Ave",
    "address_2": null,
    "address_3": null,
    "city": "San Diego",
    "state_province": "California",
    "postal_code": "92113-2203",
    "country": "United States",
    "longitude": -117.1397541,
    "latitude": 32.6982174,
    "phone": "6195010503",
    "website_url": "http://www.borderxbrewing.com",
    "state": "California",
    "street": "2181 Logan Ave"
  },
  {
    "id": "e61f3a16-9521-40a6-9f86-3918b7081a6f",
    "name": "Border X Logan",
    "brewery_type": "brewpub",
    "address_1": "2181 Logan Ave",
    "address_2": null,
    "address_3": null,
    "city": "San Diego",
    "state_province": "California",
    "postal_code": "92113-2203",
    "country": "United States",
    "longitude": -117.1397541,
    "latitude": 32.6982174,
    "phone": "8584050528",
    "website_url": "http://www.borderxbrewing.com",
    "state": "California",
    "street": "2181 Logan Ave"
  },
  {
    "id": "0f840953-1dd8-478d-a6b6-3ea6ce3a65ac",
    "name": "Borderlands Brewing Co",
    "brewery_type": "micro",
    "address_1": "119 E Toole Ave",
    "address_2": null,
    "address_3": null,
    "city": "Tucson",
    "state_province": "Arizona",
    "postal_code": "85701-1210",
    "country": "United States",
    "longitude": -110.9676305,
    "latitude": 32.22334681,
    "phone": "5202618773",
    "website_url": "http://www.borderlandsbrewing.com",
    "state": "Arizona",
    "street": "119 E Toole Ave"
  },
  {
    "id": "73dfe26a-7ed0-43ff-b930-cf7caa16c2a1",
    "name": "Boring Brewing Co., LLC",
    "brewery_type": "micro",
    "address_1": "38250 Pioneer Blvd",
    "address_2": null,
    "address_3": null,
    "city": "Sandy",
    "state_province": "Oregon",
    "postal_code": "97009",
    "country": "United States",
    "longitude": -122.2702045,
    "latitude": 45.39722205,
    "phone": "5034278619",
    "website_url": "http://www.boringbrewing.com",
    "state": "Oregon",
    "street": "38250 Pioneer Blvd"
  },
  {
    "id": "58b42b92-8294-4785-9767-5c12009610fe",
    "name": "Boscos Squared",
    "brewery_type": "brewpub",
    "address_1": "2120 Madison Ave",
    "address_2": null,
    "address_3": null,
    "city": "Memphis",
    "state_province": "Tennessee",
    "postal_code": "38104-6502",
    "country": "United States",
    "longitude": -90.0401714,
    "latitude": 35.1417658,
    "phone": "9014322222",
    "website_url": "http://www.boscosbeer.com",
    "state": "Tennessee",
    "street": "2120 Madison Ave"
  },
  {
    "id": "54d82d12-cdc6-4721-a519-40b53de28ffa",
    "name": "Bosk Brew Works",
    "brewery_type": "micro",
    "address_1": "14350 NE 193rd Pl",
    "address_2": null,
    "address_3": null,
    "city": "Woodinville",
    "state_province": "Washington",
    "postal_code": "98072-8402",
    "country": "United States",
    "longitude": -122.1492358,
    "latitude": 47.76907913,
    "phone": "4254194782",
    "website_url": "https://boskbrewworks.com",
    "state": "Washington",
    "street": "14350 NE 193rd Pl"
  },
  {
    "id": "024f587b-17f8-42b6-8554-423162e200c9",
    "name": "Bosque Brewing Co",
    "brewery_type": "micro",
    "address_1": "8900 San Mateo Blvd NE Ste I",
    "address_2": null,
    "address_3": null,
    "city": "Albuquerque",
    "state_province": "New Mexico",
    "postal_code": "87113-2459",
    "country": "United States",
    "longitude": null,
    "latitude": null,
    "phone": "5054333889",
    "website_url": "http://www.bosquebrewingco.com",
    "state": "New Mexico",
    "street": "8900 San Mateo Blvd NE Ste I"
  },
  {
    "id": "9cfb70f4-7918-426f-9280-2c93e0b46c09",
    "name": "Bosque Brewing Co - Bosque North",
    "brewery_type": "micro",
    "address_1": "834 W. Highway 550",
    "address_2": null,
    "address_3": null,
    "city": "Bernalillo",
    "state_province": "New Mexico",
    "postal_code": "87004",
    "country": "United States",
    "longitude": null,
    "latitude": null,
    "phone": "5054333889",
    "website_url": null,
    "state": "New Mexico",
    "street": "834 W. Highway 550"
  },
  {
    "id": "d4dc69ab-cf58-44b9-9456-cea49cf6dd35",
    "name": "Boss Dog Brewing",
    "brewery_type": "brewpub",
    "address_1": "2179 Lee Rd",
    "address_2": null,
    "address_3": null,
    "city": "Cleveland",
    "state_province": "Ohio",
    "postal_code": "44118-2907",
    "country": "United States",
    "longitude": -81.56529555,
    "latitude": 41.50030645,
    "phone": "2163212337",
    "website_url": "http://www.bossdogbrewing.com",
    "state": "Ohio",
    "street": "2179 Lee Rd"
  },
  {
    "id": "9375dc3a-6315-4ef4-a5e6-35a257deb8a3",
    "name": "Boston Beer Co",
    "brewery_type": "micro",
    "address_1": "1 Design Center Pl Ste 850",
    "address_2": null,
    "address_3": null,
    "city": "Boston",
    "state_province": "Massachusetts",
    "postal_code": "02210-2300",
    "country": "United States",
    "longitude": null,
    "latitude": null,
    "phone": "6173685000",
    "website_url": null,
    "state": "Massachusetts",
    "street": "1 Design Center Pl Ste 850"
  },
  {
    "id": "214c08f5-53a3-458a-a011-63b41d62254d",
    "name": "Boston Beer Co",
    "brewery_type": "micro",
    "address_1": "30 Germania St Ste 1",
    "address_2": null,
    "address_3": null,
    "city": "Boston",
    "state_province": "Massachusetts",
    "postal_code": "02130-2312",
    "country": "United States",
    "longitude": null,
    "latitude": null,
    "phone": "6173685000",
    "website_url": "http://www.samueladams.com",
    "state": "Massachusetts",
    "street": "30 Germania St Ste 1"
  },
  {
    "id": "a7928f72-0201-4c7e-bb72-a83016945a2e",
    "name": "Boston Beer Co - DBA Samuel Adams Brewing Co",
    "brewery_type": "regional",
    "address_1": "1625 Central Pkwy",
    "address_2": null,
    "address_3": null,
    "city": "Cincinnati",
    "state_province": "Ohio",
    "postal_code": "45214-2423",
    "country": "United States",
    "longitude": -84.5207651,
    "latitude": 39.11257,
    "phone": "6173685000",
    "website_url": "http://www.samueladams.com",
    "state": "Ohio",
    "street": "1625 Central Pkwy"
  },
  {
    "id": "b271dedb-ca17-40fe-8715-730af9056181",
    "name": "Bottle Bay Brewing Co",
    "brewery_type": "micro",
    "address_1": "503 1/2 E 30th Ave",
    "address_2": null,
    "address_3": null,
    "city": "Spokane",
    "state_province": "Washington",
    "postal_code": "99203-2557",
    "country": "United States",
    "longitude": -117.402664,
    "latitude": 47.62764,
    "phone": "5099608049",
    "website_url": "https://www.bottlebaybrewing.com",
    "state": "Washington",
    "street": "503 1/2 E 30th Ave"
  },
  {
    "id": "b342f329-7cd5-494f-9c46-7298cdb63b0e",
    "name": "Bottle Logic Brewing",
    "brewery_type": "micro",
    "address_1": "1072 N Armando St",
    "address_2": null,
    "address_3": null,
    "city": "Anaheim",
    "state_province": "California",
    "postal_code": "92806-2605",
    "country": "United States",
    "longitude": -117.8597226,
    "latitude": 33.8495705,
    "phone": "714660",
    "website_url": "http://www.bottlelogic.com",
    "state": "California",
    "street": "1072 N Armando St"
  },
  {
    "id": "b98d7721-ffac-4618-8fd5-7ae3c61255b5",
    "name": "Bottle Rocket Brewing Co",
    "brewery_type": "micro",
    "address_1": "230 S 5th St",
    "address_2": null,
    "address_3": null,
    "city": "Seward",
    "state_province": "Nebraska",
    "postal_code": "68434-2520",
    "country": "United States",
    "longitude": -97.09777551,
    "latitude": 40.90629564,
    "phone": "4023045673",
    "website_url": "http://www.bottlerocketbrewing.com",
    "state": "Nebraska",
    "street": "230 S 5th St"
  },
  {
    "id": "e23c476c-0f42-4d31-9a59-0fe5a809c76f",
    "name": "Bottle Tree Beer Co",
    "brewery_type": "contract",
    "address_1": "10 N Trade St Apt A",
    "address_2": null,
    "address_3": null,
    "city": "Tryon",
    "state_province": "North Carolina",
    "postal_code": "28782-3476",
    "country": "United States",
    "longitude": null,
    "latitude": null,
    "phone": "8642660133",
    "website_url": "http://www.bottletree.net",
    "state": "North Carolina",
    "street": "10 N Trade St Apt A"
  },
  {
    "id": "d6317b33-57b6-4509-b4f8-d96094716eef",
    "name": "BottleHouse Brewery",
    "brewery_type": "micro",
    "address_1": "13368 Madison Ave",
    "address_2": null,
    "address_3": null,
    "city": "Lakewood",
    "state_province": "Ohio",
    "postal_code": "44107-4840",
    "country": "United States",
    "longitude": -81.78445705,
    "latitude": 41.47721765,
    "phone": "2162142120",
    "website_url": "http://www.thebottlehousebrewingcompany.com",
    "state": "Ohio",
    "street": "13368 Madison Ave"
  },
  {
    "id": "22046ed7-ceb2-4ba5-a77d-5a158baa87bd",
    "name": "Bottom Shelf Brewery",
    "brewery_type": "brewpub",
    "address_1": "118 E Mill St",
    "address_2": null,
    "address_3": null,
    "city": "Bayfield",
    "state_province": "Colorado",
    "postal_code": "81122",
    "country": "United States",
    "longitude": -107.5990683,
    "latitude": 37.2251348,
    "phone": "9708842442",
    "website_url": "http://www.bottomshelfbrewing.com",
    "state": "Colorado",
    "street": "118 E Mill St"
  },
  {
    "id": "50c38066-568b-4e12-a4cb-536073d998c0",
    "name": "Bottomless Brewing, LLC",
    "brewery_type": "brewpub",
    "address_1": "3543 E Lake Rd",
    "address_2": null,
    "address_3": null,
    "city": "Geneva",
    "state_province": "New York",
    "postal_code": "14456-9261",
    "country": "United States",
    "longitude": null,
    "latitude": null,
    "phone": "3153254380",
    "website_url": "http://www.bottomlessbrewing.com",
    "state": "New York",
    "street": "3543 E Lake Rd"
  },
  {
    "id": "9de1818b-9215-4043-a36b-d1dce42776ae",
    "name": "Boulder Beer Co",
    "brewery_type": "regional",
    "address_1": "2880 Wilderness Pl",
    "address_2": null,
    "address_3": null,
    "city": "Boulder",
    "state_province": "Colorado",
    "postal_code": "80301-5401",
    "country": "United States",
    "longitude": -105.2480158,
    "latitude": 40.026439,
    "phone": null,
    "website_url": null,
    "state": "Colorado",
    "street": "2880 Wilderness Pl"
  },
  {
    "id": "d3e1adcf-6b5c-4cbc-95e7-c980ccb79742",
    "name": "Boulder Beer On Walnut",
    "brewery_type": "brewpub",
    "address_1": "1123 Walnut St",
    "address_2": null,
    "address_3": null,
    "city": "Boulder",
    "state_province": "Colorado",
    "postal_code": "80302-5116",
    "country": "United States",
    "longitude": -105.2804375,
    "latitude": 40.0168555,
    "phone": "3034471345",
    "website_url": null,
    "state": "Colorado",
    "street": "1123 Walnut St"
  },
  {
    "id": "0afcc8c2-d95e-4ef3-9f55-009e01afeb4b",
    "name": "Boulder Dam Brewing Company",
    "brewery_type": "brewpub",
    "address_1": "453 Nevada Way",
    "address_2": null,
    "address_3": null,
    "city": "Boulder City",
    "state_province": "Nevada",
    "postal_code": "89005-2424",
    "country": "United States",
    "longitude": -114.836937,
    "latitude": 35.97842094,
    "phone": null,
    "website_url": null,
    "state": "Nevada",
    "street": "453 Nevada Way"
  },
  {
    "id": "8aa463ce-a1d9-44ce-9e1a-36f16ff8fdf4",
    "name": "Boulevard Brewing Co",
    "brewery_type": "regional",
    "address_1": "2501 Southwest Blvd",
    "address_2": null,
    "address_3": null,
    "city": "Kansas City",
    "state_province": "Missouri",
    "postal_code": "64108-2345",
    "country": "United States",
    "longitude": -94.59682307,
    "latitude": 39.08196355,
    "phone": "8164747095",
    "website_url": "http://www.boulevard.com",
    "state": "Missouri",
    "street": "2501 Southwest Blvd"
  },
  {
    "id": "36c00147-3ca6-420f-b43d-08c69aaba4d5",
    "name": "Boundary Bay Brewery & Bistro",
    "brewery_type": "brewpub",
    "address_1": "1107 Railroad Ave",
    "address_2": null,
    "address_3": null,
    "city": "Bellingham",
    "state_province": "Washington",
    "postal_code": "98225-5007",
    "country": "United States",
    "longitude": -122.4809958,
    "latitude": 48.7475046,
    "phone": "3606475593",
    "website_url": "http://www.bbaybrewery.com",
    "state": "Washington",
    "street": "1107 Railroad Ave"
  },
  {
    "id": "6fce9f76-f613-4654-b32e-1c22994ee157",
    "name": "Bousa Brewing Company",
    "brewery_type": "micro",
    "address_1": "7235 NE 4th Ave",
    "address_2": null,
    "address_3": null,
    "city": "Miami",
    "state_province": "Florida",
    "postal_code": "33138-5315",
    "country": "United States",
    "longitude": -80.18941017,
    "latitude": 25.8414587,
    "phone": "3053635166",
    "website_url": "http://www.bousabrewing.com",
    "state": "Florida",
    "street": "7235 NE 4th Ave"
  },
  {
    "id": "6577673a-61c0-4ef0-830d-031e6a3ceb59",
    "name": "Bow and Arrow Brewing Co.",
    "brewery_type": "micro",
    "address_1": "608 McKnight Ave NW",
    "address_2": null,
    "address_3": null,
    "city": "Albuquerque",
    "state_province": "New Mexico",
    "postal_code": "87102-1237",
    "country": "United States",
    "longitude": null,
    "latitude": null,
    "phone": "5052479800",
    "website_url": "http://www.bowandarrowbrewing.com",
    "state": "New Mexico",
    "street": "608 McKnight Ave NW"
  },
  {
    "id": "ec41c18f-88fd-47ba-8677-b9b44ccef39c",
    "name": "Bowigens Beer Company",
    "brewery_type": "micro",
    "address_1": "1014 State Road 436",
    "address_2": null,
    "address_3": null,
    "city": "Casselberry",
    "state_province": "Florida",
    "postal_code": "32707-5722",
    "country": "United States",
    "longitude": null,
    "latitude": null,
    "phone": "4079607816",
    "website_url": "http://www.bowigens.com",
    "state": "Florida",
    "street": "1014 State Road 436"
  },
  {
    "id": "191cb275-0eda-411c-a5b8-a14d7d6b52c2",
    "name": "Bowling Green Beer Works",
    "brewery_type": "micro",
    "address_1": "322 N Grove St Ste C",
    "address_2": null,
    "address_3": null,
    "city": "Bowling Green",
    "state_province": "Ohio",
    "postal_code": "43402-2322",
    "country": "United States",
    "longitude": null,
    "latitude": null,
    "phone": "5122992101",
    "website_url": null,
    "state": "Ohio",
    "street": "322 N Grove St Ste C"
  },
  {
    "id": "be59a906-5104-4365-ac07-d9dd7f25f9ae",
    "name": "Box Office Brewery",
    "brewery_type": "planning",
    "address_1": null,
    "address_2": null,
    "address_3": null,
    "city": "Strasburg",
    "state_province": "Virginia",
    "postal_code": "22657-2238",
    "country": "United States",
    "longitude": null,
    "latitude": null,
    "phone": "5402333353",
    "website_url": "http://Info@boxofficebrewery.com",
    "state": "Virginia",
    "street": null
  },
  {
    "id": "47e5d589-a5c4-48b6-90fa-1f1f64438d58",
    "name": "Boxcar Brewing Co LLC",
    "brewery_type": "micro",
    "address_1": "306 Westtown Rd Ste C",
    "address_2": null,
    "address_3": null,
    "city": "West Chester",
    "state_province": "Pennsylvania",
    "postal_code": "19382-4983",
    "country": "United States",
    "longitude": null,
    "latitude": null,
    "phone": "4849472503",
    "website_url": "http://www.boxcarbrewingcompany.com",
    "state": "Pennsylvania",
    "street": "306 Westtown Rd Ste C"
  },
  {
    "id": "8ff02914-7639-412c-9165-dda506bdd61b",
    "name": "Boxing Bear Brewing Company",
    "brewery_type": "brewpub",
    "address_1": "10200 Corrales Rd NW",
    "address_2": null,
    "address_3": null,
    "city": "Albuquerque",
    "state_province": "New Mexico",
    "postal_code": "87114-9268",
    "country": "United States",
    "longitude": -106.6460549,
    "latitude": 35.2036804,
    "phone": "5058972327",
    "website_url": "http://www.boxingbearbrewing.com",
    "state": "New Mexico",
    "street": "10200 Corrales Rd NW"
  },
  {
    "id": "280918cb-8713-4c5a-85c8-005a6b8d4d33",
    "name": "Boylan Bridge Brewpub",
    "brewery_type": "brewpub",
    "address_1": "201 S BOYLAN AVE",
    "address_2": null,
    "address_3": null,
    "city": "Raleigh",
    "state_province": "North Carolina",
    "postal_code": "27603-1803",
    "country": "United States",
    "longitude": -78.649139,
    "latitude": 35.778465,
    "phone": "9198038927",
    "website_url": "http://www.boylanbridge.com",
    "state": "North Carolina",
    "street": "201 S BOYLAN AVE"
  },
  {
    "id": "2c0881d5-49a6-426d-a234-6d0bd3bb8c36",
    "name": "Bozeman Brewing Co",
    "brewery_type": "micro",
    "address_1": "504 N Broadway Ave",
    "address_2": null,
    "address_3": null,
    "city": "Bozeman",
    "state_province": "Montana",
    "postal_code": "59715-3006",
    "country": "United States",
    "longitude": -111.0238884,
    "latitude": 45.6845234,
    "phone": "4065859142",
    "website_url": "http://www.bozemanbrewing.com",
    "state": "Montana",
    "street": "504 N Broadway Ave"
  },
  {
    "id": "a5d616a6-0bfb-4f0f-8f19-da804663dafe",
    "name": "Bradley Brew Project",
    "brewery_type": "micro",
    "address_1": "714 Main St",
    "address_2": null,
    "address_3": null,
    "city": "Bradley Beach",
    "state_province": "New Jersey",
    "postal_code": "07720-1013",
    "country": "United States",
    "longitude": -74.01742428,
    "latitude": 40.20427079,
    "phone": "732455804",
    "website_url": "http://www.bradleybrew.com",
    "state": "New Jersey",
    "street": "714 Main St"
  },
  {
    "id": "94d0942e-52f9-4760-8da0-57bfbcfc3059",
    "name": "Bradley Farm / RB Brew, LLC",
    "brewery_type": "micro",
    "address_1": "317 Springtown Rd",
    "address_2": null,
    "address_3": null,
    "city": "New Paltz",
    "state_province": "New York",
    "postal_code": "12561-3020",
    "country": "United States",
    "longitude": -74.097562,
    "latitude": 41.760486,
    "phone": "8452558769",
    "website_url": "http://www.raybradleyfarm.com",
    "state": "New York",
    "street": "317 Springtown Rd"
  },
  {
    "id": "8d5538db-870e-486b-8e03-8c607c38ae18",
    "name": "Braeloch Brewing Company",
    "brewery_type": "planning",
    "address_1": null,
    "address_2": null,
    "address_3": null,
    "city": "Kennett Square",
    "state_province": "Pennsylvania",
    "postal_code": "19348-3605",
    "country": "United States",
    "longitude": null,
    "latitude": null,
    "phone": "3026056473",
    "website_url": null,
    "state": "Pennsylvania",
    "street": null
  }
]