[
  {
    "id": "842d193f-7a1b-4960-86f8-7d6614884005",
    "name": "3cross Fermentation Cooperative",
    "brewery_type": "micro",
    "address_1": "4 Knowlton Ave",
    "address_2": null,
    "address_3": null,
    "city": "Worcester",
    "state_province": "Massachusetts",
    "postal_code": "01603",
    "country": "United States",
    "longitude": -71.83057593,
    "latitude": 42.24364875,
    "phone": "5086158195",
    "website_url": "http://www.3cross.coop",
    "state": "Massachusetts",
    "street": "4 Knowlton Ave"
  },
  {
    "id": "4f70ac94-eca5-4cec-8581-92ec5afdf4f2",
    "name": "3Halves Brewing Co",
    "brewery_type": "brewpub",
    "address_1": "110 E Kansas St",
    "address_2": null,
    "address_3": null,
    "city": "Liberty",
    "state_province": "Missouri",
    "postal_code": "64068-2374",
    "country": "United States",
    "longitude": -94.4190247,
    "latitude": 39.2461993,
    "phone": "8164296886",
    "website_url": "http://www.3halvesbrewingco.com",
    "state": "Missouri",
    "street": "110 E Kansas St"
  },
  {
    "id": "694547f5-28fd-4363-bad6-03b6eaf0f1dd",
    "name": "3rd Degree Brewhouse",
    "brewery_type": "micro",
    "address_1": "1625 N Main St",
    "address_2": null,
    "address_3": null,
    "city": "Fuquay Varina",
    "state_province": "North Carolina",
    "postal_code": "27526",
    "country": "United States",
    "longitude": -78.794223,
    "latitude": 35.5914556,
    "phone": "9192015457",
    "website_url": "http://www.facebook.com/3rddegreebrewhouse/",
    "state": "North Carolina",
    "street": "1625 N Main St"
  },
  {
    "id": "370fdc3b-55a0-43f0-a54e-f617a7cec7b8",
    "name": "3rd Planet Brewing",
    "brewery_type": "micro",
    "address_1": "120 Partin Dr N",
    "address_2": null,
    "address_3": null,
    "city": "Niceville",
    "state_province": "Florida",
    "postal_code": "32578-2053",
    "country": "United States",
    "longitude": null,
    "latitude": null,
    "phone": "8505029952",
    "website_url": "http://www.facebook.com/3rdplanetbrewing/",
    "state": "Florida",
    "street": "120 Partin Dr N"
  },
  {
    "id": "3c9354c5-4d21-40a8-8e53-8f2f9b5e043b",
    "name": "3rd Rock Brewing Company",
    "brewery_type": "micro",
    "address_1": "134 Industrial Park Dr",
    "address_2": null,
    "address_3": null,
    "city": "Trenton",
    "state_province": "North Carolina",
    "postal_code": "28585-9593",
    "country": "United States",
    "longitude": -77.36749285,
    "latitude": 35.06939877,
    "phone": "2526319213",
    "website_url": "http://www.3rockbrew.com",
    "state": "North Carolina",
    "street": "134 Industrial Park Dr"
  },
  {
    "id": "2eed7840-ec52-48b5-b22e-d9d76bd01929",
    "name": "3rd Turn Brewing",
    "brewery_type": "micro",
    "address_1": "10408 Watterson Trl",
    "address_2": null,
    "address_3": null,
    "city": "Louisville",
    "state_province": "Kentucky",
    "postal_code": "40299-3702",
    "country": "United States",
    "longitude": -85.56656078,
    "latitude": 38.19322725,
    "phone": null,
    "website_url": "http://www.3rdturnbrewing.com",
    "state": "Kentucky",
    "street": "10408 Watterson Trl"
  },
  {
    "id": "781bda70-39b2-4f3f-9213-9d0f44c08991",
    "name": "3rd Wave Brewing Co",
    "brewery_type": "micro",
    "address_1": "501 N Bi State Blvd",
    "address_2": null,
    "address_3": null,
    "city": "Delmar",
    "state_province": "Delaware",
    "postal_code": "19940-1106",
    "country": "United States",
    "longitude": null,
    "latitude": null,
    "phone": "3029070423",
    "website_url": "http://www.3rdwavebrewingco.com",
    "state": "Delaware",
    "street": "501 N Bi State Blvd"
  },
  {
    "id": "a00c1c11-dede-4d7f-a514-bd291b6db283",
    "name": "3TREE BREWERY",
    "brewery_type": "micro",
    "address_1": "3-19 Futabacho",
    "address_2": null,
    "address_3": null,
    "city": "Ibaraki",
    "state_province": "Osaka",
    "postal_code": "567-0829",
    "country": "Japan",
    "longitude": 135.5780968,
    "latitude": 34.81744613,
    "phone": null,
    "website_url": "https://3tree-brewery.jimdosite.com/",
    "state": "Osaka",
    "street": "3-19 Futabacho"
  },
  {
    "id": "b72f2ce6-e062-404d-ac31-c1060db2d870",
    "name": "4 By 4 Brewing Company",
    "brewery_type": "micro",
    "address_1": "2811 E Galloway St Ste A",
    "address_2": null,
    "address_3": null,
    "city": "Springfield",
    "state_province": "Missouri",
    "postal_code": "65804-4601",
    "country": "United States",
    "longitude": -93.239889,
    "latitude": 37.147986,
    "phone": "4178616400",
    "website_url": "http://www.4by4brewingcompany.com",
    "state": "Missouri",
    "street": "2811 E Galloway St Ste A"
  },
  {
    "id": "ac2f41ed-e1e8-4586-aa78-253543db7714",
    "name": "4 Hands Brewing Co",
    "brewery_type": "regional",
    "address_1": "1220 S 8th St",
    "address_2": null,
    "address_3": null,
    "city": "Saint Louis",
    "state_province": "Missouri",
    "postal_code": "63104-3610",
    "country": "United States",
    "longitude": -90.19762012,
    "latitude": 38.61526593,
    "phone": "3144361559",
    "website_url": "http://www.4handsbrewery.com",
    "state": "Missouri",
    "street": "1220 S 8th St"
  },
  {
    "id": "dc652569-19d7-4f63-a999-3e8d5d6798c1",
    "name": "4 Noses Brewing Company",
    "brewery_type": "micro",
    "address_1": "8855 W 116th Cir Ste 3",
    "address_2": null,
    "address_3": null,
    "city": "Broomfield",
    "state_province": "Colorado",
    "postal_code": "80021-2521",
    "country": "United States",
    "longitude": null,
    "latitude": null,
    "phone": "7204602797",
    "website_url": "http://4nosesbrewing.com",
    "state": "Colorado",
    "street": "8855 W 116th Cir Ste 3"
  },
  {
    "id": "7c669ae6-460d-476b-bc56-0b4d566a152c",
    "name": "4 Stitch Brewing Co - Brewery & Taproom",
    "brewery_type": "taproom",
    "address_1": "16709 9th Ave SE",
    "address_2": null,
    "address_3": null,
    "city": "Mill Creek",
    "state_province": "Washington",
    "postal_code": "98012-6309",
    "country": "United States",
    "longitude": -122.21991381534,
    "latitude": 47.84671432549,
    "phone": "4252247583",
    "website_url": "https://www.4stitchbrewing.com",
    "state": "Washington",
    "street": "16709 9th Ave SE"
  },
  {
    "id": "b237e2d5-dabc-41f9-a3ff-2b4e3f3a9c8e",
    "name": "4 Stitch Brewing Co - Taproom & Kitchen",
    "brewery_type": "brewpub",
    "address_1": "5817 238th St SE Ste 3",
    "address_2": null,
    "address_3": null,
    "city": "Woodinville",
    "state_province": "Washington",
    "postal_code": "98072-8669",
    "country": "United States",
    "longitude": -122.15488674812,
    "latitude": 47.782473284418,
    "phone": "4252866004",
    "website_url": "https://www.4stitchbrewing.com",
    "state": "Washington",
    "street": "5817 238th St SE Ste 3"
  },
  {
    "id": "d4c7fb43-6671-4597-8cdd-e938d751aca2",
    "name": "400 North Brewing",
    "brewery_type": "planning",
    "address_1": null,
    "address_2": null,
    "address_3": null,
    "city": "Sugarhill",
    "state_province": "Georgia",
    "postal_code": "30518-7916",
    "country": "United States",
    "longitude": null,
    "latitude": null,
    "phone": "4047911119",
    "website_url": "http://400northbrewing.com",
    "state": "Georgia",
    "street": null
  },
  {
    "id": "9c3f919e-e6de-4e43-91cb-30f3e73ad591",
    "name": "406 Brewing Company",
    "brewery_type": "micro",
    "address_1": "101 E Oak St,\u00c2\u00a0Ste D",
    "address_2": null,
    "address_3": null,
    "city": "Bozeman",
    "state_province": "Montana",
    "postal_code": "59715-2967",
    "country": "United States",
    "longitude": null,
    "latitude": null,
    "phone": "4065853745",
    "website_url": "http://www.406brewingcompany.com",
    "state": "Montana",
    "street": "101 E Oak St,\u00c2\u00a0Ste D"
  },
  {
    "id": "b7f2ebb8-6764-4654-a98b-246724c8952a",
    "name": "411 Broadway Ales",
    "brewery_type": "planning",
    "address_1": null,
    "address_2": null,
    "address_3": null,
    "city": "Fresno",
    "state_province": "California",
    "postal_code": "93721-2801",
    "country": "United States",
    "longitude": -119.7088613,
    "latitude": 36.7295295,
    "phone": "5412706076",
    "website_url": null,
    "state": "California",
    "street": null
  },
  {
    "id": "ef60f8cf-0fdc-4ea1-aa94-09e1f869176b",
    "name": "412 Brews",
    "brewery_type": "brewpub",
    "address_1": "706 Island Ave",
    "address_2": null,
    "address_3": null,
    "city": "Mc Kees Rocks",
    "state_province": "Pennsylvania",
    "postal_code": "15136-3287",
    "country": "United States",
    "longitude": null,
    "latitude": null,
    "phone": null,
    "website_url": "http://www.412brews.com",
    "state": "Pennsylvania",
    "street": "706 Island Ave"
  },
  {
    "id": "dad10840-28ab-4dcf-9005-bf2cc2665b5a",
    "name": "42 North Brewing Company",
    "brewery_type": "brewpub",
    "address_1": "25 Pine St",
    "address_2": null,
    "address_3": null,
    "city": "East Aurora",
    "state_province": "New York",
    "postal_code": "14052-1827",
    "country": "United States",
    "longitude": -78.607989,
    "latitude": 42.769311,
    "phone": "7168057500",
    "website_url": "http://www.42northbrewing.com",
    "state": "New York",
    "street": "25 Pine St"
  },
  {
    "id": "52dd0878-928b-4b47-b7fa-602f140592ed",
    "name": "4204 Main Street Brewing Co",
    "brewery_type": "brewpub",
    "address_1": "4204 W Main St",
    "address_2": null,
    "address_3": null,
    "city": "Belleville",
    "state_province": "Illinois",
    "postal_code": "62226",
    "country": "United States",
    "longitude": -90.02053343,
    "latitude": 38.53796122,
    "phone": "6184167261",
    "website_url": null,
    "state": "Illinois",
    "street": "4204 W Main St"
  },
  {
    "id": "1d3084b5-c9bc-4380-9862-14e837b82bb9",
    "name": "45 Degree Brewhouse",
    "brewery_type": "micro",
    "address_1": "10421 E Sprague Ave",
    "address_2": null,
    "address_3": null,
    "city": "Spokane Valley",
    "state_province": "Washington",
    "postal_code": "99206-3629",
    "country": "United States",
    "longitude": -117.264473,
    "latitude": 47.657478,
    "phone": "5092413281",
    "website_url": "http://45degreebrewhouse.com",
    "state": "Washington",
    "street": "10421 E Sprague Ave"
  },
  {
    "id": "eb3d0c66-bbe8-495d-a876-924f0c0cf509",
    "name": "450 North Brewing Company @ Simmons Winery",
    "brewery_type": "brewpub",
    "address_1": "8111 E 450 N",
    "address_2": null,
    "address_3": null,
    "city": "Columbus",
    "state_province": "Indiana",
    "postal_code": "47203-8106",
    "country": "United States",
    "longitude": null,
    "latitude": null,
    "phone": "8125460091",
    "website_url": "http://www.450northbrewing.com",
    "state": "Indiana",
    "street": "8111 E 450 N"
  },
  {
    "id": "6b892c61-269b-453f-acd1-b79491b0ef0b",
    "name": "47 Hills Brewing Co",
    "brewery_type": "brewpub",
    "address_1": "137 S Linden Ave",
    "address_2": null,
    "address_3": null,
    "city": "South San Francisco",
    "state_province": "California",
    "postal_code": "94080-6410",
    "country": "United States",
    "longitude": -122.4136168,
    "latitude": 37.64425595,
    "phone": "6508678476",
    "website_url": "http://47hillsbrewingcompany.com",
    "state": "California",
    "street": "137 S Linden Ave"
  },
  {
    "id": "cd97aeab-a499-4c95-b20b-881bfe3ed6c8",
    "name": "49th State Brewing Co",
    "brewery_type": "micro",
    "address_1": "248.4 Parks Hwy 5 Mile",
    "address_2": null,
    "address_3": null,
    "city": "Healy",
    "state_province": "Alaska",
    "postal_code": "99743",
    "country": "United States",
    "longitude": -149.017877,
    "latitude": 63.864759,
    "phone": "9076832739",
    "website_url": "https://www.49statebrewing.com/denali",
    "state": "Alaska",
    "street": "248.4 Parks Hwy 5 Mile"
  },
  {
    "id": "eaa4afea-bcb5-434c-839e-ef48fe8811d0",
    "name": "49th State Brewing Co - Anchorage",
    "brewery_type": "brewpub",
    "address_1": "717 W 3rd Ave",
    "address_2": null,
    "address_3": null,
    "city": "Anchorage",
    "state_province": "Alaska",
    "postal_code": "99501-2104",
    "country": "United States",
    "longitude": -149.8958196,
    "latitude": 61.2197366,
    "phone": "9076832739",
    "website_url": "http://www.49statebrewing.com/",
    "state": "Alaska",
    "street": "717 W 3rd Ave"
  },
  {
    "id": "dbf0d7e7-4e2c-4574-9dee-791d95496811",
    "name": "4B's Brewery",
    "brewery_type": "brewpub",
    "address_1": "215 W Main St",
    "address_2": null,
    "address_3": null,
    "city": "Cedaredge",
    "state_province": "Colorado",
    "postal_code": "81413-3339",
    "country": "United States",
    "longitude": -107.925782,
    "latitude": 38.900614,
    "phone": "9708567762",
    "website_url": "http://www.4bsbrewery.com",
    "state": "Colorado",
    "street": "215 W Main St"
  },
  {
    "id": "aea0a6f9-557e-4907-be23-d80737a071e4",
    "name": "4J Brewing Company",
    "brewery_type": "micro",
    "address_1": "1348 Cedar Post Ln.",
    "address_2": null,
    "address_3": null,
    "city": "Houston",
    "state_province": "Texas",
    "postal_code": "77055",
    "country": "United States",
    "longitude": null,
    "latitude": null,
    "phone": "7136780776",
    "website_url": "https://4jbrewingcompany.com",
    "state": "Texas",
    "street": "1348 Cedar Post Ln."
  },
  {
    "id": "53efe9e9-dbb3-4c98-ab77-61515abef2a9",
    "name": "4kd Crick Brewery",
    "brewery_type": "brewpub",
    "address_1": "211 Carpenter Rd",
    "address_2": null,
    "address_3": null,
    "city": "Defiance",
    "state_province": "Ohio",
    "postal_code": "43512-1718",
    "country": "United States",
    "longitude": -84.341647,
    "latitude": 41.296252,
    "phone": "4199562863",
    "website_url": "http://Www.4kdcrickbrewery.com",
    "state": "Ohio",
    "street": "211 Carpenter Rd"
  },
  {
    "id": "760e8395-f2a2-4161-9bf1-c72ed1aa6ae3",
    "name": "4th Tap Brewing Cooperative",
    "brewery_type": "micro",
    "address_1": "10615 Metric Blvd",
    "address_2": null,
    "address_3": null,
    "city": "Austin",
    "state_province": "Texas",
    "postal_code": "78758-4520",
    "country": "United States",
    "longitude": -97.7118913,
    "latitude": 30.3852024,
    "phone": "5129089817",
    "website_url": null,
    "state": "Texas",
    "street": "10615 Metric Blvd"
  },
  {
    "id": "d8b4ad26-346b-40dd-8215-b0e89ace23e2",
    "name": "5 Alarm Brewing Co",
    "brewery_type": "micro",
    "address_1": "211 W Main St",
    "address_2": null,
    "address_3": null,
    "city": "Lake Mills",
    "state_province": "Iowa",
    "postal_code": "50450",
    "country": "United States",
    "longitude": -93.53398788,
    "latitude": 43.41926615,
    "phone": "6415922739",
    "website_url": null,
    "state": "Iowa",
    "street": "211 W Main St"
  },
  {
    "id": "c17a3e56-4d4e-405e-a21b-85f415903674",
    "name": "5 Lakes Brewing Co.",
    "brewery_type": "brewpub",
    "address_1": "1638 142nd Ave",
    "address_2": null,
    "address_3": null,
    "city": "Dorr",
    "state_province": "Michigan",
    "postal_code": "49323-9312",
    "country": "United States",
    "longitude": -85.70445518,
    "latitude": 42.72497157,
    "phone": "6163599555",
    "website_url": "http://www.5lakesbrewing.com",
    "state": "Michigan",
    "street": "1638 142nd Ave"
  },
  {
    "id": "75eff8e1-7c25-483a-a2b2-49ecdbf16d31",
    "name": "5 Lamps Brewery",
    "brewery_type": "regional",
    "address_1": "84-87 Camden St.",
    "address_2": "Saint Kevin's",
    "address_3": "Dublin 2",
    "city": "Dublin",
    "state_province": "Dublin",
    "postal_code": "D02 DH36",
    "country": "Ireland",
    "longitude": -6.26585621,
    "latitude": 53.33596635,
    "phone": null,
    "website_url": "https://the5lampsbrewery.com/home/",
    "state": "Dublin",
    "street": "84-87 Camden St."
  },
  {
    "id": "257e9aac-7dbe-4656-b366-9d8a94c49d58",
    "name": "5 North Brewing Company",
    "brewery_type": "closed",
    "address_1": "6501 N Cedar Rd",
    "address_2": null,
    "address_3": null,
    "city": "Spokane",
    "state_province": "Washington",
    "postal_code": "99208",
    "country": "United States",
    "longitude": -117.4328496,
    "latitude": 47.71758683,
    "phone": "5093217818",
    "website_url": "http://5northbrewingcompany.com/",
    "state": "Washington",
    "street": "6501 N Cedar Rd"
  },
  {
    "id": "f927d8d6-3151-4073-9d20-410ca617853e",
    "name": "5 Rabbit Cerveceria Inc",
    "brewery_type": "micro",
    "address_1": "6398 W 74th St",
    "address_2": null,
    "address_3": null,
    "city": "Chicago",
    "state_province": "Illinois",
    "postal_code": "60638-6129",
    "country": "United States",
    "longitude": -87.6572069,
    "latitude": 41.7595502,
    "phone": "3128959591",
    "website_url": "http://www.5rabbitbrewery.com",
    "state": "Illinois",
    "street": "6398 W 74th St"
  },
  {
    "id": "5c99b790-e00d-4ca6-86a5-37723f728690",
    "name": "5 Rights Brewing Co",
    "brewery_type": "micro",
    "address_1": "1514 3rd St",
    "address_2": null,
    "address_3": null,
    "city": "Marysville",
    "state_province": "Washington",
    "postal_code": "98270",
    "country": "United States",
    "longitude": -122.1762906,
    "latitude": 48.05156015,
    "phone": "4253341026",
    "website_url": "http://www.5rightsbrewing.com",
    "state": "Washington",
    "street": "1514 3rd St"
  },
  {
    "id": "2af85509-aee5-46bc-ab1a-fd9b8b0026d4",
    "name": "5 Rivers Brewing LLC",
    "brewery_type": "planning",
    "address_1": null,
    "address_2": null,
    "address_3": null,
    "city": "Spanish Fort",
    "state_province": "Alabama",
    "postal_code": "36527-3161",
    "country": "United States",
    "longitude": -87.9152724,
    "latitude": 30.6749127,
    "phone": "2516897483",
    "website_url": "http://5riversbrewing.com",
    "state": "Alabama",
    "street": null
  },
  {
    "id": "80c395e8-28c8-460a-9cc5-721fcc22410f",
    "name": "5 Seasons Brewing Co - Prado",
    "brewery_type": "brewpub",
    "address_1": "5600 Roswell Rd",
    "address_2": null,
    "address_3": null,
    "city": "Sandy Springs",
    "state_province": "Georgia",
    "postal_code": "30342-1150",
    "country": "United States",
    "longitude": -84.3796711,
    "latitude": 33.9078086,
    "phone": "4042555911",
    "website_url": "http://www.5seasonsbrewing.com",
    "state": "Georgia",
    "street": "5600 Roswell Rd"
  },
  {
    "id": "baad8dd7-b295-480c-8f64-e499562a3662",
    "name": "5 Seasons Brewing Co - Westside",
    "brewery_type": "brewpub",
    "address_1": "1000 Marietta St NW Ste 204",
    "address_2": null,
    "address_3": null,
    "city": "Atlanta",
    "state_province": "Georgia",
    "postal_code": "30318-0683",
    "country": "United States",
    "longitude": null,
    "latitude": null,
    "phone": "4048753232",
    "website_url": "http://www.5seasonsbrewing.com",
    "state": "Georgia",
    "street": "1000 Marietta St NW Ste 204"
  },
  {
    "id": "83d47922-0a23-4b85-9c1c-d50b9135d64a",
    "name": "5 Stones Artisan Brewery",
    "brewery_type": "micro",
    "address_1": "11335 Farm To Market Road 1863",
    "address_2": null,
    "address_3": null,
    "city": "New Braunfels",
    "state_province": "Texas",
    "postal_code": "78132",
    "country": "United States",
    "longitude": -98.232345,
    "latitude": 29.711365,
    "phone": "2103808215",
    "website_url": null,
    "state": "Texas",
    "street": "11335 Farm To Market Road 1863"
  },
  {
    "id": "fafc2e23-c3bf-46d3-87c0-00e92209269b",
    "name": "515 Brewing Co",
    "brewery_type": "micro",
    "address_1": "7700 University Ave",
    "address_2": null,
    "address_3": null,
    "city": "Clive",
    "state_province": "Iowa",
    "postal_code": "50325-1271",
    "country": "United States",
    "longitude": -93.7228408,
    "latitude": 41.599992,
    "phone": "5156614615",
    "website_url": "http://www.515brewing.com",
    "state": "Iowa",
    "street": "7700 University Ave"
  },
  {
    "id": "7e12d827-22dc-4d07-8715-8192c9680b23",
    "name": "5150 Brewing At The Brass Tap Rocklin",
    "brewery_type": "micro",
    "address_1": "5150 Commons Dr Ste 101",
    "address_2": null,
    "address_3": null,
    "city": "Rocklin",
    "state_province": "California",
    "postal_code": "95677-3925",
    "country": "United States",
    "longitude": -121.207331,
    "latitude": 38.8047402,
    "phone": "9162462729",
    "website_url": "http://www.brasstaprocklin.com",
    "state": "California",
    "street": "5150 Commons Dr Ste 101"
  },
  {
    "id": "132540a2-23c8-4720-8c58-31292d264c4a",
    "name": "51st State Brewing Company",
    "brewery_type": "brewpub",
    "address_1": "115 Harding Ave",
    "address_2": null,
    "address_3": null,
    "city": "Kingsford",
    "state_province": "Michigan",
    "postal_code": "49802-3815",
    "country": "United States",
    "longitude": -88.08819,
    "latitude": 45.808408,
    "phone": "9068282167",
    "website_url": "http://www.51ststatebrewingcompany.com",
    "state": "Michigan",
    "street": "115 Harding Ave"
  },
  {
    "id": "5858b701-9e27-44e6-8ab8-b950b72c4181",
    "name": "51st Ward Beer Company",
    "brewery_type": "contract",
    "address_1": "323 N Washington St",
    "address_2": null,
    "address_3": null,
    "city": "Westmont",
    "state_province": "Illinois",
    "postal_code": "60559-1512",
    "country": "United States",
    "longitude": -87.981157,
    "latitude": 41.804494,
    "phone": "7732205899",
    "website_url": null,
    "state": "Illinois",
    "street": "323 N Washington St"
  },
  {
    "id": "4d878d25-a8fb-49e7-93da-56d229bf46ff",
    "name": "54-40 Brewing Company",
    "brewery_type": "brewpub",
    "address_1": "3801 S Truman Rd Ste 1",
    "address_2": null,
    "address_3": null,
    "city": "Washougal",
    "state_province": "Washington",
    "postal_code": "98671-2589",
    "country": "United States",
    "longitude": -122.3269349,
    "latitude": 45.56577849,
    "phone": "3609077062",
    "website_url": "http://www.54-40brewing.com",
    "state": "Washington",
    "street": "3801 S Truman Rd Ste 1"
  },
  {
    "id": "126f87c3-1c6d-4ff0-b35c-c8dfa9a8e1b4",
    "name": "550 Brewing",
    "brewery_type": "proprietor",
    "address_1": "119 E Chuska St",
    "address_2": null,
    "address_3": null,
    "city": "Aztec",
    "state_province": "New Mexico",
    "postal_code": "87410-2110",
    "country": "United States",
    "longitude": -107.9950235,
    "latitude": 36.8213739,
    "phone": "5054861094",
    "website_url": "http://Www.550brew.com",
    "state": "New Mexico",
    "street": "119 E Chuska St"
  },
  {
    "id": "4a4baf4f-921c-46c0-9130-afcc4ce4f4d2",
    "name": "559 Local Brewing",
    "brewery_type": "micro",
    "address_1": "608 4th St",
    "address_2": null,
    "address_3": null,
    "city": "Clovis",
    "state_province": "California",
    "postal_code": "93612-1183",
    "country": "United States",
    "longitude": -119.7017487,
    "latitude": 36.82517171,
    "phone": "5594731875",
    "website_url": "http://www.fresnobrewingcompany.com",
    "state": "California",
    "street": "608 4th St"
  },
  {
    "id": "b0d5d69d-b439-44a6-ab3e-0cbd15658dc7",
    "name": "56 Brewing",
    "brewery_type": "micro",
    "address_1": "3055 Columbia Ave NE Ste 102",
    "address_2": null,
    "address_3": null,
    "city": "Minneapolis",
    "state_province": "Minnesota",
    "postal_code": "55418-1860",
    "country": "United States",
    "longitude": null,
    "latitude": null,
    "phone": "6124040056",
    "website_url": "http://www.56brewing.com",
    "state": "Minnesota",
    "street": "3055 Columbia Ave NE Ste 102"
  },
  {
    "id": "f4a902c1-e5a6-43da-b3e4-a1ffc97d31a9",
    "name": "5770 Brewery",
    "brewery_type": "micro",
    "address_1": "303A W Main St",
    "address_2": null,
    "address_3": null,
    "city": "Teutopolis",
    "state_province": "Illinois",
    "postal_code": "62467-1355",
    "country": "United States",
    "longitude": -88.47806652,
    "latitude": 39.13142194,
    "phone": "6183397841",
    "website_url": "http://www.5770brewery.com",
    "state": "Illinois",
    "street": "303A W Main St"
  },
  {
    "id": "90d1fa86-77d7-4a21-9818-e338fa6fdb96",
    "name": "583 \uc591\uc870\uc7a5(583 Brewery)",
    "brewery_type": "brewpub",
    "address_1": "583-8, Uiam-ro",
    "address_2": "Janggye-myeon",
    "address_3": null,
    "city": "Jangsu-gun",
    "state_province": "Jeollabukdo",
    "postal_code": "55621",
    "country": "South Korea",
    "longitude": 127.6205123,
    "latitude": 35.68271721,
    "phone": "063-353-5515",
    "website_url": "http://www.583beer.modoo.at",
    "state": "Jeollabukdo",
    "street": "583-8, Uiam-ro"
  },
  {
    "id": "eaf55668-8444-4e4f-80c2-b9f32f7e4d83",
    "name": "5th Element Brewing",
    "brewery_type": "planning",
    "address_1": null,
    "address_2": null,
    "address_3": null,
    "city": "Leander",
    "state_province": "Texas",
    "postal_code": "78641-4009",
    "country": "United States",
    "longitude": null,
    "latitude": null,
    "phone": "9156378199",
    "website_url": null,
    "state": "Texas",
    "street": null
  },
  {
    "id": "cc8de428-9663-466c-bae8-73ad9edf0892",
    "name": "5th Line Brewing Co",
    "brewery_type": "micro",
    "address_1": "1015 E Lincoln Ave Ste 106",
    "address_2": null,
    "address_3": null,
    "city": "Yakima",
    "state_province": "Washington",
    "postal_code": "98901-2534",
    "country": "United States",
    "longitude": -120.4930458,
    "latitude": 46.61136701,
    "phone": "5093676300",
    "website_url": "https://5thlinebrewing.com/",
    "state": "Washington",
    "street": "1015 E Lincoln Ave Ste 106"
  }
]