[
  {
    "id": "6098da96-d790-4675-aadb-8836048dab5e",
    "name": "McMenamins Murray & Allen",
    "brewery_type": "brewpub",
    "address_1": "6179 SW Murray Blvd",
    "address_2": null,
    "address_3": null,
    "city": "Beaverton",
    "state_province": "Oregon",
    "postal_code": "97008-4421",
    "country": "United States",
    "longitude": -122.8264537,
    "latitude": 45.4750792,
    "phone": "5035269618",
    "website_url": "http://www.mcmenamins.com",
    "state": "Oregon",
    "street": "6179 SW Murray Blvd"
  },
  {
    "id": "f162f822-f631-4c3a-8de9-bed207e8cc0a",
    "name": "McMenamins Oak Hills Brewery",
    "brewery_type": "micro",
    "address_1": "14740 NW Cornell Rd Ste 80",
    "address_2": null,
    "address_3": null,
    "city": "Portland",
    "state_province": "Oregon",
    "postal_code": "97229-5400",
    "country": "United States",
    "longitude": -122.7105079,
    "latitude": 45.5330425,
    "phone": "5036450117",
    "website_url": "http://www.mcmenamins.com",
    "state": "Oregon",
    "street": "14740 NW Cornell Rd Ste 80"
  },
  {
    "id": "4cdae732-9672-463f-b4ba-5c4f3cdcac6c",
    "name": "McMenamins Old Church Brewery",
    "brewery_type": "brewpub",
    "address_1": "30340 SW Boones Ferry Rd",
    "address_2": null,
    "address_3": null,
    "city": "Wilsonville",
    "state_province": "Oregon",
    "postal_code": "-97070",
    "country": "United States",
    "longitude": -122.7726765,
    "latitude": 45.3007043,
    "phone": "5034272505",
    "website_url": "http://www.mcmenamins.com/Wilsonville",
    "state": "Oregon",
    "street": "30340 SW Boones Ferry Rd"
  },
  {
    "id": "61305a0a-ccbe-4c55-8eb8-54b49983d590",
    "name": "McMenamins Old St. Francis School",
    "brewery_type": "brewpub",
    "address_1": "700 NW Bond St",
    "address_2": null,
    "address_3": null,
    "city": "Bend",
    "state_province": "Oregon",
    "postal_code": "97703-2702",
    "country": "United States",
    "longitude": -121.314499,
    "latitude": 44.0566885,
    "phone": "5413825174",
    "website_url": "http://www.mcmenamins.com",
    "state": "Oregon",
    "street": "700 NW Bond St"
  },
  {
    "id": "597943b0-96e5-4f02-95e3-8c76c2b07b84",
    "name": "McMenamins Olympic Club Brewery",
    "brewery_type": "brewpub",
    "address_1": "112 N Tower Ave",
    "address_2": null,
    "address_3": null,
    "city": "Centralia",
    "state_province": "Washington",
    "postal_code": "98531-4220",
    "country": "United States",
    "longitude": -122.9539398,
    "latitude": 46.7167828,
    "phone": "3607365164",
    "website_url": "https://www.mcmenamins.com/olympic-club",
    "state": "Washington",
    "street": "112 N Tower Ave"
  },
  {
    "id": "a8acab3f-b025-47e5-b2ce-b77c3c38afcf",
    "name": "McMenamins on Monroe",
    "brewery_type": "brewpub",
    "address_1": "2001 NW Monroe Ave Ste 106",
    "address_2": null,
    "address_3": null,
    "city": "Corvallis",
    "state_province": "Oregon",
    "postal_code": "97330-5567",
    "country": "United States",
    "longitude": -123.275563,
    "latitude": 44.56825637,
    "phone": "5417580880",
    "website_url": null,
    "state": "Oregon",
    "street": "2001 NW Monroe Ave Ste 106"
  },
  {
    "id": "d34b6cea-2b33-458e-88f9-1eea39c07f1f",
    "name": "McMenamins On the Columbia Brewery",
    "brewery_type": "brewpub",
    "address_1": "1801 SE Columbia River Dr",
    "address_2": null,
    "address_3": null,
    "city": "Vancouver",
    "state_province": "Washington",
    "postal_code": "98661-8030",
    "country": "United States",
    "longitude": -122.6529665,
    "latitude": 45.61508455,
    "phone": "3606691521",
    "website_url": "https://www.mcmenamins.com/mcmenamins-on-the-columbia",
    "state": "Washington",
    "street": "1801 SE Columbia River Dr"
  },
  {
    "id": "e10e2e70-8086-4b8b-956e-953449c58bf9",
    "name": "McMenamins Queen Anne Brewery",
    "brewery_type": "brewpub",
    "address_1": "200 Roy St Ste 105",
    "address_2": null,
    "address_3": null,
    "city": "Seattle",
    "state_province": "Washington",
    "postal_code": "98109-4110",
    "country": "United States",
    "longitude": -122.3520571,
    "latitude": 47.6255427,
    "phone": "2062854722",
    "website_url": "https://www.mcmenamins.com/queen-anne",
    "state": "Washington",
    "street": "200 Roy St Ste 105"
  },
  {
    "id": "86687c9b-6107-4e9b-947d-9c6c392e67fa",
    "name": "McMenamins Roseburg Station Brewery",
    "brewery_type": "micro",
    "address_1": "700 SE Sheridan St",
    "address_2": null,
    "address_3": null,
    "city": "Roseburg",
    "state_province": "Oregon",
    "postal_code": "97470-3470",
    "country": "United States",
    "longitude": -123.349051,
    "latitude": 43.208554,
    "phone": "5416721934",
    "website_url": "http://www.mcmenamins.com",
    "state": "Oregon",
    "street": "700 SE Sheridan St"
  },
  {
    "id": "e527ae5b-352c-40a0-809f-96fae6b66718",
    "name": "McMenamins Six Arms Brewery",
    "brewery_type": "brewpub",
    "address_1": "300 E Pike St",
    "address_2": null,
    "address_3": null,
    "city": "Seattle",
    "state_province": "Washington",
    "postal_code": "98122",
    "country": "United States",
    "longitude": -122.327845,
    "latitude": 47.61462221,
    "phone": "2062231698",
    "website_url": "https://www.mcmenamins.com/six-arms",
    "state": "Washington",
    "street": "300 E Pike St"
  },
  {
    "id": "73d1b31a-e57d-4ed6-b5c3-b53a5988bc5b",
    "name": "McMenamins Spar Cafe Brewery",
    "brewery_type": "brewpub",
    "address_1": "114 4th Ave E",
    "address_2": null,
    "address_3": null,
    "city": "Olympia",
    "state_province": "Washington",
    "postal_code": "98501-1103",
    "country": "United States",
    "longitude": -122.9013768,
    "latitude": 47.04499974,
    "phone": "3603576444",
    "website_url": "https://www.mcmenamins.com/spar-cafe",
    "state": "Washington",
    "street": "114 4th Ave E"
  },
  {
    "id": "41da837d-8b75-42a1-8719-a2f833a2cd69",
    "name": "McMenamins Thompson Brewery",
    "brewery_type": "micro",
    "address_1": "3575 Liberty Rd S",
    "address_2": null,
    "address_3": null,
    "city": "Salem",
    "state_province": "Oregon",
    "postal_code": "97302-5621",
    "country": "United States",
    "longitude": -123.051309,
    "latitude": 44.904043,
    "phone": "5033712945",
    "website_url": "http://www.mcmenamins.com",
    "state": "Oregon",
    "street": "3575 Liberty Rd S"
  },
  {
    "id": "2c606589-3e2d-41dd-bd10-65ce9488dd7d",
    "name": "McMenamins West Linn Brewery",
    "brewery_type": "micro",
    "address_1": "2090 8th Ave",
    "address_2": null,
    "address_3": null,
    "city": "West Linn",
    "state_province": "Oregon",
    "postal_code": "97068-4612",
    "country": "United States",
    "longitude": -122.6520654,
    "latitude": 45.34604029,
    "phone": "5036562935",
    "website_url": "http://www.mcmenamins.com",
    "state": "Oregon",
    "street": "2090 8th Ave"
  },
  {
    "id": "4d1ba278-c182-4c2c-8185-a0d133342486",
    "name": "McNeills Brewery",
    "brewery_type": "brewpub",
    "address_1": "90 Elliot St",
    "address_2": null,
    "address_3": null,
    "city": "Brattleboro",
    "state_province": "Vermont",
    "postal_code": "05301-3269",
    "country": "United States",
    "longitude": -72.55933779,
    "latitude": 42.8518861,
    "phone": "8022542553",
    "website_url": null,
    "state": "Vermont",
    "street": "90 Elliot St"
  },
  {
    "id": "6896acbe-391c-4267-bcd0-4e1e9765ad39",
    "name": "McOva Craft Beer Works, LLC",
    "brewery_type": "planning",
    "address_1": null,
    "address_2": null,
    "address_3": null,
    "city": "Castle Rock",
    "state_province": "Colorado",
    "postal_code": "80104",
    "country": "United States",
    "longitude": null,
    "latitude": null,
    "phone": "3035215027",
    "website_url": null,
    "state": "Colorado",
    "street": null
  },
  {
    "id": "66ba9cf3-e15c-41c6-8f52-a38637a570a1",
    "name": "MDs Sports Tavern and Grill",
    "brewery_type": "brewpub",
    "address_1": "3040 N State Rd",
    "address_2": null,
    "address_3": null,
    "city": "Davison",
    "state_province": "Michigan",
    "postal_code": "48423-1146",
    "country": "United States",
    "longitude": -83.5173133,
    "latitude": 43.05021425,
    "phone": "8106536408",
    "website_url": "http://www.mdsportstavern.com",
    "state": "Michigan",
    "street": "3040 N State Rd"
  },
  {
    "id": "3842a6be-3f32-4cd1-99c0-48fcaef62602",
    "name": "Meadowlark Brewing",
    "brewery_type": "brewpub",
    "address_1": "117 S Central Ave",
    "address_2": null,
    "address_3": null,
    "city": "Sidney",
    "state_province": "Montana",
    "postal_code": "59270-4123",
    "country": "United States",
    "longitude": -104.1602945,
    "latitude": 47.7105211,
    "phone": null,
    "website_url": "http://www.meadowlarkbrewing.com",
    "state": "Montana",
    "street": "117 S Central Ave"
  },
  {
    "id": "fd44ed6d-eb54-4d4c-bcb1-5fae973395b3",
    "name": "Mean Max Brew Works",
    "brewery_type": "micro",
    "address_1": "193 Glen St # 2",
    "address_2": null,
    "address_3": null,
    "city": "Glens Falls",
    "state_province": "New York",
    "postal_code": "12801-3539",
    "country": "United States",
    "longitude": -73.64451861,
    "latitude": 43.31016635,
    "phone": "5187932337",
    "website_url": "http://www.meanmaxbrew.com",
    "state": "New York",
    "street": "193 Glen St # 2"
  },
  {
    "id": "8f0626fd-2bfe-4f6f-a8eb-42dbe0a3984b",
    "name": "Mean Sardine",
    "brewery_type": "micro",
    "address_1": "58 Surf Building",
    "address_2": "Av. S\u00e3o Sebasti\u00e3o 36b",
    "address_3": null,
    "city": "Ericeira",
    "state_province": "Lisboa",
    "postal_code": "2655-483",
    "country": "Portugal",
    "longitude": -9.4176471597208,
    "latitude": 38.981265001634,
    "phone": null,
    "website_url": "https://meansardine.pt",
    "state": "Lisboa",
    "street": "58 Surf Building"
  },
  {
    "id": "5694c81b-ce73-4efd-82fa-e685d3a13434",
    "name": "Mecan River Brewing Company",
    "brewery_type": "brewpub",
    "address_1": "113 East Main Street",
    "address_2": "P.O.Box 352",
    "address_3": null,
    "city": "Coloma",
    "state_province": "Wisconsin",
    "postal_code": "54930",
    "country": "United States",
    "longitude": -89.5238403,
    "latitude": 44.0343194,
    "phone": "7152813506",
    "website_url": "https://mecanriverbrewing.com/",
    "state": "Wisconsin",
    "street": "113 East Main Street"
  },
  {
    "id": "04ca6748-c9f5-4f3f-976f-ea9453c1b073",
    "name": "Mechanistic Brewing",
    "brewery_type": "planning",
    "address_1": null,
    "address_2": null,
    "address_3": null,
    "city": "Clarion",
    "state_province": "Pennsylvania",
    "postal_code": "16214-2018",
    "country": "United States",
    "longitude": null,
    "latitude": null,
    "phone": null,
    "website_url": null,
    "state": "Pennsylvania",
    "street": null
  },
  {
    "id": "95682129-a52a-40f1-a9d9-16dbf53c7380",
    "name": "Meddlesome Brewing Company",
    "brewery_type": "micro",
    "address_1": "7750 Trinity Rd Ste 114",
    "address_2": null,
    "address_3": null,
    "city": "Cordova",
    "state_province": "Tennessee",
    "postal_code": "38018-2736",
    "country": "United States",
    "longitude": -89.802564,
    "latitude": 35.14057,
    "phone": "6185218036",
    "website_url": "http://www.meddlesomebrewing.com",
    "state": "Tennessee",
    "street": "7750 Trinity Rd Ste 114"
  },
  {
    "id": "0a21307c-a2d0-48eb-b9c9-a88032b3b49c",
    "name": "Medusa Brewing Company",
    "brewery_type": "micro",
    "address_1": "111 Main St",
    "address_2": null,
    "address_3": null,
    "city": "Hudson",
    "state_province": "Massachusetts",
    "postal_code": "01749-2210",
    "country": "United States",
    "longitude": -71.566681,
    "latitude": 42.3909986,
    "phone": "5083950122",
    "website_url": "http://www.medusabrewing.com",
    "state": "Massachusetts",
    "street": "111 Main St"
  },
  {
    "id": "7560c905-1ba6-4706-a1d7-3d731962ed4b",
    "name": "Mel's Micro",
    "brewery_type": "brewpub",
    "address_1": "21733 US Hwy 14",
    "address_2": null,
    "address_3": null,
    "city": "Richland Center",
    "state_province": "Wisconsin",
    "postal_code": "53581",
    "country": "United States",
    "longitude": -90.3868474,
    "latitude": 43.3294383,
    "phone": null,
    "website_url": "http://www.melsmicro.com",
    "state": "Wisconsin",
    "street": "21733 US Hwy 14"
  },
  {
    "id": "531a2d9a-c743-43ad-b663-948083a07511",
    "name": "Melms Brewing Co",
    "brewery_type": "proprietor",
    "address_1": "418 Merton Ave",
    "address_2": null,
    "address_3": null,
    "city": "Hartland",
    "state_province": "Wisconsin",
    "postal_code": "53029-1524",
    "country": "United States",
    "longitude": -88.33311459,
    "latitude": 43.11075028,
    "phone": "2629932566",
    "website_url": "http://www.melmsbrewery.com",
    "state": "Wisconsin",
    "street": "418 Merton Ave"
  },
  {
    "id": "6c38c54f-6e64-44f9-b2e6-3d435c540b29",
    "name": "Mels Place",
    "brewery_type": "bar",
    "address_1": "2A Kuo Chuan Ave",
    "address_2": null,
    "address_3": null,
    "city": "Singapore",
    "state_province": "Singapore",
    "postal_code": "426897",
    "country": "Singapore",
    "longitude": 1.3077475195213,
    "latitude": 103.9079025,
    "phone": "+65 6440 3573",
    "website_url": "https://melsplace.com.sg/",
    "state": "Singapore",
    "street": "2A Kuo Chuan Ave"
  },
  {
    "id": "458bd9fd-c86a-49ec-b0c3-bf0a3370e85b",
    "name": "Melvin Brewing",
    "brewery_type": "regional",
    "address_1": "624 County Road 101",
    "address_2": null,
    "address_3": null,
    "city": "Alpine",
    "state_province": "Wyoming",
    "postal_code": "83128-0314",
    "country": "United States",
    "longitude": -111.03831502351,
    "latitude": 43.165320030658,
    "phone": "3076540426",
    "website_url": "http://www.melvinbrewing.com",
    "state": "Wyoming",
    "street": "624 County Road 101"
  },
  {
    "id": "6fdaf0f7-d914-4314-b744-eae724453c6e",
    "name": "Melvin Brewing",
    "brewery_type": "regional",
    "address_1": "110 Hilltop Village Center Dr",
    "address_2": null,
    "address_3": null,
    "city": "Eureka",
    "state_province": "Missouri",
    "postal_code": "63025",
    "country": "United States",
    "longitude": -90.649695,
    "latitude": 38.52826,
    "phone": "6365499231",
    "website_url": "http://www.melvinbrewing.com",
    "state": "Missouri",
    "street": "110 Hilltop Village Center Dr"
  },
  {
    "id": "03ed67c1-0784-4817-971f-581a95060e7c",
    "name": "Melvin Brewing Bellingham",
    "brewery_type": "closed",
    "address_1": "2416 Meridian St",
    "address_2": null,
    "address_3": null,
    "city": "Bellingham",
    "state_province": "Washington",
    "postal_code": "98225-2405",
    "country": "United States",
    "longitude": -122.485982,
    "latitude": 48.7621709,
    "phone": "3603063285",
    "website_url": null,
    "state": "Washington",
    "street": "2416 Meridian St"
  },
  {
    "id": "6f582cf6-b505-4ae4-9e2a-b5b7f1e72d71",
    "name": "Melvin Brewing Co",
    "brewery_type": "closed",
    "address_1": "75 E Pearl Ave",
    "address_2": null,
    "address_3": null,
    "city": "Jackson",
    "state_province": "Wyoming",
    "postal_code": "83001-8658",
    "country": "United States",
    "longitude": -110.7618578,
    "latitude": 43.47859778,
    "phone": "3077330005",
    "website_url": null,
    "state": "Wyoming",
    "street": "75 E Pearl Ave"
  },
  {
    "id": "201479a3-680e-4f64-b6f4-ac8c81a4cc58",
    "name": "Memphis Filling Station",
    "brewery_type": "planning",
    "address_1": null,
    "address_2": null,
    "address_3": null,
    "city": "Memphis",
    "state_province": "Tennessee",
    "postal_code": "38112-4938",
    "country": "United States",
    "longitude": null,
    "latitude": null,
    "phone": "9014978109",
    "website_url": "http://www.memphisfillingstation.com",
    "state": "Tennessee",
    "street": null
  },
  {
    "id": "718cf6aa-a2a3-4264-bbae-7a0067d87853",
    "name": "Memphis Made Brewing Company",
    "brewery_type": "micro",
    "address_1": "768 S Cooper St",
    "address_2": null,
    "address_3": null,
    "city": "Memphis",
    "state_province": "Tennessee",
    "postal_code": "38104-5406",
    "country": "United States",
    "longitude": -89.990701,
    "latitude": 35.124723,
    "phone": "9012075343",
    "website_url": "http://www.memphismadebrewing.com",
    "state": "Tennessee",
    "street": "768 S Cooper St"
  },
  {
    "id": "9221185e-c3ed-44ea-8131-d7077e7d3b0f",
    "name": "Menace Brewing",
    "brewery_type": "micro",
    "address_1": "2529 Meridian St",
    "address_2": null,
    "address_3": null,
    "city": "Bellingham",
    "state_province": "Washington",
    "postal_code": "98225-2406",
    "country": "United States",
    "longitude": -122.4862211,
    "latitude": 48.76355086,
    "phone": "3605954059",
    "website_url": "https://www.menacebrewing.com",
    "state": "Washington",
    "street": "2529 Meridian St"
  },
  {
    "id": "72c36c03-55db-4310-8b6f-66ed9942c29e",
    "name": "Merrimack Ales",
    "brewery_type": "micro",
    "address_1": "92 Bolt St",
    "address_2": null,
    "address_3": null,
    "city": "Lowell",
    "state_province": "Massachusetts",
    "postal_code": "01852-5316",
    "country": "United States",
    "longitude": -71.300252,
    "latitude": 42.625366,
    "phone": "9787017225",
    "website_url": "http://www.merrimackales.com",
    "state": "Massachusetts",
    "street": "92 Bolt St"
  },
  {
    "id": "0568b76d-4876-4cb9-a919-cfbf8a2e566c",
    "name": "Mescan Brewery",
    "brewery_type": "micro",
    "address_1": "Cartoor",
    "address_2": null,
    "address_3": null,
    "city": "Kilsallagh",
    "state_province": "Mayo",
    "postal_code": "F28 FW70",
    "country": "Ireland",
    "longitude": 9.73047,
    "latitude": 53.7471934,
    "phone": "353868320320",
    "website_url": "https://www.mescanbrewery.com/",
    "state": "Mayo",
    "street": "Cartoor"
  },
  {
    "id": "a674f295-8d93-4266-b2bf-e4cfcb4adc6a",
    "name": "Mesquite River Brewing",
    "brewery_type": "micro",
    "address_1": "13610 N Scottsdale Rd, Suite 18",
    "address_2": null,
    "address_3": null,
    "city": "Scottsdale",
    "state_province": "Arizona",
    "postal_code": "85254-4037",
    "country": "United States",
    "longitude": null,
    "latitude": null,
    "phone": "4806567696",
    "website_url": "http://www.mesquiteriverbrewing.com",
    "state": "Arizona",
    "street": "13610 N Scottsdale Rd, Suite 18"
  },
  {
    "id": "606eeca9-1d11-4af6-a95f-a526d5f17be4",
    "name": "Metal Monkey Brewing LLC",
    "brewery_type": "micro",
    "address_1": "515 Anderson Dr Ste 900",
    "address_2": null,
    "address_3": null,
    "city": "Romeoville",
    "state_province": "Illinois",
    "postal_code": "60446-1494",
    "country": "United States",
    "longitude": -88.07788064,
    "latitude": 41.6450575,
    "phone": "8155243139",
    "website_url": "http://www.metalmonkeybrewing.com",
    "state": "Illinois",
    "street": "515 Anderson Dr Ste 900"
  },
  {
    "id": "58d4385e-b363-4d10-b5dd-a0cc7aeb965e",
    "name": "Metalman Brewing Company",
    "brewery_type": "micro",
    "address_1": "Unit 14",
    "address_2": "Tycor Business Centre",
    "address_3": "Tycor",
    "city": "Waterford",
    "state_province": "Waterford",
    "postal_code": "X91 HP89",
    "country": "Ireland",
    "longitude": -7.1302473,
    "latitude": 52.2562844,
    "phone": "35351348448",
    "website_url": "http://www.metalmanbrewing.com/",
    "state": "Waterford",
    "street": "Unit 14"
  },
  {
    "id": "42431b40-da93-44f6-923c-98a25a89e376",
    "name": "Metazoa Brewing Co.",
    "brewery_type": "micro",
    "address_1": "140 S College Ave",
    "address_2": null,
    "address_3": null,
    "city": "Indianapolis",
    "state_province": "Indiana",
    "postal_code": "46202-4004",
    "country": "United States",
    "longitude": -86.14585025,
    "latitude": 39.76455049,
    "phone": "3175082274",
    "website_url": "http://www.metazoa.beer",
    "state": "Indiana",
    "street": "140 S College Ave"
  },
  {
    "id": "16563e2d-05ad-43d9-a393-a7db75c1d29d",
    "name": "Metier Brewing Company",
    "brewery_type": "micro",
    "address_1": "14125 NE 189th St",
    "address_2": null,
    "address_3": null,
    "city": "Woodinville",
    "state_province": "Washington",
    "postal_code": "98072-6831",
    "country": "United States",
    "longitude": -122.1515611,
    "latitude": 47.76422098,
    "phone": "4254158466",
    "website_url": "http://www.metierbrewing.com",
    "state": "Washington",
    "street": "14125 NE 189th St"
  },
  {
    "id": "80cea19e-4e59-4e82-94a3-5b3cb0cd29b3",
    "name": "Metropolitan Brewing",
    "brewery_type": "micro",
    "address_1": "3057 N Rockwell St",
    "address_2": null,
    "address_3": null,
    "city": "Chicago",
    "state_province": "Illinois",
    "postal_code": "60618-7917",
    "country": "United States",
    "longitude": -87.6912391,
    "latitude": 41.9376382,
    "phone": "7734746489",
    "website_url": "http://www.metrobrewing.com",
    "state": "Illinois",
    "street": "3057 N Rockwell St"
  },
  {
    "id": "d30adc33-3715-41b2-950c-63c2e906629f",
    "name": "Mexitaly Brick Oven Brewhouse",
    "brewery_type": "brewpub",
    "address_1": "2440 E Market St",
    "address_2": null,
    "address_3": null,
    "city": "York",
    "state_province": "Pennsylvania",
    "postal_code": "17402-2409",
    "country": "United States",
    "longitude": -76.6781639,
    "latitude": 39.9735865,
    "phone": "7176008226",
    "website_url": "http://www.mexitaly.com",
    "state": "Pennsylvania",
    "street": "2440 E Market St"
  },
  {
    "id": "9b407952-8478-4c53-aced-81a006a1dddb",
    "name": "MI Brewery / Kayla Rae Cellars",
    "brewery_type": "micro",
    "address_1": "31 Courtland St",
    "address_2": null,
    "address_3": null,
    "city": "Rockford",
    "state_province": "Michigan",
    "postal_code": "49341-1080",
    "country": "United States",
    "longitude": null,
    "latitude": null,
    "phone": "6169517001",
    "website_url": "http://www.kaylaraecellars.com",
    "state": "Michigan",
    "street": "31 Courtland St"
  },
  {
    "id": "61bd6b89-b37b-4793-a3a5-b2de69f0aeea",
    "name": "Mia and Pias Pizzeria/Brewhouse",
    "brewery_type": "brewpub",
    "address_1": "3545 Summers Ln",
    "address_2": null,
    "address_3": null,
    "city": "Klamath Falls",
    "state_province": "Oregon",
    "postal_code": "97603-7411",
    "country": "United States",
    "longitude": -121.7375719,
    "latitude": 42.19324978,
    "phone": "5418844880",
    "website_url": null,
    "state": "Oregon",
    "street": "3545 Summers Ln"
  },
  {
    "id": "66578541-da2c-44e8-905d-13658b49e726",
    "name": "Miami Brewing Co",
    "brewery_type": "brewpub",
    "address_1": "30205 SW 217th Ave",
    "address_2": null,
    "address_3": null,
    "city": "Homestead",
    "state_province": "Florida",
    "postal_code": "33030-7601",
    "country": "United States",
    "longitude": null,
    "latitude": null,
    "phone": "3052421224",
    "website_url": "http://www.miamibrewing.org",
    "state": "Florida",
    "street": "30205 SW 217th Ave"
  },
  {
    "id": "e1c5d42f-a9b3-4a2e-afe1-d1fa24ff9825",
    "name": "Miami Creek Brewing Company",
    "brewery_type": "closed",
    "address_1": "14226 NW County Road 14001",
    "address_2": null,
    "address_3": null,
    "city": "Drexel",
    "state_province": "Missouri",
    "postal_code": "64742-9733",
    "country": "United States",
    "longitude": null,
    "latitude": null,
    "phone": "8168920297",
    "website_url": "http://www.miamicreek.com",
    "state": "Missouri",
    "street": "14226 NW County Road 14001"
  },
  {
    "id": "b1b569f5-9c84-468e-bf1a-89f1867fa64c",
    "name": "Mica Town Brewing",
    "brewery_type": "micro",
    "address_1": "25 Brown Dr",
    "address_2": null,
    "address_3": null,
    "city": "Marion",
    "state_province": "North Carolina",
    "postal_code": "28752-4294",
    "country": "United States",
    "longitude": null,
    "latitude": null,
    "phone": "8285598300",
    "website_url": "http://www.micatownbrewing.com",
    "state": "North Carolina",
    "street": "25 Brown Dr"
  },
  {
    "id": "b43a8593-0e7e-42dd-b3f1-0c1ec9da44bf",
    "name": "Michigan Brewing Works",
    "brewery_type": "brewpub",
    "address_1": "3435 Dietz Rd",
    "address_2": null,
    "address_3": null,
    "city": "Williamston",
    "state_province": "Michigan",
    "postal_code": "48895-9506",
    "country": "United States",
    "longitude": null,
    "latitude": null,
    "phone": "5176557777",
    "website_url": null,
    "state": "Michigan",
    "street": "3435 Dietz Rd"
  },
  {
    "id": "c35a6630-0112-4f4f-b853-696bad041990",
    "name": "MickDuff's Brewing Co",
    "brewery_type": "micro",
    "address_1": "312 N First Ave",
    "address_2": null,
    "address_3": null,
    "city": "Sandpoint",
    "state_province": "Idaho",
    "postal_code": "83864-1404",
    "country": "United States",
    "longitude": -116.54764,
    "latitude": 48.27597,
    "phone": "2082554351",
    "website_url": "http://www.mickduffs.com",
    "state": "Idaho",
    "street": "312 N First Ave"
  },
  {
    "id": "7cb839b2-bd03-4672-a7b4-1d1946e32b8a",
    "name": "Mickey Finns Brewery",
    "brewery_type": "brewpub",
    "address_1": "345 N Milwaukee Ave",
    "address_2": null,
    "address_3": null,
    "city": "Libertyville",
    "state_province": "Illinois",
    "postal_code": "60048-2237",
    "country": "United States",
    "longitude": -87.9542955,
    "latitude": 42.2863321,
    "phone": "8473626688",
    "website_url": "http://www.mickeyfinnsbrewery.com",
    "state": "Illinois",
    "street": "345 N Milwaukee Ave"
  }
]