[
  {
    "id": "08bbf721-d074-4271-9878-b52d03e284df",
    "name": "Matchwood Brewing Company",
    "brewery_type": "brewpub",
    "address_1": "513 Oak St",
    "address_2": null,
    "address_3": null,
    "city": "Sandpoint",
    "state_province": "Idaho",
    "postal_code": "83864-3201",
    "country": "United States",
    "longitude": -116.554588,
    "latitude": 48.277777,
    "phone": "2087182739",
    "website_url": "http://www.matchwoodbrewing.com",
    "state": "Idaho",
    "street": "513 Oak St"
  },
  {
    "id": "1dba5e88-52ec-4d47-a3aa-9d955b4374ea",
    "name": "Mathews Brewing Company",
    "brewery_type": "micro",
    "address_1": "130 S H St",
    "address_2": null,
    "address_3": null,
    "city": "Lake Worth",
    "state_province": "Florida",
    "postal_code": "33460-4431",
    "country": "United States",
    "longitude": -80.05819245,
    "latitude": 26.6136144,
    "phone": "5618123738",
    "website_url": "http://www.mathewsbrewingcompany.com",
    "state": "Florida",
    "street": "130 S H St"
  },
  {
    "id": "0686cabe-b090-4b23-a821-2ae7c08c49c0",
    "name": "Matties",
    "brewery_type": "bar",
    "address_1": "2535 Mountain City Hwy",
    "address_2": null,
    "address_3": null,
    "city": "Elko",
    "state_province": "Nevada",
    "postal_code": "89801-4496",
    "country": "United States",
    "longitude": -115.793393,
    "latitude": 40.836405,
    "phone": "7757535100",
    "website_url": "http://www.mattiesbar-n-grill.com/",
    "state": "Nevada",
    "street": "2535 Mountain City Hwy"
  },
  {
    "id": "a47e6f5c-22fb-4166-a10f-e5032764da84",
    "name": "Maui Brewing Co - Kihei",
    "brewery_type": "brewpub",
    "address_1": "605 Lipoa Pkwy",
    "address_2": null,
    "address_3": null,
    "city": "Kihei",
    "state_province": "Hawaii",
    "postal_code": "96753-6947",
    "country": "United States",
    "longitude": -156.4402411,
    "latitude": 20.74961566,
    "phone": "8082133002",
    "website_url": "http://www.mauibrewingco.com",
    "state": "Hawaii",
    "street": "605 Lipoa Pkwy"
  },
  {
    "id": "1c2fd1ee-d81c-4408-a584-bbedc2a23c6e",
    "name": "Maui Brewing Co - Lahaina",
    "brewery_type": "brewpub",
    "address_1": "4405 Honoapiilani Hwy Ste 217",
    "address_2": null,
    "address_3": null,
    "city": "Lahaina",
    "state_province": "Hawaii",
    "postal_code": "96761-9272",
    "country": "United States",
    "longitude": -156.653963,
    "latitude": 20.845329,
    "phone": "8086693474",
    "website_url": "http://www.mauibrewingco.com",
    "state": "Hawaii",
    "street": "4405 Honoapiilani Hwy Ste 217"
  },
  {
    "id": "4cfbbdc1-142e-4a66-8f3b-54bb830d2c20",
    "name": "Maui Brewing Co - Waikiki",
    "brewery_type": "brewpub",
    "address_1": "2300 Kalakua Ave",
    "address_2": null,
    "address_3": null,
    "city": "Honolulu",
    "state_province": "Hawaii",
    "postal_code": "96815",
    "country": "United States",
    "longitude": -157.826624,
    "latitude": 21.278349,
    "phone": "8088432739",
    "website_url": "https://www.mauibrewingco.com",
    "state": "Hawaii",
    "street": "2300 Kalakua Ave"
  },
  {
    "id": "a1feb3da-eae6-4fa3-8972-73bb057798bc",
    "name": "Maumee Bay Brewing Co",
    "brewery_type": "brewpub",
    "address_1": "27 Broadway St Ste A",
    "address_2": null,
    "address_3": null,
    "city": "Toledo",
    "state_province": "Ohio",
    "postal_code": "43604-8701",
    "country": "United States",
    "longitude": null,
    "latitude": null,
    "phone": "4192431302",
    "website_url": "http://www.maumeebaybrewing.com",
    "state": "Ohio",
    "street": "27 Broadway St Ste A"
  },
  {
    "id": "10dcbe08-3216-43ef-bddc-1a5235bf68f1",
    "name": "Maverick Ales & Lager",
    "brewery_type": "planning",
    "address_1": null,
    "address_2": null,
    "address_3": null,
    "city": "Chicago",
    "state_province": "Illinois",
    "postal_code": "60612",
    "country": "United States",
    "longitude": null,
    "latitude": null,
    "phone": "4086051508",
    "website_url": "http://www.maverickbrews.com",
    "state": "Illinois",
    "street": null
  },
  {
    "id": "e85f0bf7-91b9-4f63-9b69-4b78f516e8cb",
    "name": "Max Lager's Wood Fired Grill & Brewery",
    "brewery_type": "brewpub",
    "address_1": "320 Peachtree St NE",
    "address_2": null,
    "address_3": null,
    "city": "Atlanta",
    "state_province": "Georgia",
    "postal_code": "30308-3210",
    "country": "United States",
    "longitude": -84.38706074,
    "latitude": 33.76333225,
    "phone": "4045254400",
    "website_url": "http://www.maxlagers.com",
    "state": "Georgia",
    "street": "320 Peachtree St NE"
  },
  {
    "id": "240ea2c7-bc2c-46ee-97e3-ed35ac6ed31e",
    "name": "Max's Fanno Creek Brew Pub",
    "brewery_type": "brewpub",
    "address_1": "12562 SW Main St",
    "address_2": null,
    "address_3": null,
    "city": "Portland",
    "state_province": "Oregon",
    "postal_code": "97223-6195",
    "country": "United States",
    "longitude": -122.6771146,
    "latitude": 45.5156226,
    "phone": "5036249400",
    "website_url": "http://www.maxsfannocreek.com",
    "state": "Oregon",
    "street": "12562 SW Main St"
  },
  {
    "id": "16a73b0d-7b12-4ba3-b43c-8d8e8e34489a",
    "name": "Maxline Brewing",
    "brewery_type": "micro",
    "address_1": "2724 McClelland Dr Ste 190",
    "address_2": null,
    "address_3": null,
    "city": "Fort Collins",
    "state_province": "Colorado",
    "postal_code": "80525-2575",
    "country": "United States",
    "longitude": -105.0797489,
    "latitude": 40.55059012,
    "phone": "9702862855",
    "website_url": "http://www.maxlinebrewing.com",
    "state": "Colorado",
    "street": "2724 McClelland Dr Ste 190"
  },
  {
    "id": "b970c0b3-ce7a-4058-921a-e82f4678dfa3",
    "name": "Mayday Brewery",
    "brewery_type": "micro",
    "address_1": "521 Old Salem Rd Ste C",
    "address_2": null,
    "address_3": null,
    "city": "Murfreesboro",
    "state_province": "Tennessee",
    "postal_code": "37129-5305",
    "country": "United States",
    "longitude": null,
    "latitude": null,
    "phone": "6154799722",
    "website_url": "http://www.maydaybrewery.com",
    "state": "Tennessee",
    "street": "521 Old Salem Rd Ste C"
  },
  {
    "id": "7d7f31a3-8e08-4cfc-b929-c545b41eaa05",
    "name": "Mayflower Brewing Co",
    "brewery_type": "micro",
    "address_1": "12 Resnik Rd",
    "address_2": null,
    "address_3": null,
    "city": "Plymouth",
    "state_province": "Massachusetts",
    "postal_code": "02360-7245",
    "country": "United States",
    "longitude": -70.71255496,
    "latitude": 41.94926024,
    "phone": "5087462674",
    "website_url": "http://www.mayflowerbrewing.com",
    "state": "Massachusetts",
    "street": "12 Resnik Rd"
  },
  {
    "id": "13b89410-7391-4eee-9f99-38184e513ca5",
    "name": "Mayhew Junction Brewing Company",
    "brewery_type": "micro",
    "address_1": "106 Eckford Dr",
    "address_2": null,
    "address_3": null,
    "city": "Starkville",
    "state_province": "Mississippi",
    "postal_code": "39759-3710",
    "country": "United States",
    "longitude": null,
    "latitude": null,
    "phone": "6625460510",
    "website_url": "http://www.mayhewjunction.com",
    "state": "Mississippi",
    "street": "106 Eckford Dr"
  },
  {
    "id": "c3b2d49e-ba21-4142-9854-a0b49b739720",
    "name": "Mazama Brewing Co",
    "brewery_type": "micro",
    "address_1": "33930 SE Eastgate Cir Unit A",
    "address_2": null,
    "address_3": null,
    "city": "Corvallis",
    "state_province": "Oregon",
    "postal_code": "97333-2272",
    "country": "United States",
    "longitude": -123.226008,
    "latitude": 44.56360936,
    "phone": "15412301810",
    "website_url": "http://www.mazamabrewing.com",
    "state": "Oregon",
    "street": "33930 SE Eastgate Cir Unit A"
  },
  {
    "id": "70972189-e029-4a8e-ba79-da86b66ba67e",
    "name": "MBF Brewing Co",
    "brewery_type": "closed",
    "address_1": "530 W 7th St Apt 401",
    "address_2": null,
    "address_3": null,
    "city": "Los Angeles",
    "state_province": "California",
    "postal_code": "90014-2507",
    "country": "United States",
    "longitude": -118.2564646,
    "latitude": 34.04700723,
    "phone": "8315217921",
    "website_url": "http://www.MBFcompany.com",
    "state": "California",
    "street": "530 W 7th St Apt 401"
  },
  {
    "id": "c3e7b965-dfce-4765-9d5b-dd2d49b28e7a",
    "name": "McArthur's Brew House",
    "brewery_type": "micro",
    "address_1": "2721 Front St",
    "address_2": null,
    "address_3": null,
    "city": "Cuyahoga Falls",
    "state_province": "Ohio",
    "postal_code": "44221-1904",
    "country": "United States",
    "longitude": -81.47237058,
    "latitude": 41.14618347,
    "phone": "3308054600",
    "website_url": "http://www.mcarthursbrewhouse.com",
    "state": "Ohio",
    "street": "2721 Front St"
  },
  {
    "id": "f46a3893-14c5-4830-ac6b-63510cc8429d",
    "name": "McCall Brewing Co",
    "brewery_type": "brewpub",
    "address_1": "807 N 3rd St",
    "address_2": null,
    "address_3": null,
    "city": "McCall",
    "state_province": "Idaho",
    "postal_code": "83638-3806",
    "country": "United States",
    "longitude": -116.097991,
    "latitude": 44.904411,
    "phone": "2086343309",
    "website_url": "http://www.mccallbrew.com",
    "state": "Idaho",
    "street": "807 N 3rd St"
  },
  {
    "id": "8938798a-3cd6-4864-96a9-e6febf1b25be",
    "name": "McClellan's Brewing Company",
    "brewery_type": "brewpub",
    "address_1": "1035 S Taft Hill Rd",
    "address_2": null,
    "address_3": null,
    "city": "Fort Collins",
    "state_province": "Colorado",
    "postal_code": "80521-4222",
    "country": "United States",
    "longitude": -105.1151806,
    "latitude": 40.5737952,
    "phone": "9705688473",
    "website_url": "http://www.mcclellansbrewingcompany.com",
    "state": "Colorado",
    "street": "1035 S Taft Hill Rd"
  },
  {
    "id": "771010b0-2631-49c3-8821-034588bfbc7a",
    "name": "McCoy's Public House",
    "brewery_type": "closed",
    "address_1": "4057 Pennsylvania Ave",
    "address_2": null,
    "address_3": null,
    "city": "Kansas City",
    "state_province": "Missouri",
    "postal_code": "64111-3021",
    "country": "United States",
    "longitude": -94.5911729,
    "latitude": 39.1002989,
    "phone": "8169600866",
    "website_url": "http://www.mccoyspublichouse.com",
    "state": "Missouri",
    "street": "4057 Pennsylvania Ave"
  },
  {
    "id": "c2b0f72c-c305-40b5-919e-19f7542f6609",
    "name": "McFate Brewing Company",
    "brewery_type": "brewpub",
    "address_1": "1312 N Scottsdale Rd",
    "address_2": null,
    "address_3": null,
    "city": "Scottsdale",
    "state_province": "Arizona",
    "postal_code": "85257-3488",
    "country": "United States",
    "longitude": -111.9254955,
    "latitude": 33.658427,
    "phone": "4806569100",
    "website_url": "http://mcfatebrewing.com",
    "state": "Arizona",
    "street": "1312 N Scottsdale Rd"
  },
  {
    "id": "fb49a213-fa62-4889-acae-1146f3afc238",
    "name": "McFate's Tap + Barrel",
    "brewery_type": "brewpub",
    "address_1": "7337 E Shea Blvd Ste 105",
    "address_2": null,
    "address_3": null,
    "city": "Scottsdale",
    "state_province": "Arizona",
    "postal_code": "85260-6465",
    "country": "United States",
    "longitude": null,
    "latitude": null,
    "phone": "4809941275",
    "website_url": "http://www.fatebrewing.com",
    "state": "Arizona",
    "street": "7337 E Shea Blvd Ste 105"
  },
  {
    "id": "76768b9c-de50-4f63-a69a-2188a21fda51",
    "name": "McFleshman's Public House",
    "brewery_type": "planning",
    "address_1": null,
    "address_2": null,
    "address_3": null,
    "city": "Appleton",
    "state_province": "Wisconsin",
    "postal_code": "54911-5840",
    "country": "United States",
    "longitude": null,
    "latitude": null,
    "phone": "4056270167",
    "website_url": "http://www.mcfleshmans.com",
    "state": "Wisconsin",
    "street": null
  },
  {
    "id": "8df1dd63-af4f-4173-805a-3c1c22a4df2d",
    "name": "McGuire's Irish Pub and Brewery - Destin",
    "brewery_type": "brewpub",
    "address_1": "33 Highway 98 E",
    "address_2": null,
    "address_3": null,
    "city": "Destin",
    "state_province": "Florida",
    "postal_code": "32541-2309",
    "country": "United States",
    "longitude": null,
    "latitude": null,
    "phone": "8506540567",
    "website_url": "http://www.mcguiresirishpub.com",
    "state": "Florida",
    "street": "33 Highway 98 E"
  },
  {
    "id": "b29d754c-ba72-49ec-a6e7-d1cf054ebe17",
    "name": "McGuire's Irish Pub and Brewery - Pensacola",
    "brewery_type": "brewpub",
    "address_1": "600 E Gregory St",
    "address_2": null,
    "address_3": null,
    "city": "Pensacola",
    "state_province": "Florida",
    "postal_code": "32502-4153",
    "country": "United States",
    "longitude": -87.2024655,
    "latitude": 30.4180618,
    "phone": "8504336789",
    "website_url": "http://www.mcguiresirishpub.com",
    "state": "Florida",
    "street": "600 E Gregory St"
  },
  {
    "id": "7edb5d33-d3af-4dc6-964f-6f90bd7e7908",
    "name": "McHale's Brewhouse",
    "brewery_type": "brewpub",
    "address_1": "724 Ashland Ter",
    "address_2": null,
    "address_3": null,
    "city": "Chattanooga",
    "state_province": "Tennessee",
    "postal_code": "37415-3536",
    "country": "United States",
    "longitude": -85.27573976,
    "latitude": 35.11640583,
    "phone": "4238772124",
    "website_url": "http://www.mchalesbrewhouse.com",
    "state": "Tennessee",
    "street": "724 Ashland Ter"
  },
  {
    "id": "2b9e1914-2432-418d-972d-78ccdff2072b",
    "name": "McHenry Brewing Company",
    "brewery_type": "planning",
    "address_1": null,
    "address_2": null,
    "address_3": null,
    "city": "McHenry",
    "state_province": "Illinois",
    "postal_code": "60050",
    "country": "United States",
    "longitude": null,
    "latitude": null,
    "phone": "8154032212",
    "website_url": null,
    "state": "Illinois",
    "street": null
  },
  {
    "id": "0e6bc707-ecba-4651-852f-45f698a1bceb",
    "name": "McIntosh Orchards",
    "brewery_type": "micro",
    "address_1": "6431 107th Ave",
    "address_2": null,
    "address_3": null,
    "city": "South Haven",
    "state_province": "Michigan",
    "postal_code": "49090-9369",
    "country": "United States",
    "longitude": null,
    "latitude": null,
    "phone": "7078783734",
    "website_url": "http://www.mcintoshorchards.com",
    "state": "Michigan",
    "street": "6431 107th Ave"
  },
  {
    "id": "d1ae1dec-b5f2-493d-bfc0-409d8d4f3101",
    "name": "McIntyre Brewing Company",
    "brewery_type": "planning",
    "address_1": null,
    "address_2": null,
    "address_3": null,
    "city": "Hermitage",
    "state_province": "Tennessee",
    "postal_code": "37076",
    "country": "United States",
    "longitude": null,
    "latitude": null,
    "phone": "4065291183",
    "website_url": "http://www.mcintyrebrew.com",
    "state": "Tennessee",
    "street": null
  },
  {
    "id": "45366282-0e7e-44ba-9aac-4cd9f4f82a8e",
    "name": "McKenzie Brew House",
    "brewery_type": "brewpub",
    "address_1": "451 Wilmington Pike - W Chester Pike",
    "address_2": null,
    "address_3": null,
    "city": "Glen Mills",
    "state_province": "Pennsylvania",
    "postal_code": "19342-1249",
    "country": "United States",
    "longitude": null,
    "latitude": null,
    "phone": "6103619800",
    "website_url": "http://www.mckenziebrewhouse.com",
    "state": "Pennsylvania",
    "street": "451 Wilmington Pike - W Chester Pike"
  },
  {
    "id": "20d49ccb-4a92-4c5d-90ff-ec3e363d8407",
    "name": "McKenzie Brew House (#2)",
    "brewery_type": "brewpub",
    "address_1": "240 Lancaster Ave",
    "address_2": null,
    "address_3": null,
    "city": "Malvern",
    "state_province": "Pennsylvania",
    "postal_code": "19355-1802",
    "country": "United States",
    "longitude": null,
    "latitude": null,
    "phone": "6102962222",
    "website_url": "http://www.mckenziebrewhouse.com",
    "state": "Pennsylvania",
    "street": "240 Lancaster Ave"
  },
  {
    "id": "aef95b1b-3201-4aa9-8b9e-9bf92bcca975",
    "name": "McKenzie Brew House (#3)",
    "brewery_type": "brewpub",
    "address_1": "324 W Swedesford Rd",
    "address_2": null,
    "address_3": null,
    "city": "Berwyn",
    "state_province": "Pennsylvania",
    "postal_code": "19312-1165",
    "country": "United States",
    "longitude": null,
    "latitude": null,
    "phone": "6103619800",
    "website_url": null,
    "state": "Pennsylvania",
    "street": "324 W Swedesford Rd"
  },
  {
    "id": "258023a7-eaa3-421d-b011-b6b341403388",
    "name": "McKenzie Brewing Company",
    "brewery_type": "brewpub",
    "address_1": "199 E 5th Ave",
    "address_2": null,
    "address_3": null,
    "city": "Eugene",
    "state_province": "Oregon",
    "postal_code": "97401-8715",
    "country": "United States",
    "longitude": -123.089843,
    "latitude": 44.054404,
    "phone": "5416862739",
    "website_url": "http://www.steelheadbrewery.com",
    "state": "Oregon",
    "street": "199 E 5th Ave"
  },
  {
    "id": "1892d9b8-4037-4f23-87c5-6c4c8f093779",
    "name": "McMenamins - Cedar Hills",
    "brewery_type": "brewpub",
    "address_1": "2885 SW Cedar Hills Blvd",
    "address_2": null,
    "address_3": null,
    "city": "Beaverton",
    "state_province": "Oregon",
    "postal_code": "97005-1343",
    "country": "United States",
    "longitude": -122.8058983,
    "latitude": 45.5013601,
    "phone": "5036410151",
    "website_url": null,
    "state": "Oregon",
    "street": "2885 SW Cedar Hills Blvd"
  },
  {
    "id": "1c4cb8bf-6529-4372-aa73-6bc063b90a65",
    "name": "McMenamins Anderson School Brewery",
    "brewery_type": "brewpub",
    "address_1": "18607 Bothell Way NE",
    "address_2": null,
    "address_3": null,
    "city": "Bothell",
    "state_province": "Washington",
    "postal_code": "98011-1928",
    "country": "United States",
    "longitude": -122.2080698,
    "latitude": 47.76387772,
    "phone": "4253980122",
    "website_url": "http://www.mcmenamins.com/anderson-school",
    "state": "Washington",
    "street": "18607 Bothell Way NE"
  },
  {
    "id": "db962489-e1d3-4102-a8cd-85ad5cc9a02b",
    "name": "McMenamins Breweries",
    "brewery_type": "micro",
    "address_1": "430 N Killingsworth St",
    "address_2": null,
    "address_3": null,
    "city": "Portland",
    "state_province": "Oregon",
    "postal_code": "97217-2441",
    "country": "United States",
    "longitude": -122.6708112,
    "latitude": 45.5624447,
    "phone": "5032230109",
    "website_url": "http://www.mcmenamins.com",
    "state": "Oregon",
    "street": "430 N Killingsworth St"
  },
  {
    "id": "a11222c9-a317-4cef-aaec-a1da131cb749",
    "name": "McMenamins Concordia Brewery at Kennedy School",
    "brewery_type": "brewpub",
    "address_1": "5736 NE 33rd Ave",
    "address_2": null,
    "address_3": null,
    "city": "Portland",
    "state_province": "Oregon",
    "postal_code": "97211-7302",
    "country": "United States",
    "longitude": -122.6299694,
    "latitude": 45.56447065,
    "phone": "5032881937",
    "website_url": "http://www.mcmenamins.com",
    "state": "Oregon",
    "street": "5736 NE 33rd Ave"
  },
  {
    "id": "1467b102-9664-4df9-85e8-f2d0ae1e3508",
    "name": "McMenamins Cornelius Pass Roadhouse",
    "brewery_type": "brewpub",
    "address_1": "4045 NE Cornelius Pass Rd",
    "address_2": null,
    "address_3": null,
    "city": "Hillsboro",
    "state_province": "Oregon",
    "postal_code": "97124-9367",
    "country": "United States",
    "longitude": -122.9009845,
    "latitude": 45.5490862,
    "phone": "5036406174",
    "website_url": "http://www.mcmenamins.com",
    "state": "Oregon",
    "street": "4045 NE Cornelius Pass Rd"
  },
  {
    "id": "19d30f50-d7a9-4f8e-86dd-9ae9d3cbffa7",
    "name": "McMenamins Crystal Ballroom Brewery",
    "brewery_type": "brewpub",
    "address_1": "1332 W Burnside St",
    "address_2": null,
    "address_3": null,
    "city": "Portland",
    "state_province": "Oregon",
    "postal_code": "97209-2612",
    "country": "United States",
    "longitude": -122.6850673,
    "latitude": 45.5228146,
    "phone": "5037785625",
    "website_url": "http://www.mcmenamins.com",
    "state": "Oregon",
    "street": "1332 W Burnside St"
  },
  {
    "id": "38d9665c-277c-46f5-9cd2-8dd2ebc5bdb2",
    "name": "McMenamins East Vancouver Brewery",
    "brewery_type": "brewpub",
    "address_1": "1900B NE 162nd Ave Ste B107",
    "address_2": null,
    "address_3": null,
    "city": "Vancouver",
    "state_province": "Washington",
    "postal_code": "98684-3013",
    "country": "United States",
    "longitude": -122.5068563,
    "latitude": 45.63739909,
    "phone": "3606959033",
    "website_url": "https://www.mcmenamins.com/east-vancouver",
    "state": "Washington",
    "street": "1900B NE 162nd Ave Ste B107"
  },
  {
    "id": "06d34341-3309-4023-978c-478285e8a391",
    "name": "McMenamins Edgefield Brewery",
    "brewery_type": "micro",
    "address_1": "2126 SW Halsey St",
    "address_2": null,
    "address_3": null,
    "city": "Troutdale",
    "state_province": "Oregon",
    "postal_code": "97060-1026",
    "country": "United States",
    "longitude": -122.4060641,
    "latitude": 45.5368535,
    "phone": "5036674352",
    "website_url": "http://www.mcmenamins.com",
    "state": "Oregon",
    "street": "2126 SW Halsey St"
  },
  {
    "id": "f588b69c-2537-4d6e-8560-9037a16b2af1",
    "name": "McMenamins Elks Temple",
    "brewery_type": "brewpub",
    "address_1": "565 Broadway",
    "address_2": null,
    "address_3": null,
    "city": "Tacoma",
    "state_province": "Washington",
    "postal_code": "98402",
    "country": "United States",
    "longitude": -122.44092625962,
    "latitude": 47.258188685191,
    "phone": null,
    "website_url": "https://www.mcmenamins.com/elks-temple",
    "state": "Washington",
    "street": "565 Broadway"
  },
  {
    "id": "faf099d7-5437-40ff-a51e-f277d58447a4",
    "name": "McMenamins Fulton Pub and Brewery",
    "brewery_type": "micro",
    "address_1": "0618 SW Nebraska St",
    "address_2": null,
    "address_3": null,
    "city": "Portland",
    "state_province": "Oregon",
    "postal_code": "97239-3556",
    "country": "United States",
    "longitude": -122.6726223,
    "latitude": 45.47711805,
    "phone": "5032464363",
    "website_url": "http://www.mcmenamins.com",
    "state": "Oregon",
    "street": "0618 SW Nebraska St"
  },
  {
    "id": "5527e67d-4ff5-4843-b6cb-dd6695cf5b2c",
    "name": "McMenamins High Street Brewery",
    "brewery_type": "brewpub",
    "address_1": "1243 High St",
    "address_2": null,
    "address_3": null,
    "city": "Eugene",
    "state_province": "Oregon",
    "postal_code": "97401-3207",
    "country": "United States",
    "longitude": -123.0879134,
    "latitude": 44.0461346,
    "phone": "5413454913",
    "website_url": "http://www.mcmenamins.com",
    "state": "Oregon",
    "street": "1243 High St"
  },
  {
    "id": "1a4b9cf0-e54e-460c-bd7a-c91585d42adc",
    "name": "McMenamins Highland Pub and Brewery",
    "brewery_type": "brewpub",
    "address_1": "4225 SE 182nd Ave",
    "address_2": null,
    "address_3": null,
    "city": "Gresham",
    "state_province": "Oregon",
    "postal_code": "97030-5082",
    "country": "United States",
    "longitude": -122.475815,
    "latitude": 45.4915603,
    "phone": "5036653015",
    "website_url": "http://www.mcmenamins.com",
    "state": "Oregon",
    "street": "4225 SE 182nd Ave"
  },
  {
    "id": "82cf7577-0457-4889-b49b-3738c3d58dd1",
    "name": "McMenamins Hillsdale Brewery and Public House",
    "brewery_type": "micro",
    "address_1": "1505 SW Sunset Blvd",
    "address_2": null,
    "address_3": null,
    "city": "Portland",
    "state_province": "Oregon",
    "postal_code": "97239-2625",
    "country": "United States",
    "longitude": -122.6936922,
    "latitude": 45.4792439,
    "phone": "5032931753",
    "website_url": "http://www.mcmenamins.com",
    "state": "Oregon",
    "street": "1505 SW Sunset Blvd"
  },
  {
    "id": "7435ef24-5a83-4bd8-bc65-525088350803",
    "name": "McMenamins John Barleycorns",
    "brewery_type": "brewpub",
    "address_1": "14610 SW Sequoia Pkwy",
    "address_2": null,
    "address_3": null,
    "city": "Tigard",
    "state_province": "Oregon",
    "postal_code": "97224-7185",
    "country": "United States",
    "longitude": -122.7466466,
    "latitude": 45.41452585,
    "phone": "5036846253",
    "website_url": "http://www.mcmenamins.com",
    "state": "Oregon",
    "street": "14610 SW Sequoia Pkwy"
  },
  {
    "id": "cbe2a6f6-294a-440d-902f-f3c147378a99",
    "name": "McMenamins Kalama Harbor Lodge",
    "brewery_type": "brewpub",
    "address_1": "215 N Hendrickson Dr",
    "address_2": null,
    "address_3": null,
    "city": "Kalama",
    "state_province": "Washington",
    "postal_code": "98625",
    "country": "United States",
    "longitude": -122.8470478,
    "latitude": 46.00555187,
    "phone": "3606739210",
    "website_url": "https://www.mcmenamins.com/kalama-harbor-lodge",
    "state": "Washington",
    "street": "215 N Hendrickson Dr"
  },
  {
    "id": "48dc01b2-c5a0-4c6b-80f9-25945a0eb2f6",
    "name": "McMenamins Lighthouse Brewery",
    "brewery_type": "brewpub",
    "address_1": "4157 NW Highway 101 Ste 117",
    "address_2": null,
    "address_3": null,
    "city": "Lincoln City",
    "state_province": "Oregon",
    "postal_code": "97367-5050",
    "country": "United States",
    "longitude": -124.0050694,
    "latitude": 44.99673605,
    "phone": "5419949628",
    "website_url": "http://www.mcmenamins.com",
    "state": "Oregon",
    "street": "4157 NW Highway 101 Ste 117"
  },
  {
    "id": "2b1cfbdf-23a1-4a0e-b370-11e6da46d64d",
    "name": "McMenamins Mill Creek Brewery",
    "brewery_type": "brewpub",
    "address_1": "13300 Bothell Everett Hwy Ste 304",
    "address_2": null,
    "address_3": null,
    "city": "Mill Creek",
    "state_province": "Washington",
    "postal_code": "98012-5312",
    "country": "United States",
    "longitude": -122.2123317,
    "latitude": 47.87765468,
    "phone": "4253169817",
    "website_url": "https://www.mcmenamins.com/mill-creek",
    "state": "Washington",
    "street": "13300 Bothell Everett Hwy Ste 304"
  }
]