[
  {
    "id": "6be8cb90-0919-46ce-af30-435d51aa06b8",
    "name": "Brewery Vivant",
    "brewery_type": "brewpub",
    "address_1": "925 Cherry St SE",
    "address_2": null,
    "address_3": null,
    "city": "Grand Rapids",
    "state_province": "Michigan",
    "postal_code": "49506-1403",
    "country": "United States",
    "longitude": -85.64683809,
    "latitude": 42.95961591,
    "phone": "6167191604",
    "website_url": "http://www.breweryvivant.com",
    "state": "Michigan",
    "street": "925 Cherry St SE"
  },
  {
    "id": "f5876665-7981-4cf5-8a2e-400d7a05c29a",
    "name": "Brewfinity Brewing Co",
    "brewery_type": "brewpub",
    "address_1": "N58 W39800 Industrial Rd Ste D",
    "address_2": null,
    "address_3": null,
    "city": "Oconomowoc",
    "state_province": "Wisconsin",
    "postal_code": "53066",
    "country": "United States",
    "longitude": -88.537410730917,
    "latitude": 43.126758239323,
    "phone": "2624562843",
    "website_url": "https://www.brewfinitybrewing.com",
    "state": "Wisconsin",
    "street": "N58 W39800 Industrial Rd Ste D"
  },
  {
    "id": "4f9d7195-bc11-44ce-bf57-e95f243a7675",
    "name": "Brewheim Brewing Company",
    "brewery_type": "planning",
    "address_1": null,
    "address_2": null,
    "address_3": null,
    "city": "Anaheim",
    "state_province": "California",
    "postal_code": "92806",
    "country": "United States",
    "longitude": -117.911732,
    "latitude": 33.8347516,
    "phone": null,
    "website_url": "http://www.brewheim.com",
    "state": "California",
    "street": null
  },
  {
    "id": "fe3c1834-e95f-4e16-bb58-56ffd676689c",
    "name": "Brewhouse & Kitchen",
    "brewery_type": "brewpub",
    "address_1": "East Street",
    "address_2": null,
    "address_3": null,
    "city": "Horsham",
    "state_province": "West Sussex",
    "postal_code": "RH12 1HL",
    "country": "England",
    "longitude": -0.327295,
    "latitude": 51.061642,
    "phone": "2073543761",
    "website_url": "https://www.brewhouseandkitchen.com/",
    "state": "West Sussex",
    "street": "East Street"
  },
  {
    "id": "4012cd29-7e59-4c75-98ba-89ff53efe702",
    "name": "Brewing Academy Of Montana At FVCC",
    "brewery_type": "planning",
    "address_1": null,
    "address_2": null,
    "address_3": null,
    "city": "Kalispell",
    "state_province": "Montana",
    "postal_code": "59901",
    "country": "United States",
    "longitude": null,
    "latitude": null,
    "phone": "4067564359",
    "website_url": "http://www.fvcc.edu",
    "state": "Montana",
    "street": null
  },
  {
    "id": "639813cf-a5a1-4209-8a21-6bb8fc99589f",
    "name": "Brewing Brothers Ltd",
    "brewery_type": "brewpub",
    "address_1": "Queens Road",
    "address_2": null,
    "address_3": null,
    "city": "Hastings",
    "state_province": "East Sussex",
    "postal_code": "TN34 1RL",
    "country": "England",
    "longitude": 0.584234,
    "latitude": 50.860013,
    "phone": "7985505810",
    "website_url": "https://brewingbrothers.org/",
    "state": "East Sussex",
    "street": "Queens Road"
  },
  {
    "id": "8276dbc8-8e5c-4df9-a147-2d64241931f6",
    "name": "Brewing Savage Co.",
    "brewery_type": "micro",
    "address_1": "12815 NE 124th St I",
    "address_2": null,
    "address_3": null,
    "city": "Kirkland",
    "state_province": "Washington",
    "postal_code": "98034-8313",
    "country": "United States",
    "longitude": -122.1690259,
    "latitude": 47.7109552,
    "phone": null,
    "website_url": "https://www.brewingsavage.com",
    "state": "Washington",
    "street": "12815 NE 124th St I"
  },
  {
    "id": "b0c00edd-f8b2-430e-84ba-763823dcb731",
    "name": "Brewing Tree Beer Company",
    "brewery_type": "micro",
    "address_1": "9278 Rockfish Valley Hwy",
    "address_2": null,
    "address_3": null,
    "city": "Afton",
    "state_province": "Virginia",
    "postal_code": "22920",
    "country": "United States",
    "longitude": null,
    "latitude": null,
    "phone": "5403810990",
    "website_url": null,
    "state": "Virginia",
    "street": "9278 Rockfish Valley Hwy"
  },
  {
    "id": "970a920a-26a9-468b-b229-7f8c803f1a9f",
    "name": "Brewjeria Company",
    "brewery_type": "planning",
    "address_1": null,
    "address_2": null,
    "address_3": null,
    "city": "Hacienda Heights",
    "state_province": "California",
    "postal_code": "91745-1620",
    "country": "United States",
    "longitude": -117.9686755,
    "latitude": 33.9930677,
    "phone": null,
    "website_url": "http://www.brewjeriacompany.com",
    "state": "California",
    "street": null
  },
  {
    "id": "4cd2e7c4-0973-4e3a-9d8f-ef2f207b89ea",
    "name": "BrewLAB",
    "brewery_type": "micro",
    "address_1": "4191 Carpinteria Ave Ste 8",
    "address_2": null,
    "address_3": null,
    "city": "Carpinteria",
    "state_province": "California",
    "postal_code": "93013-3302",
    "country": "United States",
    "longitude": -119.5340743,
    "latitude": 34.40388565,
    "phone": null,
    "website_url": "http://www.brewlabcraft.com/",
    "state": "California",
    "street": "4191 Carpinteria Ave Ste 8"
  },
  {
    "id": "dc230b28-7686-4c2f-897c-fd54afd55e33",
    "name": "Brewmasters Tavern / Brewmasters Brewing Services",
    "brewery_type": "micro",
    "address_1": "4 Main St",
    "address_2": null,
    "address_3": null,
    "city": "Williamsburg",
    "state_province": "Massachusetts",
    "postal_code": "01096-9428",
    "country": "United States",
    "longitude": -72.7305059,
    "latitude": 42.3923659,
    "phone": "4132682199",
    "website_url": null,
    "state": "Massachusetts",
    "street": "4 Main St"
  },
  {
    "id": "d4603870-fec1-49ce-9137-6c1e1f0efc2e",
    "name": "Brewmented",
    "brewery_type": "micro",
    "address_1": "900 S Hover St Ste C",
    "address_2": null,
    "address_3": null,
    "city": "Longmont",
    "state_province": "Colorado",
    "postal_code": "80501-7941",
    "country": "United States",
    "longitude": null,
    "latitude": null,
    "phone": "8772579956",
    "website_url": "http://www.brewmented.com",
    "state": "Colorado",
    "street": "900 S Hover St Ste C"
  },
  {
    "id": "91edce96-9b05-47fb-b160-efa8f5dfd2c2",
    "name": "BrewPlan, Inc.",
    "brewery_type": "planning",
    "address_1": null,
    "address_2": null,
    "address_3": null,
    "city": "Onalaska",
    "state_province": "Wisconsin",
    "postal_code": "54650",
    "country": "United States",
    "longitude": null,
    "latitude": null,
    "phone": "6083869430",
    "website_url": "http://www.brewplan.com",
    "state": "Wisconsin",
    "street": null
  },
  {
    "id": "2c81530e-f7b2-4d1c-85ae-c351b12b11fc",
    "name": "Brewpop Brewery",
    "brewery_type": "brewpub",
    "address_1": "2122 US Highway 92 W",
    "address_2": null,
    "address_3": null,
    "city": "Auburndale",
    "state_province": "Florida",
    "postal_code": "33823-3962",
    "country": "United States",
    "longitude": null,
    "latitude": null,
    "phone": "8636623864",
    "website_url": "http://www.brewpop.com",
    "state": "Florida",
    "street": "2122 US Highway 92 W"
  },
  {
    "id": "d67247b7-20ad-4f3a-aefb-b1f5097f6005",
    "name": "Brewport Brewing Co",
    "brewery_type": "brewpub",
    "address_1": "225 S Frontage Rd",
    "address_2": null,
    "address_3": null,
    "city": "Bridgeport",
    "state_province": "Connecticut",
    "postal_code": "06604-5031",
    "country": "United States",
    "longitude": -73.19238627,
    "latitude": 41.170877,
    "phone": "2036124438",
    "website_url": "http://www.brewportct.com",
    "state": "Connecticut",
    "street": "225 S Frontage Rd"
  },
  {
    "id": "c8741305-1bbf-4318-a202-1f08584ff983",
    "name": "Brewpub Center Point",
    "brewery_type": "brewpub",
    "address_1": "2-5-8 Ukida",
    "address_2": null,
    "address_3": null,
    "city": "Osaka",
    "state_province": "Osaka",
    "postal_code": "530-0021",
    "country": "Japan",
    "longitude": 135.5075634,
    "latitude": 34.70979002,
    "phone": "81664508296",
    "website_url": "https://brewpub.co.jp/",
    "state": "Osaka",
    "street": "2-5-8 Ukida"
  },
  {
    "id": "241eadea-4c86-420f-9ce9-76eb2beed93c",
    "name": "Brewpub In Planning - Birmingham",
    "brewery_type": "planning",
    "address_1": null,
    "address_2": null,
    "address_3": null,
    "city": "Birmingham",
    "state_province": "Alabama",
    "postal_code": "35222",
    "country": "United States",
    "longitude": -86.8024326,
    "latitude": 33.5206824,
    "phone": "2565854531",
    "website_url": null,
    "state": "Alabama",
    "street": null
  },
  {
    "id": "3701ef02-81a2-4d59-99ae-8344dc8b530b",
    "name": "Brews Brothers",
    "brewery_type": "brewpub",
    "address_1": "2404 Strand St",
    "address_2": null,
    "address_3": null,
    "city": "Galveston",
    "state_province": "Texas",
    "postal_code": "77550-1412",
    "country": "United States",
    "longitude": null,
    "latitude": null,
    "phone": "4097632739",
    "website_url": null,
    "state": "Texas",
    "street": "2404 Strand St"
  },
  {
    "id": "f5406382-8474-463c-b420-f743a82d9dfa",
    "name": "BrewSA Brewing Co",
    "brewery_type": "micro",
    "address_1": "180 Woodcleft Ave",
    "address_2": null,
    "address_3": null,
    "city": "Freeport",
    "state_province": "New York",
    "postal_code": "11520-6336",
    "country": "United States",
    "longitude": -73.582368,
    "latitude": 40.635176,
    "phone": "5163772751",
    "website_url": "http://www.brewsa.com",
    "state": "New York",
    "street": "180 Woodcleft Ave"
  },
  {
    "id": "f3598750-c881-4e7c-a2d5-c978c56416da",
    "name": "Brewstel",
    "brewery_type": "micro",
    "address_1": "120 Davis Ave",
    "address_2": null,
    "address_3": null,
    "city": "Elkins",
    "state_province": "West Virginia",
    "postal_code": "26241-3812",
    "country": "United States",
    "longitude": -79.849588,
    "latitude": 38.923407,
    "phone": "3049974769",
    "website_url": "http://www.brewstel.com",
    "state": "West Virginia",
    "street": "120 Davis Ave"
  },
  {
    "id": "9032a86f-4b3d-42a0-b8f8-c41a82b1d027",
    "name": "Brewster Bros Brewing Co",
    "brewery_type": "micro",
    "address_1": "402 W River St",
    "address_2": null,
    "address_3": null,
    "city": "Chippewa Falls",
    "state_province": "Wisconsin",
    "postal_code": "54729-2355",
    "country": "United States",
    "longitude": -91.39646593,
    "latitude": 44.93179462,
    "phone": "7158615100",
    "website_url": "http://www.chippewariverdistillery.com/beer/",
    "state": "Wisconsin",
    "street": "402 W River St"
  },
  {
    "id": "ab8115a1-d3ee-4d85-9914-ed54b78ed94f",
    "name": "Brewster River Pub & Brewery",
    "brewery_type": "brewpub",
    "address_1": "4087 Vt Route 108 S",
    "address_2": null,
    "address_3": null,
    "city": "Jeffersonville",
    "state_province": "Vermont",
    "postal_code": "05464-9509",
    "country": "United States",
    "longitude": null,
    "latitude": null,
    "phone": "8026446366",
    "website_url": "http://www.brewsterriverpubnbrewery.com",
    "state": "Vermont",
    "street": "4087 Vt Route 108 S"
  },
  {
    "id": "79ccf31c-2e69-4b6b-b63c-5f84093a0050",
    "name": "Brewtality",
    "brewery_type": "contract",
    "address_1": "930 McLaughlin Ave",
    "address_2": null,
    "address_3": null,
    "city": "San Jose",
    "state_province": "California",
    "postal_code": "95122-2611",
    "country": "United States",
    "longitude": -121.8541694,
    "latitude": 37.3331712,
    "phone": "3104023349",
    "website_url": "http://www.brewtality.com",
    "state": "California",
    "street": "930 McLaughlin Ave"
  },
  {
    "id": "f208c762-c903-4be2-927b-47716692794d",
    "name": "Brewtus Brewing Co",
    "brewery_type": "micro",
    "address_1": "23 Chestnut Ave",
    "address_2": null,
    "address_3": null,
    "city": "Sharon",
    "state_province": "Pennsylvania",
    "postal_code": "16146-",
    "country": "United States",
    "longitude": -80.50749936,
    "latitude": 41.23267888,
    "phone": "7243086293",
    "website_url": "http://www.brewtusbrewing.com",
    "state": "Pennsylvania",
    "street": "23 Chestnut Ave"
  },
  {
    "id": "0d045b05-7dbe-4eed-83a4-463235e042f6",
    "name": "Brewvado Taproom",
    "brewery_type": "micro",
    "address_1": "135 Lopez Rd B",
    "address_2": null,
    "address_3": null,
    "city": "Lopez Island",
    "state_province": "Washington",
    "postal_code": "98261-8290",
    "country": "United States",
    "longitude": -122.913356,
    "latitude": 48.523402,
    "phone": "3602288214",
    "website_url": "https://www.facebook.com/Lopez-Island-Brewing-Company-and-Brewvado-Tap-Room-1507961149443612",
    "state": "Washington",
    "street": "135 Lopez Rd B"
  },
  {
    "id": "ff72584e-5eab-4569-8a39-9849f1a7841f",
    "name": "Brewyard Beer Company LLC",
    "brewery_type": "micro",
    "address_1": "906 Western Ave",
    "address_2": null,
    "address_3": null,
    "city": "Glendale",
    "state_province": "California",
    "postal_code": "91201",
    "country": "United States",
    "longitude": -118.3018112,
    "latitude": 34.159644,
    "phone": "8184099448",
    "website_url": "http://www.brewyardbeercompany.com",
    "state": "California",
    "street": "906 Western Ave"
  },
  {
    "id": "797d3752-6296-481b-882a-d12fe725f83f",
    "name": "Briar Common Brewery",
    "brewery_type": "brewpub",
    "address_1": "2298 N Clay St",
    "address_2": null,
    "address_3": null,
    "city": "Denver",
    "state_province": "Colorado",
    "postal_code": "80211-5122",
    "country": "United States",
    "longitude": null,
    "latitude": null,
    "phone": "7204703731",
    "website_url": "http://www.briarcommon.com",
    "state": "Colorado",
    "street": "2298 N Clay St"
  },
  {
    "id": "c6a922ef-6ab8-4a8a-a5a3-119a9ab17359",
    "name": "BriarBrothers Brewing Company",
    "brewery_type": "micro",
    "address_1": "50 Elk Street",
    "address_2": null,
    "address_3": null,
    "city": "Buffalo",
    "state_province": "New York",
    "postal_code": "14210",
    "country": "United States",
    "longitude": -78.8516267,
    "latitude": 42.8698783,
    "phone": "7162170585",
    "website_url": "https://briarbrothersbrewing.com",
    "state": "New York",
    "street": "50 Elk Street"
  },
  {
    "id": "1c3dbf61-31ac-41fc-a21f-d29b9bb6a663",
    "name": "BriarScratch Brewing",
    "brewery_type": "micro",
    "address_1": "Highway 25",
    "address_2": null,
    "address_3": null,
    "city": "Cottontown",
    "state_province": "Tennessee",
    "postal_code": "37048",
    "country": "United States",
    "longitude": -86.53805,
    "latitude": 36.4514343,
    "phone": "6153191563",
    "website_url": "http://www.briarscratchbrewing.com",
    "state": "Tennessee",
    "street": "Highway 25"
  },
  {
    "id": "943e18a6-f4e8-4651-b49e-1e0967cb687d",
    "name": "Brice's Brewing Company",
    "brewery_type": "micro",
    "address_1": "1822 Garner Station Blvd",
    "address_2": null,
    "address_3": null,
    "city": "Raleigh",
    "state_province": "North Carolina",
    "postal_code": "27603-3643",
    "country": "United States",
    "longitude": -78.65871577,
    "latitude": 35.72493108,
    "phone": "9842001803",
    "website_url": "http://www.bricesbrewing.com",
    "state": "North Carolina",
    "street": "1822 Garner Station Blvd"
  },
  {
    "id": "eb63b691-1cd1-4bae-9ae7-e5d4e20259e5",
    "name": "Brick & Mortar Brewing Company",
    "brewery_type": "micro",
    "address_1": "212 E Washington St",
    "address_2": null,
    "address_3": null,
    "city": "Suffolk",
    "state_province": "Virginia",
    "postal_code": "23434-4514",
    "country": "United States",
    "longitude": -76.57994305,
    "latitude": 36.72740683,
    "phone": "7575331173",
    "website_url": null,
    "state": "Virginia",
    "street": "212 E Washington St"
  },
  {
    "id": "6d20287b-6572-4b77-bb8d-97068a3ba8b1",
    "name": "Brick and Barrel",
    "brewery_type": "micro",
    "address_1": "1844 Columbus Rd",
    "address_2": null,
    "address_3": null,
    "city": "Cleveland",
    "state_province": "Ohio",
    "postal_code": "44113-2412",
    "country": "United States",
    "longitude": -81.7008861,
    "latitude": 41.4895629,
    "phone": "5039270629",
    "website_url": "http://www.brickandbarrelbrewing.com",
    "state": "Ohio",
    "street": "1844 Columbus Rd"
  },
  {
    "id": "776e95e1-cb7b-4a88-89a6-9829bde7a4f2",
    "name": "Brick and Feather Brewery",
    "brewery_type": "micro",
    "address_1": "78 11th St",
    "address_2": null,
    "address_3": null,
    "city": "Turners Falls",
    "state_province": "Massachusetts",
    "postal_code": "01376-1020",
    "country": "United States",
    "longitude": null,
    "latitude": null,
    "phone": "4138632574",
    "website_url": "http://www.brickandfeatherbrewery.com",
    "state": "Massachusetts",
    "street": "78 11th St"
  },
  {
    "id": "41bd989c-397a-4327-9d06-b6ebd0428261",
    "name": "Brick House Brewery and Restaurant",
    "brewery_type": "brewpub",
    "address_1": "67 W Main St",
    "address_2": null,
    "address_3": null,
    "city": "Patchogue",
    "state_province": "New York",
    "postal_code": "11772-3001",
    "country": "United States",
    "longitude": -73.01556054,
    "latitude": 40.7657941,
    "phone": "6314472337",
    "website_url": "http://www.brickhousebrewery.com",
    "state": "New York",
    "street": "67 W Main St"
  },
  {
    "id": "5db17581-4733-49e0-ac36-d6df692948de",
    "name": "Brick Oven Pizza Co / Brick & Forge Brewing",
    "brewery_type": "brewpub",
    "address_1": "814 US-62",
    "address_2": null,
    "address_3": null,
    "city": "Harrison",
    "state_province": "Arkansas",
    "postal_code": "72601",
    "country": "United States",
    "longitude": null,
    "latitude": null,
    "phone": "8702364200",
    "website_url": null,
    "state": "Arkansas",
    "street": "814 US-62"
  },
  {
    "id": "0bc7e210-353b-4a28-a801-58028431f2bc",
    "name": "Brick Oven Pizza Co / Brick & Forge Brewing",
    "brewery_type": "brewpub",
    "address_1": "2410 Linwood Dr",
    "address_2": null,
    "address_3": null,
    "city": "Paragould",
    "state_province": "Arkansas",
    "postal_code": "72450-6122",
    "country": "United States",
    "longitude": -90.52047972,
    "latitude": 36.03163581,
    "phone": "8702364200",
    "website_url": "http://www.brickovenpizzacompany.com",
    "state": "Arkansas",
    "street": "2410 Linwood Dr"
  },
  {
    "id": "505fb24a-cf9f-4668-845c-6a7533b2f7a5",
    "name": "Brick Oven Pizza Co/ Brick & Forge Brewing",
    "brewery_type": "brewpub",
    "address_1": "4714 S 14th St",
    "address_2": null,
    "address_3": null,
    "city": "Abilene",
    "state_province": "Texas",
    "postal_code": "79605-4733",
    "country": "United States",
    "longitude": -99.78335777,
    "latitude": 32.42968055,
    "phone": "8702364200",
    "website_url": null,
    "state": "Texas",
    "street": "4714 S 14th St"
  },
  {
    "id": "8652536e-e81b-446d-bd70-a7ed43b8898a",
    "name": "Brick Vault Brewery & BBQ",
    "brewery_type": "brewpub",
    "address_1": "102 NW 1st St Highway 90W",
    "address_2": null,
    "address_3": null,
    "city": "Marathon",
    "state_province": "Texas",
    "postal_code": "79842",
    "country": "United States",
    "longitude": null,
    "latitude": null,
    "phone": "4323864205",
    "website_url": "http://www.gagehotel.com",
    "state": "Texas",
    "street": "102 NW 1st St Highway 90W"
  },
  {
    "id": "fa8b32bf-0499-4fdb-990e-a2b1d1fead6c",
    "name": "Brick West Brewing Co",
    "brewery_type": "micro",
    "address_1": "1318 W 1st Ave",
    "address_2": null,
    "address_3": null,
    "city": "Spokane",
    "state_province": "Washington",
    "postal_code": "99201",
    "country": "United States",
    "longitude": -117.4318785,
    "latitude": 47.65762329,
    "phone": "5092792982",
    "website_url": "https://www.brickwestbrewingco.com",
    "state": "Washington",
    "street": "1318 W 1st Ave"
  },
  {
    "id": "f86a5689-c7fb-4cf8-9966-053f968d65f3",
    "name": "Brick Works Brewing and Eats",
    "brewery_type": "brewpub",
    "address_1": "230 S Dupont Blvd",
    "address_2": null,
    "address_3": null,
    "city": "Smyrna",
    "state_province": "Delaware",
    "postal_code": "19977-1573",
    "country": "United States",
    "longitude": -75.60080124,
    "latitude": 39.29825995,
    "phone": "3025082523",
    "website_url": "http://www.brickworksde.com",
    "state": "Delaware",
    "street": "230 S Dupont Blvd"
  },
  {
    "id": "3a4d9601-a590-40f3-b6ba-5551188fd6b3",
    "name": "BrickHaven Brewing Company",
    "brewery_type": "micro",
    "address_1": "200 E Jefferson St",
    "address_2": null,
    "address_3": null,
    "city": "Grand Ledge",
    "state_province": "Michigan",
    "postal_code": "48837-1537",
    "country": "United States",
    "longitude": -84.745273,
    "latitude": 42.752301,
    "phone": "5179251319",
    "website_url": null,
    "state": "Michigan",
    "street": "200 E Jefferson St"
  },
  {
    "id": "c1923f43-b220-46ec-aa43-0a93cb4ebd07",
    "name": "Brickhouse Restaurant and Brewery",
    "brewery_type": "brewpub",
    "address_1": "241 Union Square",
    "address_2": null,
    "address_3": null,
    "city": "Milford",
    "state_province": "New Hampshire",
    "postal_code": "03055",
    "country": "United States",
    "longitude": null,
    "latitude": null,
    "phone": "6036722270",
    "website_url": null,
    "state": "New Hampshire",
    "street": "241 Union Square"
  },
  {
    "id": "df1088cc-00ba-4947-8239-a4b7ddcfb966",
    "name": "Brickside Brewery",
    "brewery_type": "micro",
    "address_1": "64 Gratiot Street",
    "address_2": null,
    "address_3": null,
    "city": "Copper Harbor",
    "state_province": "Michigan",
    "postal_code": "49918",
    "country": "United States",
    "longitude": null,
    "latitude": null,
    "phone": "9062894772",
    "website_url": "http://www.bricksidebrewery.com",
    "state": "Michigan",
    "street": "64 Gratiot Street"
  },
  {
    "id": "567ae586-5467-47bb-8ef1-9fdad82f5647",
    "name": "BrickStone Brewery",
    "brewery_type": "micro",
    "address_1": "572 Brewery Ln",
    "address_2": null,
    "address_3": null,
    "city": "Bourbonnais",
    "state_province": "Illinois",
    "postal_code": "60914-2196",
    "country": "United States",
    "longitude": null,
    "latitude": null,
    "phone": "8159369277",
    "website_url": null,
    "state": "Illinois",
    "street": "572 Brewery Ln"
  },
  {
    "id": "2c0d7a26-0890-40f6-8f9e-7b3bb1975f68",
    "name": "BrickStone Brewery Brewpub",
    "brewery_type": "brewpub",
    "address_1": "557 William Latham Dr",
    "address_2": null,
    "address_3": null,
    "city": "Bourbonnais",
    "state_province": "Illinois",
    "postal_code": "60914-2319",
    "country": "United States",
    "longitude": -87.881654,
    "latitude": 41.162675,
    "phone": "8159369277",
    "website_url": "http://www.brickstonebrewery.com",
    "state": "Illinois",
    "street": "557 William Latham Dr"
  },
  {
    "id": "1d7e7d19-91e3-4752-9fb0-9454fad1aff8",
    "name": "Bricktown Brewery",
    "brewery_type": "brewpub",
    "address_1": "1 Remington Pl",
    "address_2": null,
    "address_3": null,
    "city": "Oklahoma City",
    "state_province": "Oklahoma",
    "postal_code": "73111",
    "country": "United States",
    "longitude": -97.471261,
    "latitude": 35.5277209,
    "phone": "4054194449",
    "website_url": "http://www.bricktownbrewery.com",
    "state": "Oklahoma",
    "street": "1 Remington Pl"
  },
  {
    "id": "4468dae2-ef14-4570-af79-812226eaabd1",
    "name": "Bricktown Brewery",
    "brewery_type": "brewpub",
    "address_1": "1 N Oklahoma Ave",
    "address_2": null,
    "address_3": null,
    "city": "Oklahoma City",
    "state_province": "Oklahoma",
    "postal_code": "73104-2413",
    "country": "United States",
    "longitude": -97.510181,
    "latitude": 35.567702,
    "phone": "4052322739",
    "website_url": "http://www.bricktownbrewery.com",
    "state": "Oklahoma",
    "street": "1 N Oklahoma Ave"
  },
  {
    "id": "433a8b85-87b2-4b73-87c9-c2c35570a544",
    "name": "Bricktowne Brewing Co",
    "brewery_type": "brewpub",
    "address_1": "111 E 8th St",
    "address_2": null,
    "address_3": null,
    "city": "Medford",
    "state_province": "Oregon",
    "postal_code": "97501-7201",
    "country": "United States",
    "longitude": -122.8721525,
    "latitude": 42.32544541,
    "phone": "5419732377",
    "website_url": "http://www.bricktownebeer.com",
    "state": "Oregon",
    "street": "111 E 8th St"
  },
  {
    "id": "77565858-e764-4dfd-9657-1a21fc5f7eb5",
    "name": "Brickway Brewery and Distillery",
    "brewery_type": "micro",
    "address_1": "1116 Jackson St",
    "address_2": null,
    "address_3": null,
    "city": "Omaha",
    "state_province": "Nebraska",
    "postal_code": "68102-2825",
    "country": "United States",
    "longitude": -95.93090524,
    "latitude": 41.25449082,
    "phone": "4029332613",
    "website_url": "http://www.drinkbrickway.com",
    "state": "Nebraska",
    "street": "1116 Jackson St"
  },
  {
    "id": "e3b138f0-4abd-4e23-b04d-4aac36e1c63d",
    "name": "Brickyard Brewing Company",
    "brewery_type": "brewpub",
    "address_1": "436 Center St",
    "address_2": null,
    "address_3": null,
    "city": "Lewiston",
    "state_province": "New York",
    "postal_code": "14092-1604",
    "country": "United States",
    "longitude": -79.04306419,
    "latitude": 43.1729222,
    "phone": "7167547227",
    "website_url": "http://www.brickyardbrewingcompany.com",
    "state": "New York",
    "street": "436 Center St"
  }
]