[
  {
    "id": "6c8aafd9-6e4a-4f1d-9dc0-a5e4cb710dce",
    "name": "Ancient City Brewing Co.",
    "brewery_type": "micro",
    "address_1": "3420 Agricultural Center Dr Ste 8",
    "address_2": null,
    "address_3": null,
    "city": "Saint Augustine",
    "state_province": "Florida",
    "postal_code": "32092-0690",
    "country": "United States",
    "longitude": null,
    "latitude": null,
    "phone": "9044299654",
    "website_url": "http://www.ancientcitybrewing.com",
    "state": "Florida",
    "street": "3420 Agricultural Center Dr Ste 8"
  },
  {
    "id": "032a363c-447b-495a-bfed-814201b877c0",
    "name": "Andean Brewing",
    "brewery_type": "micro",
    "address_1": "300 Corporate Dr Ste 2",
    "address_2": null,
    "address_3": null,
    "city": "Blauvelt",
    "state_province": "New York",
    "postal_code": "10913-1162",
    "country": "United States",
    "longitude": null,
    "latitude": null,
    "phone": "6464505852",
    "website_url": null,
    "state": "New York",
    "street": "300 Corporate Dr Ste 2"
  },
  {
    "id": "1d690623-2a47-4bb2-aecb-08f51a8ef390",
    "name": "Anders Browar",
    "brewery_type": "brewpub",
    "address_1": "Broniewskiego 33",
    "address_2": null,
    "address_3": null,
    "city": "Syc\u00f3w",
    "state_province": "dolno\u015bl\u0105skie",
    "postal_code": "56-500",
    "country": "Poland",
    "longitude": 17.7046519,
    "latitude": 51.3044034,
    "phone": null,
    "website_url": null,
    "state": "dolno\u015bl\u0105skie",
    "street": "Broniewskiego 33"
  },
  {
    "id": "55bbdf14-e891-4572-9ed2-9c6bf25edda9",
    "name": "Anderson Valley Brewing Co",
    "brewery_type": "regional",
    "address_1": "17700 CA-253",
    "address_2": null,
    "address_3": null,
    "city": "Boonville",
    "state_province": "California",
    "postal_code": "95415",
    "country": "United States",
    "longitude": -123.3560542,
    "latitude": 39.00141731,
    "phone": "7078952337",
    "website_url": "http://www.avbc.com",
    "state": "California",
    "street": "17700 CA-253"
  },
  {
    "id": "adb4eef2-cd2f-4664-9912-c58890711b30",
    "name": "Andrews Brewing Co",
    "brewery_type": "micro",
    "address_1": "353 High St",
    "address_2": null,
    "address_3": null,
    "city": "Lincolnville",
    "state_province": "Maine",
    "postal_code": "04849-5846",
    "country": "United States",
    "longitude": null,
    "latitude": null,
    "phone": "2077633305",
    "website_url": null,
    "state": "Maine",
    "street": "353 High St"
  },
  {
    "id": "bd12815b-aceb-485f-9070-e37b03bbcbb4",
    "name": "Andrews Brewing Co At Calaboose Cellars",
    "brewery_type": "micro",
    "address_1": "575 Aquone Rd",
    "address_2": null,
    "address_3": null,
    "city": "Andrews",
    "state_province": "North Carolina",
    "postal_code": "28901-7004",
    "country": "United States",
    "longitude": -83.81487799,
    "latitude": 35.19958164,
    "phone": "8283212006",
    "website_url": "http://www.calaboosecellars.com",
    "state": "North Carolina",
    "street": "575 Aquone Rd"
  },
  {
    "id": "be95afe2-de19-4b3b-8c83-a24ac9cd4aa7",
    "name": "Angel City Brewery",
    "brewery_type": "micro",
    "address_1": "216 S Alameda St",
    "address_2": null,
    "address_3": null,
    "city": "Los Angeles",
    "state_province": "California",
    "postal_code": "90012-4201",
    "country": "United States",
    "longitude": -118.237715,
    "latitude": 34.04627065,
    "phone": "2136221261",
    "website_url": "http://www.angelcitybrewery.com",
    "state": "California",
    "street": "216 S Alameda St"
  },
  {
    "id": "a7e8257d-956d-46ca-81f4-33d1b6a13fc8",
    "name": "Angelina Brewing Company, LLC.",
    "brewery_type": "planning",
    "address_1": null,
    "address_2": null,
    "address_3": null,
    "city": "Lufkin",
    "state_province": "Texas",
    "postal_code": "75904-7550",
    "country": "United States",
    "longitude": null,
    "latitude": null,
    "phone": "3168419327",
    "website_url": null,
    "state": "Texas",
    "street": null
  },
  {
    "id": "d4e376b6-3aad-46ae-ae8d-471791ae03f8",
    "name": "Angry Chair Brewing, LLC.",
    "brewery_type": "micro",
    "address_1": "6401 N Florida Ave",
    "address_2": null,
    "address_3": null,
    "city": "Tampa",
    "state_province": "Florida",
    "postal_code": "33604-6007",
    "country": "United States",
    "longitude": -82.459381,
    "latitude": 28.005127,
    "phone": "8138921651",
    "website_url": "http://www.angrychairbrewing.com",
    "state": "Florida",
    "street": "6401 N Florida Ave"
  },
  {
    "id": "67616802-40bf-435e-8824-598bbf20e054",
    "name": "Angry Erik Brewing",
    "brewery_type": "micro",
    "address_1": "10 Millpond Dr Unit 8",
    "address_2": null,
    "address_3": null,
    "city": "Lafayette",
    "state_province": "New Jersey",
    "postal_code": "07848-3825",
    "country": "United States",
    "longitude": null,
    "latitude": null,
    "phone": "8624329003",
    "website_url": "http://www.angryerik.com",
    "state": "New Jersey",
    "street": "10 Millpond Dr Unit 8"
  },
  {
    "id": "8dc5e687-be97-44c3-ae27-9b0818d48471",
    "name": "Angry Fish Brewing Company",
    "brewery_type": "micro",
    "address_1": "106 Fabrister Ln Ste C",
    "address_2": null,
    "address_3": null,
    "city": "Lexington",
    "state_province": "South Carolina",
    "postal_code": "29072",
    "country": "United States",
    "longitude": null,
    "latitude": null,
    "phone": "8035707470",
    "website_url": "http://angryfishbewingco.com",
    "state": "South Carolina",
    "street": "106 Fabrister Ln Ste C"
  },
  {
    "id": "40ecc96b-6dea-4e6b-a8f0-55293970654b",
    "name": "Angry Hank's Microbrewery",
    "brewery_type": "micro",
    "address_1": "20 N 30th St",
    "address_2": null,
    "address_3": null,
    "city": "Billings",
    "state_province": "Montana",
    "postal_code": "59101-2140",
    "country": "United States",
    "longitude": -108.5076025,
    "latitude": 45.78022173,
    "phone": "4062523370",
    "website_url": null,
    "state": "Montana",
    "street": "20 N 30th St"
  },
  {
    "id": "5d0bfbaa-e738-4d5b-a68e-5cfea2116197",
    "name": "Angry Horse Brewing",
    "brewery_type": "micro",
    "address_1": "603 W Whittier Blvd",
    "address_2": null,
    "address_3": null,
    "city": "Montebello",
    "state_province": "California",
    "postal_code": "90640-5235",
    "country": "United States",
    "longitude": -118.1003743,
    "latitude": 34.0084152,
    "phone": "3235300015",
    "website_url": "http://angryhorsebrewing.com",
    "state": "California",
    "street": "603 W Whittier Blvd"
  },
  {
    "id": "4f22a5e8-e8e0-471b-8070-888584fc446a",
    "name": "Angry Inch Brewing",
    "brewery_type": "micro",
    "address_1": "20841 Holyoke Ave",
    "address_2": null,
    "address_3": null,
    "city": "Lakeville",
    "state_province": "Minnesota",
    "postal_code": "55044-",
    "country": "United States",
    "longitude": -93.2432718,
    "latitude": 44.6476022,
    "phone": null,
    "website_url": "http://www.angryinchbrewing.com",
    "state": "Minnesota",
    "street": "20841 Holyoke Ave"
  },
  {
    "id": "c9b30f6c-608f-4762-b041-c4c91e8aeba2",
    "name": "Angry James Brewing Co",
    "brewery_type": "micro",
    "address_1": "421 Adams Ave",
    "address_2": null,
    "address_3": null,
    "city": "Silverthorne",
    "state_province": "Colorado",
    "postal_code": "80498",
    "country": "United States",
    "longitude": -106.0764637,
    "latitude": 39.63306895,
    "phone": "9704558800",
    "website_url": "http://www.angryjamesbrewing.com",
    "state": "Colorado",
    "street": "421 Adams Ave"
  },
  {
    "id": "64b090eb-64c7-4dc2-9799-d0420b517169",
    "name": "Angry Minnow Brewery",
    "brewery_type": "brewpub",
    "address_1": "10440 Florida Ave",
    "address_2": null,
    "address_3": null,
    "city": "Hayward",
    "state_province": "Wisconsin",
    "postal_code": "54843-7112",
    "country": "United States",
    "longitude": -91.4887672,
    "latitude": 46.0104853,
    "phone": "7159343055",
    "website_url": "http://www.angryminnow.com",
    "state": "Wisconsin",
    "street": "10440 Florida Ave"
  },
  {
    "id": "3929eda4-926c-46cd-ab20-cb5c9e6f7caf",
    "name": "Angry Scotsman Brewing",
    "brewery_type": "contract",
    "address_1": "704 W Reno Ave",
    "address_2": null,
    "address_3": null,
    "city": "Oklahoma City",
    "state_province": "Oklahoma",
    "postal_code": "73102-2434",
    "country": "United States",
    "longitude": -97.6002769,
    "latitude": 35.4644206,
    "phone": "4056737713",
    "website_url": "http://www.angryscotbrew.com",
    "state": "Oklahoma",
    "street": "704 W Reno Ave"
  },
  {
    "id": "fa4da286-e9a3-4d00-ab49-8e5f027f76d5",
    "name": "Angry Troll Brewing / 222 Public House",
    "brewery_type": "brewpub",
    "address_1": "222 E Main St Ste U2",
    "address_2": null,
    "address_3": null,
    "city": "Elkin",
    "state_province": "North Carolina",
    "postal_code": "28621-3493",
    "country": "United States",
    "longitude": null,
    "latitude": null,
    "phone": "3362582251",
    "website_url": "http://www.angrytrollbrewing.com",
    "state": "North Carolina",
    "street": "222 E Main St Ste U2"
  },
  {
    "id": "d1a61260-d377-4e7d-8ce9-8851e30934ae",
    "name": "Anheuser-Busch InBev",
    "brewery_type": "large",
    "address_1": "1 Busch Pl",
    "address_2": null,
    "address_3": null,
    "city": "Saint Louis",
    "state_province": "Missouri",
    "postal_code": "63118-1849",
    "country": "United States",
    "longitude": -90.2118998,
    "latitude": 38.5954536,
    "phone": "3145772000",
    "website_url": "http://www.anheuser-busch.com",
    "state": "Missouri",
    "street": "1 Busch Pl"
  },
  {
    "id": "12bc86df-c66b-4fb9-9f84-5bb405ccb8b1",
    "name": "Anheuser-Busch Inc - Fort Collins",
    "brewery_type": "large",
    "address_1": "2351 Busch Dr",
    "address_2": null,
    "address_3": null,
    "city": "Fort Collins",
    "state_province": "Colorado",
    "postal_code": "80524-9400",
    "country": "United States",
    "longitude": -105.0019686,
    "latitude": 40.61817811,
    "phone": "9704904500",
    "website_url": null,
    "state": "Colorado",
    "street": "2351 Busch Dr"
  },
  {
    "id": "7d78f227-f2c5-4830-abb5-28a209de235d",
    "name": "Anheuser-Busch Inc - Los Angeles",
    "brewery_type": "large",
    "address_1": "15800 Roscoe Blvd",
    "address_2": null,
    "address_3": null,
    "city": "Van Nuys",
    "state_province": "California",
    "postal_code": "91406-1350",
    "country": "United States",
    "longitude": -118.4721072,
    "latitude": 34.2213918,
    "phone": "8189895300",
    "website_url": null,
    "state": "California",
    "street": "15800 Roscoe Blvd"
  },
  {
    "id": "baec5c2d-a983-49e0-beb9-ca55879d4139",
    "name": "Anheuser-Busch Inc \u00e2\u0080\u0093 Baldwinsville",
    "brewery_type": "large",
    "address_1": "2885 Belgium Rd",
    "address_2": null,
    "address_3": null,
    "city": "Baldwinsville",
    "state_province": "New York",
    "postal_code": "13027-2706",
    "country": "United States",
    "longitude": -76.31159343,
    "latitude": 43.16510925,
    "phone": "3156354000",
    "website_url": null,
    "state": "New York",
    "street": "2885 Belgium Rd"
  },
  {
    "id": "6599a1de-d497-4e4f-bf3d-16d5065fefec",
    "name": "Anheuser-Busch Inc \u00e2\u0080\u0093 Cartersville",
    "brewery_type": "large",
    "address_1": "100 Busch Dr NE",
    "address_2": null,
    "address_3": null,
    "city": "Cartersville",
    "state_province": "Georgia",
    "postal_code": "30121-7217",
    "country": "United States",
    "longitude": null,
    "latitude": null,
    "phone": "7703862000",
    "website_url": null,
    "state": "Georgia",
    "street": "100 Busch Dr NE"
  },
  {
    "id": "2360f91c-60cb-402c-ad58-3eb638859f4c",
    "name": "Anheuser-Busch Inc \u00e2\u0080\u0093 Columbus",
    "brewery_type": "large",
    "address_1": "700 Schrock Rd",
    "address_2": null,
    "address_3": null,
    "city": "Columbus",
    "state_province": "Ohio",
    "postal_code": "43229-1123",
    "country": "United States",
    "longitude": -82.99307,
    "latitude": 40.102197,
    "phone": "6148886644",
    "website_url": null,
    "state": "Ohio",
    "street": "700 Schrock Rd"
  },
  {
    "id": "2f7efc38-d4fd-47fc-bc1e-4b506fb6e66c",
    "name": "Anheuser-Busch Inc \u00e2\u0080\u0093 Fairfield",
    "brewery_type": "large",
    "address_1": "3101 Busch Dr",
    "address_2": null,
    "address_3": null,
    "city": "Fairfield",
    "state_province": "California",
    "postal_code": "94534-9726",
    "country": "United States",
    "longitude": -122.0902992,
    "latitude": 38.2365838,
    "phone": "7074292000",
    "website_url": null,
    "state": "California",
    "street": "3101 Busch Dr"
  },
  {
    "id": "34dd23fd-b208-4a7b-b4d2-3488b20e618f",
    "name": "Anheuser-Busch Inc \u00e2\u0080\u0093 Houston",
    "brewery_type": "large",
    "address_1": "775 Gellhorn Dr",
    "address_2": null,
    "address_3": null,
    "city": "Houston",
    "state_province": "Texas",
    "postal_code": "77029-1496",
    "country": "United States",
    "longitude": -95.27130674,
    "latitude": 29.771858,
    "phone": "7136752311",
    "website_url": null,
    "state": "Texas",
    "street": "775 Gellhorn Dr"
  },
  {
    "id": "a7e9194f-28a7-4fb8-85fb-38ee669b66e6",
    "name": "Anheuser-Busch Inc \u00e2\u0080\u0093 Jacksonville",
    "brewery_type": "large",
    "address_1": "111 Busch Dr",
    "address_2": null,
    "address_3": null,
    "city": "Jacksonville",
    "state_province": "Florida",
    "postal_code": "32218-5546",
    "country": "United States",
    "longitude": -81.6481156,
    "latitude": 30.4319552,
    "phone": "9047510700",
    "website_url": null,
    "state": "Florida",
    "street": "111 Busch Dr"
  },
  {
    "id": "c1e8a479-5371-44bb-a952-b76b60997a9e",
    "name": "Anheuser-Busch Inc \u00e2\u0080\u0093 Merrimack",
    "brewery_type": "large",
    "address_1": "221 Daniel Webster Hwy",
    "address_2": null,
    "address_3": null,
    "city": "Merrimack",
    "state_province": "New Hampshire",
    "postal_code": "03054-4807",
    "country": "United States",
    "longitude": -71.48598162,
    "latitude": 42.8253635,
    "phone": "6038896631",
    "website_url": null,
    "state": "New Hampshire",
    "street": "221 Daniel Webster Hwy"
  },
  {
    "id": "5486bf95-fcc8-4829-854f-2cc5779e7212",
    "name": "Anheuser-Busch Inc \u00e2\u0080\u0093 Newark",
    "brewery_type": "large",
    "address_1": "200 US Highway 1",
    "address_2": null,
    "address_3": null,
    "city": "Newark",
    "state_province": "New Jersey",
    "postal_code": "07114-2298",
    "country": "United States",
    "longitude": null,
    "latitude": null,
    "phone": "9736457700",
    "website_url": "http://www.anheuser-busch.com",
    "state": "New Jersey",
    "street": "200 US Highway 1"
  },
  {
    "id": "277a6d32-7f94-4a94-ad41-ad7f4ce8ce1c",
    "name": "Anheuser-Busch Inc \u0322\ufffd\ufffd\ufffd\ufffd Williamsburg",
    "brewery_type": "large",
    "address_1": "7801 Pocahontas Trl",
    "address_2": null,
    "address_3": null,
    "city": "Williamsburg",
    "state_province": "Virginia",
    "postal_code": "23185-6302",
    "country": "United States",
    "longitude": -76.6798988,
    "latitude": 37.2652889,
    "phone": "7572533600",
    "website_url": "http://www.anheuser-busch.com",
    "state": "Virginia",
    "street": "7801 Pocahontas Trl"
  },
  {
    "id": "c498dd04-30b2-4f8f-b06b-c47a34dd61c7",
    "name": "Animas Brewing Co",
    "brewery_type": "brewpub",
    "address_1": "1560 E 2nd Ave",
    "address_2": null,
    "address_3": null,
    "city": "Durango",
    "state_province": "Colorado",
    "postal_code": "81301-5186",
    "country": "United States",
    "longitude": -107.8769912,
    "latitude": 37.27997215,
    "phone": "9704038850",
    "website_url": "http://www.animasbrewing.com",
    "state": "Colorado",
    "street": "1560 E 2nd Ave"
  },
  {
    "id": "236cb5e3-d827-453a-a3a4-5a4d59d87adf",
    "name": "Ankrolab Brewing Company",
    "brewery_type": "planning",
    "address_1": null,
    "address_2": null,
    "address_3": null,
    "city": "Naples",
    "state_province": "Florida",
    "postal_code": "34112-6363",
    "country": "United States",
    "longitude": null,
    "latitude": null,
    "phone": "2394511223",
    "website_url": "http://ankrolab.com",
    "state": "Florida",
    "street": null
  },
  {
    "id": "b26623c7-5291-4492-b876-66c2d970c275",
    "name": "Another Round Brewing Co",
    "brewery_type": "micro",
    "address_1": "745 N Grand Ave",
    "address_2": null,
    "address_3": null,
    "city": "Pullman",
    "state_province": "Washington",
    "postal_code": "99163-3151",
    "country": "United States",
    "longitude": -117.175392,
    "latitude": 46.736755,
    "phone": "9164757580",
    "website_url": "https://anotherroundbrewery.com",
    "state": "Washington",
    "street": "745 N Grand Ave"
  },
  {
    "id": "f95b4c37-7d9c-4bcb-8958-31c352cd1cab",
    "name": "Anthem Brewing Co",
    "brewery_type": "micro",
    "address_1": "908 SW 4th St",
    "address_2": null,
    "address_3": null,
    "city": "Oklahoma City",
    "state_province": "Oklahoma",
    "postal_code": "73109-1012",
    "country": "United States",
    "longitude": -97.5279236,
    "latitude": 35.46099673,
    "phone": "4056040446",
    "website_url": "http://www.anthembrewing.com",
    "state": "Oklahoma",
    "street": "908 SW 4th St"
  },
  {
    "id": "9379b79b-63c2-4ce3-9605-f499f7915f7e",
    "name": "Antietam Brewery,LLC",
    "brewery_type": "micro",
    "address_1": "140 Western Maryland Pkwy Unit G",
    "address_2": null,
    "address_3": null,
    "city": "Hagerstown",
    "state_province": "Maryland",
    "postal_code": "21740-5197",
    "country": "United States",
    "longitude": null,
    "latitude": null,
    "phone": "3017915915",
    "website_url": "http://www.antietambrewery.com",
    "state": "Maryland",
    "street": "140 Western Maryland Pkwy Unit G"
  },
  {
    "id": "1c215e2f-7a58-46ce-88cc-241bd3d39482",
    "name": "Antiques on High",
    "brewery_type": "micro",
    "address_1": "714 S High St",
    "address_2": null,
    "address_3": null,
    "city": "Columbus",
    "state_province": "Ohio",
    "postal_code": "43206",
    "country": "United States",
    "longitude": -82.99774,
    "latitude": 39.9476,
    "phone": "614-725-2070",
    "website_url": "https://www.antiquesonhigh.com/",
    "state": "Ohio",
    "street": "714 S High St"
  },
  {
    "id": "26a850f9-f796-427c-810d-84b4ae08dfbb",
    "name": "Anvil Brewing",
    "brewery_type": "brewpub",
    "address_1": "115 S. Compress St",
    "address_2": null,
    "address_3": null,
    "city": "Pittsburg",
    "state_province": "Texas",
    "postal_code": "75686-1353",
    "country": "United States",
    "longitude": null,
    "latitude": null,
    "phone": "9039267741",
    "website_url": "http://www.anvilbrewingtx.com",
    "state": "Texas",
    "street": "115 S. Compress St"
  },
  {
    "id": "625f2c38-c681-4d85-b4b6-2e5ee25d79a9",
    "name": "APE BREWING",
    "brewery_type": "brewpub",
    "address_1": "2-1-15 Kawaramachi Kawaramachi Daito Building 1F",
    "address_2": null,
    "address_3": null,
    "city": "Osaka",
    "state_province": "Osaka",
    "postal_code": "541-0048 ",
    "country": "Japan",
    "longitude": 135.5076625,
    "latitude": 34.68696137,
    "phone": "81676619443",
    "website_url": "https://www.instagram.com/ape_brewing",
    "state": "Osaka",
    "street": "2-1-15 Kawaramachi Kawaramachi Daito Building 1F"
  },
  {
    "id": "6d598adb-bca7-42d8-99b6-4f2074bc8aee",
    "name": "APEShip Brewing",
    "brewery_type": "micro",
    "address_1": "520 N Dewey St",
    "address_2": null,
    "address_3": null,
    "city": "North Platte",
    "state_province": "Nebraska",
    "postal_code": "69101-3913",
    "country": "United States",
    "longitude": -100.75354430575,
    "latitude": 41.181566260787,
    "phone": "3085689433",
    "website_url": "https://apeshipbrewing.com",
    "state": "Nebraska",
    "street": "520 N Dewey St"
  },
  {
    "id": "e61dc891-91d8-4a0f-a55e-b5e34acc97fd",
    "name": "Apex Aleworks Brew And BBQ Supplies",
    "brewery_type": "micro",
    "address_1": "4360 S Noland Rd",
    "address_2": null,
    "address_3": null,
    "city": "Independence",
    "state_province": "Missouri",
    "postal_code": "64055-4741",
    "country": "United States",
    "longitude": -94.416872,
    "latitude": 39.041039,
    "phone": "8163135039",
    "website_url": "http://www.apexaleworks.com",
    "state": "Missouri",
    "street": "4360 S Noland Rd"
  },
  {
    "id": "e15991e7-755b-465a-9d39-0f850305e900",
    "name": "Apex Brewery",
    "brewery_type": "micro",
    "address_1": "405 State Route 17M Monroe, NY 10950",
    "address_2": null,
    "address_3": null,
    "city": "Monroe",
    "state_province": "New York",
    "postal_code": "19050",
    "country": "United States",
    "longitude": -74.1730176,
    "latitude": 41.3165152,
    "phone": "845-202-3498",
    "website_url": "https://apexbrews.com",
    "state": "New York",
    "street": "405 State Route 17M Monroe, NY 10950"
  },
  {
    "id": "98f2d2a5-5f1d-494c-b920-c50d6761b62e",
    "name": "Apocalypse Ale Works",
    "brewery_type": "micro",
    "address_1": "1257 Burnbridge Rd",
    "address_2": null,
    "address_3": null,
    "city": "Forest",
    "state_province": "Virginia",
    "postal_code": "24551-3803",
    "country": "United States",
    "longitude": -79.28917899,
    "latitude": 37.36302124,
    "phone": "4342588761",
    "website_url": "http://www.apocalypsebrewworks.com",
    "state": "Virginia",
    "street": "1257 Burnbridge Rd"
  },
  {
    "id": "b622e216-d777-41c0-a795-bb901d31a555",
    "name": "Apocalypse Brew Works",
    "brewery_type": "micro",
    "address_1": "1612 Mellwood Ave",
    "address_2": null,
    "address_3": null,
    "city": "Louisville",
    "state_province": "Kentucky",
    "postal_code": "40206-1752",
    "country": "United States",
    "longitude": -85.72031443,
    "latitude": 38.2566442,
    "phone": "5025894843",
    "website_url": "http://www.apocalypsebrewworks.com",
    "state": "Kentucky",
    "street": "1612 Mellwood Ave"
  },
  {
    "id": "855b2e6e-9fa0-40da-bcba-343bef14d556",
    "name": "Appalachian Brewing Co - Collegeville",
    "brewery_type": "brewpub",
    "address_1": "50 W Third Ave Collegeville Station 2nd Floor",
    "address_2": null,
    "address_3": null,
    "city": "Collegeville",
    "state_province": "Pennsylvania",
    "postal_code": "19426-3655",
    "country": "United States",
    "longitude": null,
    "latitude": null,
    "phone": "4849736064",
    "website_url": "http://www.abcbrew.com",
    "state": "Pennsylvania",
    "street": "50 W Third Ave Collegeville Station 2nd Floor"
  },
  {
    "id": "cb55778e-fc31-4634-b56f-570961484c8d",
    "name": "Appalachian Brewing Co - Gettysburg Gateway",
    "brewery_type": "brewpub",
    "address_1": "70 Presidential Cir",
    "address_2": null,
    "address_3": null,
    "city": "Gettysburg",
    "state_province": "Pennsylvania",
    "postal_code": "17325-8399",
    "country": "United States",
    "longitude": null,
    "latitude": null,
    "phone": "7173982419",
    "website_url": "http://www.abcbrew.com",
    "state": "Pennsylvania",
    "street": "70 Presidential Cir"
  },
  {
    "id": "48fd38a6-736f-4e76-b69a-8642d82c67df",
    "name": "Appalachian Brewing Co - Harrisburg",
    "brewery_type": "brewpub",
    "address_1": "50 N Cameron St",
    "address_2": null,
    "address_3": null,
    "city": "Harrisburg",
    "state_province": "Pennsylvania",
    "postal_code": "17101-2407",
    "country": "United States",
    "longitude": -76.8816961,
    "latitude": 40.291059,
    "phone": "7172211080",
    "website_url": "http://www.abcbrew.com",
    "state": "Pennsylvania",
    "street": "50 N Cameron St"
  },
  {
    "id": "dddd1391-58ad-4a74-bd0d-93997ccaf17d",
    "name": "Appalachian Brewing Co - Lititz",
    "brewery_type": "brewpub",
    "address_1": "55 N Water St",
    "address_2": null,
    "address_3": null,
    "city": "Lititz",
    "state_province": "Pennsylvania",
    "postal_code": "17543-1612",
    "country": "United States",
    "longitude": -76.30100986,
    "latitude": 40.15827375,
    "phone": "7172211080",
    "website_url": "http://www.abcbrew.com",
    "state": "Pennsylvania",
    "street": "55 N Water St"
  },
  {
    "id": "19693f1b-962f-4b88-8d53-7faf3e176208",
    "name": "Appalachian Brewing Co - Mechanicsburg",
    "brewery_type": "brewpub",
    "address_1": "6462 Carlisle Pike",
    "address_2": null,
    "address_3": null,
    "city": "Mechanicsburg",
    "state_province": "Pennsylvania",
    "postal_code": "17050-2384",
    "country": "United States",
    "longitude": null,
    "latitude": null,
    "phone": "7177954660",
    "website_url": "http://www.abcbrew.com",
    "state": "Pennsylvania",
    "street": "6462 Carlisle Pike"
  },
  {
    "id": "5b127f6a-3364-4588-b5ad-f7953fc6ee54",
    "name": "Appalachian Mountain Brewery - Boone",
    "brewery_type": "micro",
    "address_1": "163 Boone Creek Dr",
    "address_2": null,
    "address_3": null,
    "city": "Boone",
    "state_province": "North Carolina",
    "postal_code": "28607-7911",
    "country": "United States",
    "longitude": -81.668461,
    "latitude": 36.2033414,
    "phone": "8282631111",
    "website_url": "http://www.appalachianmountainbrewery.com",
    "state": "North Carolina",
    "street": "163 Boone Creek Dr"
  },
  {
    "id": "d8528f09-f3d8-48f9-9719-db00b4e10b71",
    "name": "Appalachian Mountain Brewery - Portsmouth",
    "brewery_type": "micro",
    "address_1": "1 Redhook Way",
    "address_2": null,
    "address_3": null,
    "city": "Portsmouth",
    "state_province": "New Hampshire",
    "postal_code": "03801-6853",
    "country": "United States",
    "longitude": -70.8044602,
    "latitude": 43.087884,
    "phone": "8282631111",
    "website_url": null,
    "state": "New Hampshire",
    "street": "1 Redhook Way"
  }
]