[
  {
    "id": "0a0e6f09-385e-4fd4-a70c-df0828e63619",
    "name": "Four String Brewing Company",
    "brewery_type": "micro",
    "address_1": "985 W 6th Ave",
    "address_2": null,
    "address_3": null,
    "city": "Columbus",
    "state_province": "Ohio",
    "postal_code": "43212-2601",
    "country": "United States",
    "longitude": -83.03279943,
    "latitude": 39.98904657,
    "phone": "6147251282",
    "website_url": "http://www.fourstringbrewing.com",
    "state": "Ohio",
    "street": "985 W 6th Ave"
  },
  {
    "id": "49f223ca-b83b-4c2d-a700-9ce07d38982f",
    "name": "Four String Brewing Company - West Side Production Facility",
    "brewery_type": "micro",
    "address_1": "660 N Hague Ave",
    "address_2": null,
    "address_3": null,
    "city": "Columbus",
    "state_province": "Ohio",
    "postal_code": "43204-",
    "country": "United States",
    "longitude": null,
    "latitude": null,
    "phone": "6147251282",
    "website_url": null,
    "state": "Ohio",
    "street": "660 N Hague Ave"
  },
  {
    "id": "a8f97e99-0d4c-4d7f-a655-8c2d8ab6c4b2",
    "name": "Fox Brewing",
    "brewery_type": "micro",
    "address_1": "103 S 11th St",
    "address_2": null,
    "address_3": null,
    "city": "West Des Moines",
    "state_province": "Iowa",
    "postal_code": "50265-4410",
    "country": "United States",
    "longitude": -93.71821038,
    "latitude": 41.56970863,
    "phone": "5156350323",
    "website_url": "http://www.foxbrewco.com",
    "state": "Iowa",
    "street": "103 S 11th St"
  },
  {
    "id": "1d8b4135-ba6b-496b-a5f1-b3898965ae83",
    "name": "Fox Farm Brewery",
    "brewery_type": "micro",
    "address_1": "62 Music Vale Rd",
    "address_2": null,
    "address_3": null,
    "city": "Salem",
    "state_province": "Connecticut",
    "postal_code": "06420-3847",
    "country": "United States",
    "longitude": -72.26788506,
    "latitude": 41.48370071,
    "phone": "8602870076",
    "website_url": "http://foxfarmbeer.com",
    "state": "Connecticut",
    "street": "62 Music Vale Rd"
  },
  {
    "id": "c9eea514-e6d7-4f2a-9d2a-7f9004acead7",
    "name": "Fox Head Brewing LLC",
    "brewery_type": "micro",
    "address_1": "2132 S West Ave",
    "address_2": null,
    "address_3": null,
    "city": "Waukesha",
    "state_province": "Wisconsin",
    "postal_code": "53189-7917",
    "country": "United States",
    "longitude": null,
    "latitude": null,
    "phone": "4146510504",
    "website_url": null,
    "state": "Wisconsin",
    "street": "2132 S West Ave"
  },
  {
    "id": "a8874024-4542-4460-adf9-a7ee686d7b92",
    "name": "Fox Island Brewing",
    "brewery_type": "closed",
    "address_1": "2416 14th Ave NW",
    "address_2": null,
    "address_3": null,
    "city": "Gig Harbor",
    "state_province": "Washington",
    "postal_code": "98335",
    "country": "United States",
    "longitude": null,
    "latitude": null,
    "phone": null,
    "website_url": "http://www.foxislandbrewing.com",
    "state": "Washington",
    "street": "2416 14th Ave NW"
  },
  {
    "id": "b04ed4fe-48f4-472c-a355-822e68829545",
    "name": "Fox N Hare Brewing Company",
    "brewery_type": "micro",
    "address_1": "46 Front St",
    "address_2": null,
    "address_3": null,
    "city": "Port Jervis",
    "state_province": "New York",
    "postal_code": "12771-2415",
    "country": "United States",
    "longitude": -74.69088263,
    "latitude": 41.37253067,
    "phone": "3172095767",
    "website_url": "http://www.foxnhare-brewing.com",
    "state": "New York",
    "street": "46 Front St"
  },
  {
    "id": "11eea10d-fb14-4a44-a196-654121005858",
    "name": "Fox River Brewing Co",
    "brewery_type": "brewpub",
    "address_1": "1501 Arboretum Dr",
    "address_2": null,
    "address_3": null,
    "city": "Oshkosh",
    "state_province": "Wisconsin",
    "postal_code": "54901-2791",
    "country": "United States",
    "longitude": -88.560941,
    "latitude": 44.036512,
    "phone": "9202322337",
    "website_url": "http://www.foxriverbrewing.com",
    "state": "Wisconsin",
    "street": "1501 Arboretum Dr"
  },
  {
    "id": "43b45aff-16e9-4dee-b89d-0652c6574d57",
    "name": "Fox River Brewing Co and Restaurant",
    "brewery_type": "brewpub",
    "address_1": "4301 W Wisconsin Ave Ste 189",
    "address_2": null,
    "address_3": null,
    "city": "Appleton",
    "state_province": "Wisconsin",
    "postal_code": "54913-6530",
    "country": "United States",
    "longitude": null,
    "latitude": null,
    "phone": "9209910000",
    "website_url": "http://www.supplerestaurantgroup.com",
    "state": "Wisconsin",
    "street": "4301 W Wisconsin Ave Ste 189"
  },
  {
    "id": "f2681950-6634-476e-a20d-b7b68617c96e",
    "name": "Foxhole Brewhouse",
    "brewery_type": "micro",
    "address_1": "313 4th St SW",
    "address_2": null,
    "address_3": null,
    "city": "Willmar",
    "state_province": "Minnesota",
    "postal_code": "56201",
    "country": "United States",
    "longitude": -95.04770735,
    "latitude": 45.12056633,
    "phone": "3204412071",
    "website_url": "http://www.foxholebrewhouse.com",
    "state": "Minnesota",
    "street": "313 4th St SW"
  },
  {
    "id": "1654ffc5-5e9f-4fc7-ba64-2a9a86c3cc53",
    "name": "Foxtown Brewing",
    "brewery_type": "micro",
    "address_1": "6411 W Mequon Rd",
    "address_2": null,
    "address_3": null,
    "city": "Mequon",
    "state_province": "Wisconsin",
    "postal_code": "53092-1862",
    "country": "United States",
    "longitude": -87.989406667143,
    "latitude": 43.221587772022,
    "phone": "2622925700",
    "website_url": "https://foxtownbrewing.com",
    "state": "Wisconsin",
    "street": "6411 W Mequon Rd"
  },
  {
    "id": "e2b6a2f4-631c-40a0-97be-47942c7be3d6",
    "name": "Foy Enterprises LLC DBA Dog River Brewery",
    "brewery_type": "micro",
    "address_1": "1400 US Route 302 Ste 4",
    "address_2": null,
    "address_3": null,
    "city": "Barre",
    "state_province": "Vermont",
    "postal_code": "05641-2320",
    "country": "United States",
    "longitude": null,
    "latitude": null,
    "phone": "8025054053",
    "website_url": null,
    "state": "Vermont",
    "street": "1400 US Route 302 Ste 4"
  },
  {
    "id": "1617364c-d90e-4eab-aa7a-f707d2a7fd2d",
    "name": "Franciscan Well Brewery & Brewpub",
    "brewery_type": "brewpub",
    "address_1": "14b North Mall",
    "address_2": "Sunday's Well",
    "address_3": null,
    "city": "Cork",
    "state_province": "Cork",
    "postal_code": "T23 RHW2",
    "country": "Ireland",
    "longitude": -8.4755419,
    "latitude": 51.9005854,
    "phone": "+353 21 4393 434",
    "website_url": "https://franwellbar.com/",
    "state": "Cork",
    "street": "14b North Mall"
  },
  {
    "id": "86c8dd48-d6a0-4a60-8fd1-814795effed2",
    "name": "Franconia Brewing Co",
    "brewery_type": "micro",
    "address_1": "495 McKinney Pkwy",
    "address_2": null,
    "address_3": null,
    "city": "McKinney",
    "state_province": "Texas",
    "postal_code": "75071-1825",
    "country": "United States",
    "longitude": -96.60911774,
    "latitude": 33.21300297,
    "phone": "9725420705",
    "website_url": "http://www.franconiabrewing.com",
    "state": "Texas",
    "street": "495 McKinney Pkwy"
  },
  {
    "id": "50c4067b-c763-454f-81ed-7f8fdff2ed56",
    "name": "Frankenmuth Brewing Co",
    "brewery_type": "micro",
    "address_1": "425 S Main St",
    "address_2": null,
    "address_3": null,
    "city": "Frankenmuth",
    "state_province": "Michigan",
    "postal_code": "48734-1615",
    "country": "United States",
    "longitude": -83.73929404,
    "latitude": 43.32893336,
    "phone": "2489309440",
    "website_url": "http://www.frankenmuthbrewery.com",
    "state": "Michigan",
    "street": "425 S Main St"
  },
  {
    "id": "8cb64220-c9ae-40a4-a916-555d93b36696",
    "name": "Franklin Brewing Co",
    "brewery_type": "micro",
    "address_1": "1345 East Ave",
    "address_2": null,
    "address_3": null,
    "city": "Elyria",
    "state_province": "Ohio",
    "postal_code": "44035-7681",
    "country": "United States",
    "longitude": -82.10041992,
    "latitude": 41.35034495,
    "phone": null,
    "website_url": null,
    "state": "Ohio",
    "street": "1345 East Ave"
  },
  {
    "id": "7bf1aca7-78cb-4592-95b8-adb77d5ead26",
    "name": "Franklin Brewing Company, LLC",
    "brewery_type": "planning",
    "address_1": null,
    "address_2": null,
    "address_3": null,
    "city": "Angier",
    "state_province": "North Carolina",
    "postal_code": "27501-6094",
    "country": "United States",
    "longitude": null,
    "latitude": null,
    "phone": null,
    "website_url": "http://www.franklin-brewing.com",
    "state": "North Carolina",
    "street": null
  },
  {
    "id": "edd421a2-f8b7-436c-af5b-c75595047dbf",
    "name": "Franklin Street Brewing Company",
    "brewery_type": "micro",
    "address_1": "116 S Franklin St",
    "address_2": null,
    "address_3": null,
    "city": "Manchester",
    "state_province": "Iowa",
    "postal_code": "52057-2121",
    "country": "United States",
    "longitude": -91.45777929,
    "latitude": 42.48329324,
    "phone": "5639272722",
    "website_url": "http://www.franklinstreetbrewing.com",
    "state": "Iowa",
    "street": "116 S Franklin St"
  },
  {
    "id": "4236bf9c-5c3a-4486-9922-47329c33df32",
    "name": "Franklin's Brewing Co",
    "brewery_type": "taproom",
    "address_1": "Highfield Farm",
    "address_2": null,
    "address_3": null,
    "city": "Lewes",
    "state_province": "East Sussex",
    "postal_code": "BN8 5AR",
    "country": "England",
    "longitude": 0.089645,
    "latitude": 50.903057,
    "phone": "1273814447",
    "website_url": "https://www.franklinsbrewery.co.uk/",
    "state": "East Sussex",
    "street": "Highfield Farm"
  },
  {
    "id": "7ef58914-2624-4d11-9db1-5db5b6375c34",
    "name": "Franklins General Store",
    "brewery_type": "micro",
    "address_1": "5123 Baltimore Ave",
    "address_2": null,
    "address_3": null,
    "city": "Hyattsville",
    "state_province": "Maryland",
    "postal_code": "20781-2042",
    "country": "United States",
    "longitude": -76.94074114,
    "latitude": 38.95194399,
    "phone": "3019272740",
    "website_url": "http://Franklinsbrewery.com",
    "state": "Maryland",
    "street": "5123 Baltimore Ave"
  },
  {
    "id": "d28230b2-df56-4b85-aefc-d8e31e1e28c9",
    "name": "Freak'N Brewing Company",
    "brewery_type": "micro",
    "address_1": "9299 W Olive Ave Ste 513",
    "address_2": null,
    "address_3": null,
    "city": "Peoria",
    "state_province": "Arizona",
    "postal_code": "85345-8385",
    "country": "United States",
    "longitude": null,
    "latitude": null,
    "phone": "6237385804",
    "website_url": "http://www.freaknbrew.com",
    "state": "Arizona",
    "street": "9299 W Olive Ave Ste 513"
  },
  {
    "id": "30bd13e7-2853-4e9f-9aae-893a4d597af6",
    "name": "Fredericksburg Brewing Co",
    "brewery_type": "brewpub",
    "address_1": "245 E Main St",
    "address_2": null,
    "address_3": null,
    "city": "Fredericksburg",
    "state_province": "Texas",
    "postal_code": "78624-4114",
    "country": "United States",
    "longitude": -98.865629,
    "latitude": 30.2703349,
    "phone": "8309971646",
    "website_url": "http://www.yourbrewery.com",
    "state": "Texas",
    "street": "245 E Main St"
  },
  {
    "id": "26298dbf-a747-497e-ad82-d5168437d2bc",
    "name": "Fredonia Brewery, LLC",
    "brewery_type": "micro",
    "address_1": "138 N Mound St",
    "address_2": null,
    "address_3": null,
    "city": "Nacogdoches",
    "state_province": "Texas",
    "postal_code": "75961-5262",
    "country": "United States",
    "longitude": -94.65198531,
    "latitude": 31.6029904,
    "phone": "9363055125",
    "website_url": "http://www.fredoniabrewery.com",
    "state": "Texas",
    "street": "138 N Mound St"
  },
  {
    "id": "18d675ae-8273-4b8d-bd10-b1ff4bf2b3a5",
    "name": "Free Range Brewing",
    "brewery_type": "micro",
    "address_1": "2320 N Davidson St Unit D",
    "address_2": null,
    "address_3": null,
    "city": "Charlotte",
    "state_province": "North Carolina",
    "postal_code": "28205-1832",
    "country": "United States",
    "longitude": null,
    "latitude": null,
    "phone": "9802019096",
    "website_url": "http://www.freerangebrewing.com",
    "state": "North Carolina",
    "street": "2320 N Davidson St Unit D"
  },
  {
    "id": "9db36c6e-0386-41f5-b03c-6e83f3185253",
    "name": "Free State Brewing Co",
    "brewery_type": "brewpub",
    "address_1": "636 Massachusetts St",
    "address_2": null,
    "address_3": null,
    "city": "Lawrence",
    "state_province": "Kansas",
    "postal_code": "66044-2236",
    "country": "United States",
    "longitude": -95.23580916,
    "latitude": 38.97243469,
    "phone": "7858434555",
    "website_url": "http://www.freestatebrewing.com",
    "state": "Kansas",
    "street": "636 Massachusetts St"
  },
  {
    "id": "3f2f7f99-2c28-4ec3-a272-83cddacd69c5",
    "name": "Free State Brewing Co - Production",
    "brewery_type": "micro",
    "address_1": "1923 Moodie Rd",
    "address_2": null,
    "address_3": null,
    "city": "Lawrence",
    "state_province": "Kansas",
    "postal_code": "66046-3167",
    "country": "United States",
    "longitude": -95.22586264,
    "latitude": 38.94967284,
    "phone": null,
    "website_url": null,
    "state": "Kansas",
    "street": "1923 Moodie Rd"
  },
  {
    "id": "ee3fb7c3-e0ae-42cd-9827-1919269583a2",
    "name": "Free Will Brewing Company",
    "brewery_type": "micro",
    "address_1": "410 E Walnut St Ste 10",
    "address_2": null,
    "address_3": null,
    "city": "Perkasie",
    "state_province": "Pennsylvania",
    "postal_code": "18944-1683",
    "country": "United States",
    "longitude": null,
    "latitude": null,
    "phone": "2673540813",
    "website_url": "http://www.freewillbrewing.com",
    "state": "Pennsylvania",
    "street": "410 E Walnut St Ste 10"
  },
  {
    "id": "01ea88c3-9507-4959-9087-cc70e2d6fc19",
    "name": "Freebridge Brewing",
    "brewery_type": "brewpub",
    "address_1": "710 E 2nd St Ste 1",
    "address_2": null,
    "address_3": null,
    "city": "The Dalles",
    "state_province": "Oregon",
    "postal_code": "97058-2400",
    "country": "United States",
    "longitude": -121.1766104,
    "latitude": 45.59871449,
    "phone": "5417691234",
    "website_url": "http://www.freebridgebrewing.com",
    "state": "Oregon",
    "street": "710 E 2nd St Ste 1"
  },
  {
    "id": "bf9882b7-4f26-4f9f-afd5-6d18c5f11ef7",
    "name": "Freedom's Edge Brewing",
    "brewery_type": "micro",
    "address_1": "1509 Pioneer Ave",
    "address_2": null,
    "address_3": null,
    "city": "Cheyenne",
    "state_province": "Wyoming",
    "postal_code": "82001-4441",
    "country": "United States",
    "longitude": -104.8169561,
    "latitude": 41.13122969,
    "phone": "3075145314",
    "website_url": "http://www.freedomsedgebrewing.com",
    "state": "Wyoming",
    "street": "1509 Pioneer Ave"
  },
  {
    "id": "7506cfbc-fb3f-476c-a9ff-29a8cf03ba32",
    "name": "Freehouse Brewery",
    "brewery_type": "micro",
    "address_1": "2895 Pringle St Ste B",
    "address_2": null,
    "address_3": null,
    "city": "Charleston",
    "state_province": "South Carolina",
    "postal_code": "29405-7506",
    "country": "United States",
    "longitude": null,
    "latitude": null,
    "phone": null,
    "website_url": "http://www.freehousebeer.com",
    "state": "South Carolina",
    "street": "2895 Pringle St Ste B"
  },
  {
    "id": "f3e52e78-36b1-4e4b-bca8-82a34f012f75",
    "name": "Freetail Brewing Co",
    "brewery_type": "micro",
    "address_1": "2000 S Presa St",
    "address_2": null,
    "address_3": null,
    "city": "San Antonio",
    "state_province": "Texas",
    "postal_code": "78210-2835",
    "country": "United States",
    "longitude": -98.482853,
    "latitude": 29.401901,
    "phone": "2103954974",
    "website_url": "http://www.freetailbrewing.com",
    "state": "Texas",
    "street": "2000 S Presa St"
  },
  {
    "id": "efdc7de5-3256-463e-b0b9-d4369db08f97",
    "name": "Freetail Brewing Co - Brewpub",
    "brewery_type": "brewpub",
    "address_1": "4035 N Loop 1604 W Ste 105",
    "address_2": null,
    "address_3": null,
    "city": "San Antonio",
    "state_province": "Texas",
    "postal_code": "78257-9547",
    "country": "United States",
    "longitude": null,
    "latitude": null,
    "phone": "2106256000",
    "website_url": "http://www.freetailbrewing.com",
    "state": "Texas",
    "street": "4035 N Loop 1604 W Ste 105"
  },
  {
    "id": "a2a599ff-da5d-48be-a952-19d31f9d3ecf",
    "name": "FreeWheel Brewing Co",
    "brewery_type": "brewpub",
    "address_1": "3736 Florence St (Marsh Manor)",
    "address_2": null,
    "address_3": null,
    "city": "Redwood City",
    "state_province": "California",
    "postal_code": "94063-4418",
    "country": "United States",
    "longitude": -122.1871947,
    "latitude": 37.47850974,
    "phone": null,
    "website_url": null,
    "state": "California",
    "street": "3736 Florence St (Marsh Manor)"
  },
  {
    "id": "6a11bab0-fc45-4999-a6f2-4870cb65b3d6",
    "name": "Freight Yard Brewing LLC",
    "brewery_type": "proprietor",
    "address_1": "4975 State Route 31",
    "address_2": null,
    "address_3": null,
    "city": "Clay",
    "state_province": "New York",
    "postal_code": "13041",
    "country": "United States",
    "longitude": -76.17179556,
    "latitude": 43.18592459,
    "phone": "3158342529",
    "website_url": "http://www.freightyardbrewing.com",
    "state": "New York",
    "street": "4975 State Route 31"
  },
  {
    "id": "a59a6f78-d894-4d75-835d-1415f6a333ce",
    "name": "Fremont Brewing Co",
    "brewery_type": "regional",
    "address_1": "3409 Woodland Park Ave N",
    "address_2": null,
    "address_3": null,
    "city": "Seattle",
    "state_province": "Washington",
    "postal_code": "98103-8925",
    "country": "United States",
    "longitude": -122.3444367,
    "latitude": 47.64919175,
    "phone": "2064202407",
    "website_url": "http://www.fremontbrewing.com",
    "state": "Washington",
    "street": "3409 Woodland Park Ave N"
  },
  {
    "id": "aa897103-0752-4ec6-a10f-f90ec51b2836",
    "name": "French Broad River Brewing Co",
    "brewery_type": "micro",
    "address_1": "101 Fairview Rd Ste D",
    "address_2": null,
    "address_3": null,
    "city": "Asheville",
    "state_province": "North Carolina",
    "postal_code": "28803-4301",
    "country": "United States",
    "longitude": null,
    "latitude": null,
    "phone": "8282770222",
    "website_url": "http://www.frenchbroadbrewery.com",
    "state": "North Carolina",
    "street": "101 Fairview Rd Ste D"
  },
  {
    "id": "6dfefac9-78b1-4064-bbc8-7576201d9dbb",
    "name": "Frenzy Brewing Company",
    "brewery_type": "micro",
    "address_1": "15 S Broadway",
    "address_2": null,
    "address_3": null,
    "city": "Edmond",
    "state_province": "Oklahoma",
    "postal_code": "73003-6250",
    "country": "United States",
    "longitude": -97.4818183,
    "latitude": 35.6547287,
    "phone": "4055625350",
    "website_url": "http://www.frenzybrewing.com",
    "state": "Oklahoma",
    "street": "15 S Broadway"
  },
  {
    "id": "ba99e6ac-4f25-49a3-980b-04818ce101c7",
    "name": "Fretboard Brewing Company",
    "brewery_type": "micro",
    "address_1": "5800 Creek Rd",
    "address_2": null,
    "address_3": null,
    "city": "Blue Ash",
    "state_province": "Ohio",
    "postal_code": "45242-4010",
    "country": "United States",
    "longitude": -84.390108,
    "latitude": 39.260924,
    "phone": "5139144677",
    "website_url": "http://www.fretboardbrewing.com",
    "state": "Ohio",
    "street": "5800 Creek Rd"
  },
  {
    "id": "fc496ca5-6117-4863-b75c-2da11269792a",
    "name": "Frey's Brewing Company",
    "brewery_type": "micro",
    "address_1": "8601 Mapleville Rd",
    "address_2": null,
    "address_3": null,
    "city": "Mount Airy",
    "state_province": "Maryland",
    "postal_code": "21771-9705",
    "country": "United States",
    "longitude": null,
    "latitude": null,
    "phone": "3016397146",
    "website_url": "http://www.freysbrewing.com",
    "state": "Maryland",
    "street": "8601 Mapleville Rd"
  },
  {
    "id": "c5a2fe16-973f-4ee2-9764-e51ed9a4d190",
    "name": "Friars' Brewhouse",
    "brewery_type": "micro",
    "address_1": "84 Main St",
    "address_2": null,
    "address_3": null,
    "city": "Bucksport",
    "state_province": "Maine",
    "postal_code": "04416",
    "country": "United States",
    "longitude": -68.79558414,
    "latitude": 44.57202344,
    "phone": "2079473770",
    "website_url": null,
    "state": "Maine",
    "street": "84 Main St"
  },
  {
    "id": "769105a9-f552-4c1c-80b5-e85463582e8c",
    "name": "Friday Harbor Brewing",
    "brewery_type": "closed",
    "address_1": "665B Mullis St",
    "address_2": null,
    "address_3": null,
    "city": "Friday Harbor",
    "state_province": "Washington",
    "postal_code": "98250-7902",
    "country": "United States",
    "longitude": -123.0223327,
    "latitude": 48.53026803,
    "phone": "3603786205",
    "website_url": "http://www.fridayharborbrewhouse.com",
    "state": "Washington",
    "street": "665B Mullis St"
  },
  {
    "id": "b73eb538-fd72-4c98-8ea2-b20b60abfb21",
    "name": "Friends and Allies Brewing Company",
    "brewery_type": "micro",
    "address_1": "979 Springdale Rd Ste 124",
    "address_2": null,
    "address_3": null,
    "city": "Austin",
    "state_province": "Texas",
    "postal_code": "78702-3753",
    "country": "United States",
    "longitude": -97.6961854,
    "latitude": 30.2628616,
    "phone": null,
    "website_url": "http://www.friendsandallies.beer",
    "state": "Texas",
    "street": "979 Springdale Rd Ste 124"
  },
  {
    "id": "02dcc02a-6cb5-4081-8d36-991f0d31dd09",
    "name": "Friendship Brewing Company",
    "brewery_type": "brewpub",
    "address_1": "100 Pitman Ave",
    "address_2": null,
    "address_3": null,
    "city": "Wentzville",
    "state_province": "Missouri",
    "postal_code": "63385-1700",
    "country": "United States",
    "longitude": -90.8512976,
    "latitude": 38.8107544,
    "phone": "6368569300",
    "website_url": "http://www.friendshipbrewingcompany.com",
    "state": "Missouri",
    "street": "100 Pitman Ave"
  },
  {
    "id": "6c7bd802-9fa1-4c0c-879c-b09ffa3583cd",
    "name": "Fringe Beerworks",
    "brewery_type": "micro",
    "address_1": "224 SE Douglas St",
    "address_2": null,
    "address_3": null,
    "city": "Lees Summit",
    "state_province": "Missouri",
    "postal_code": "64063-2329",
    "country": "United States",
    "longitude": -94.37672,
    "latitude": 38.913133,
    "phone": "8166002552",
    "website_url": "http://www.fringebeerworks.com",
    "state": "Missouri",
    "street": "224 SE Douglas St"
  },
  {
    "id": "1ec61aa6-bd2f-43f4-b3cf-cd0cb92caa57",
    "name": "FrinGe Brewing",
    "brewery_type": "micro",
    "address_1": "5640 3rd Ave",
    "address_2": null,
    "address_3": null,
    "city": "Ferndale",
    "state_province": "Washington",
    "postal_code": "98248",
    "country": "United States",
    "longitude": -122.593,
    "latitude": 48.84596,
    "phone": "3603986071",
    "website_url": "https://fringebrewing.com",
    "state": "Washington",
    "street": "5640 3rd Ave"
  },
  {
    "id": "e0a21330-f4ab-44ba-8762-4624cff0688d",
    "name": "Frisco Tap House & Push Brewery",
    "brewery_type": "brewpub",
    "address_1": "6695 Dobbin Rd",
    "address_2": null,
    "address_3": null,
    "city": "Columbia",
    "state_province": "Maryland",
    "postal_code": "21045-4755",
    "country": "United States",
    "longitude": -76.8252248,
    "latitude": 39.1860574,
    "phone": "4103124907",
    "website_url": "http://www.friscogrille.com",
    "state": "Maryland",
    "street": "6695 Dobbin Rd"
  },
  {
    "id": "012747c9-0ef8-43d7-90fe-ea4242805b7a",
    "name": "Frisky Brewing Company",
    "brewery_type": "planning",
    "address_1": null,
    "address_2": null,
    "address_3": null,
    "city": "Odessa",
    "state_province": "Texas",
    "postal_code": "79765",
    "country": "United States",
    "longitude": null,
    "latitude": null,
    "phone": null,
    "website_url": "http://www.friskybrewing.com",
    "state": "Texas",
    "street": null
  },
  {
    "id": "ce7ce315-a777-4537-8769-21885f40d043",
    "name": "Frog Level Brewing Company",
    "brewery_type": "micro",
    "address_1": "56 Commerce St",
    "address_2": null,
    "address_3": null,
    "city": "Waynesville",
    "state_province": "North Carolina",
    "postal_code": "28786-5738",
    "country": "United States",
    "longitude": -82.99178072,
    "latitude": 35.4929673,
    "phone": "8284545664",
    "website_url": "http://www.froglevelbrewing.com",
    "state": "North Carolina",
    "street": "56 Commerce St"
  },
  {
    "id": "4f00fa3a-9592-42eb-8cb8-18cdfc18dbeb",
    "name": "Frogg Brewing",
    "brewery_type": "micro",
    "address_1": "580 Sawyers Crossing Road",
    "address_2": null,
    "address_3": null,
    "city": "Swanzey",
    "state_province": "New Hampshire",
    "postal_code": "03446-3638",
    "country": "United States",
    "longitude": -72.32039194,
    "latitude": 42.88419156,
    "phone": "6035477639",
    "website_url": "http://www.froggbrewing.com/",
    "state": "New Hampshire",
    "street": "580 Sawyers Crossing Road"
  },
  {
    "id": "78b32146-8ea4-49b3-b97a-2d03b3cfd237",
    "name": "Frogtown Brewery",
    "brewery_type": "micro",
    "address_1": "2931 Gilroy St",
    "address_2": null,
    "address_3": null,
    "city": "Los Angeles",
    "state_province": "California",
    "postal_code": "90039-2817",
    "country": "United States",
    "longitude": -118.2515209,
    "latitude": 34.10656552,
    "phone": "3234522739",
    "website_url": "http://www.frogtownbrewery.com",
    "state": "California",
    "street": "2931 Gilroy St"
  }
]