[
  {
    "id": "cab32ebd-9d23-425f-ad99-fc0959be6858",
    "name": "Broken Wheel Brewery",
    "brewery_type": "brewpub",
    "address_1": "109 Tunica Dr E",
    "address_2": null,
    "address_3": null,
    "city": "Marksville",
    "state_province": "Louisiana",
    "postal_code": "71351-3005",
    "country": "United States",
    "longitude": -92.06931518,
    "latitude": 31.12386287,
    "phone": "3182536543",
    "website_url": null,
    "state": "Louisiana",
    "street": "109 Tunica Dr E"
  },
  {
    "id": "8964c08b-1e2a-4c49-9277-64f04c81e549",
    "name": "Brokerage Brewing Company",
    "brewery_type": "micro",
    "address_1": "2516 Covington St",
    "address_2": null,
    "address_3": null,
    "city": "West Lafayette",
    "state_province": "Indiana",
    "postal_code": "47906-1404",
    "country": "United States",
    "longitude": -86.91414689,
    "latitude": 40.45361124,
    "phone": "7652332767",
    "website_url": "http://www.brokeragebrewing.com",
    "state": "Indiana",
    "street": "2516 Covington St"
  },
  {
    "id": "2ebb09a1-929b-4a1b-8f02-0a5536728b3c",
    "name": "Brolly Brewing",
    "brewery_type": "taproom",
    "address_1": "Fittleworth Road",
    "address_2": null,
    "address_3": null,
    "city": "Billinghurst",
    "state_province": "West Sussex",
    "postal_code": "RH14 0ES",
    "country": "England",
    "longitude": -0.521971,
    "latitude": 51.010214,
    "phone": "7720847017",
    "website_url": "https://www.brollybrewing.co.uk/",
    "state": "West Sussex",
    "street": "Fittleworth Road"
  },
  {
    "id": "87a0e300-085f-4701-bfc1-cd9a4d45785a",
    "name": "Bron Yr Aur Brewing",
    "brewery_type": "micro",
    "address_1": "12160 US Highway 12",
    "address_2": null,
    "address_3": null,
    "city": "Naches",
    "state_province": "Washington",
    "postal_code": "98937-9222",
    "country": "United States",
    "longitude": -120.7393151,
    "latitude": 46.73961615,
    "phone": "5096531109",
    "website_url": "https://bronyraurbrewing.com",
    "state": "Washington",
    "street": "12160 US Highway 12"
  },
  {
    "id": "68b69497-3a9f-49b3-a523-26bd686d4be2",
    "name": "Bronze Owl Brewing",
    "brewery_type": "brewpub",
    "address_1": "506 Vine St",
    "address_2": null,
    "address_3": null,
    "city": "Poplar Bluff",
    "state_province": "Missouri",
    "postal_code": "63901-7331",
    "country": "United States",
    "longitude": -90.39577338,
    "latitude": 36.75663108,
    "phone": "5738405202",
    "website_url": "http://www.bronzeowlbrewing.com",
    "state": "Missouri",
    "street": "506 Vine St"
  },
  {
    "id": "47ce7e5f-74fe-4a8e-8fe0-35ecd8338537",
    "name": "Brookeville Beer Farm",
    "brewery_type": "micro",
    "address_1": "20315 Georgia Ave",
    "address_2": null,
    "address_3": null,
    "city": "Brookeville",
    "state_province": "Maryland",
    "postal_code": "20833-1711",
    "country": "United States",
    "longitude": -77.0579247,
    "latitude": 39.1780888,
    "phone": "3012601000",
    "website_url": "http://www.brookevillebeerfarm.com",
    "state": "Maryland",
    "street": "20315 Georgia Ave"
  },
  {
    "id": "5ec37fdc-66c6-42ba-b23e-e985eb0c6558",
    "name": "Brooklyn Brewery",
    "brewery_type": "regional",
    "address_1": "79 N 11th St #1 Brewers Row",
    "address_2": null,
    "address_3": null,
    "city": "Brooklyn",
    "state_province": "New York",
    "postal_code": "11249-1913",
    "country": "United States",
    "longitude": null,
    "latitude": null,
    "phone": "7184867422",
    "website_url": "http://www.brooklynbrewery.com",
    "state": "New York",
    "street": "79 N 11th St #1 Brewers Row"
  },
  {
    "id": "3899ff1a-adc2-45a9-87f9-695cd1f9644f",
    "name": "Brooks Brewing",
    "brewery_type": "micro",
    "address_1": "52033 Van Dyke",
    "address_2": null,
    "address_3": null,
    "city": "Shelby Charter Township",
    "state_province": "Michigan",
    "postal_code": "48316",
    "country": "United States",
    "longitude": null,
    "latitude": null,
    "phone": "5868844741",
    "website_url": "http://www.bbrewing.com",
    "state": "Michigan",
    "street": "52033 Van Dyke"
  },
  {
    "id": "cc1c45a6-09d4-4f32-bf72-cde81102a8bd",
    "name": "Broomtail Craft Brewery",
    "brewery_type": "micro",
    "address_1": "6404 Amsterdam Way Ste 100",
    "address_2": null,
    "address_3": null,
    "city": "Wilmington",
    "state_province": "North Carolina",
    "postal_code": "28405-2563",
    "country": "United States",
    "longitude": null,
    "latitude": null,
    "phone": "9102641369",
    "website_url": "http://www.broomtailcraftbrewery.com",
    "state": "North Carolina",
    "street": "6404 Amsterdam Way Ste 100"
  },
  {
    "id": "809d5238-5077-4731-82fa-7ec6d4ca10d9",
    "name": "Brother Ass Brewing",
    "brewery_type": "micro",
    "address_1": "11700 NE 54th Ct",
    "address_2": null,
    "address_3": null,
    "city": "Vancouver",
    "state_province": "Washington",
    "postal_code": "98686-4589",
    "country": "United States",
    "longitude": -122.6170235,
    "latitude": 45.70699686,
    "phone": "3606073275",
    "website_url": "http://www.brotherassbrewing.com",
    "state": "Washington",
    "street": "11700 NE 54th Ct"
  },
  {
    "id": "c657e584-d468-40a7-835a-aa0bd8ecbf92",
    "name": "Brothers Cascadia Brewing",
    "brewery_type": "micro",
    "address_1": "9811 NE 15th Ave",
    "address_2": null,
    "address_3": null,
    "city": "Vancouver",
    "state_province": "Washington",
    "postal_code": "98665-9102",
    "country": "United States",
    "longitude": -122.6553318,
    "latitude": 45.6499058,
    "phone": "3607188927",
    "website_url": "http://www.brotherscascadiabrewing.com",
    "state": "Washington",
    "street": "9811 NE 15th Ave"
  },
  {
    "id": "8deb98b6-acb0-4202-9f83-85c80f60eaac",
    "name": "Brothers Craft Brewing",
    "brewery_type": "micro",
    "address_1": "800 N Main St",
    "address_2": null,
    "address_3": null,
    "city": "Harrisonburg",
    "state_province": "Virginia",
    "postal_code": "22802-4625",
    "country": "United States",
    "longitude": -78.861099,
    "latitude": 38.45757,
    "phone": "5404216599",
    "website_url": "http://www.brotherscraftbrewing.com",
    "state": "Virginia",
    "street": "800 N Main St"
  },
  {
    "id": "a197e0fb-e5bb-4549-a179-c9688005081f",
    "name": "Brotherton Brewing Company",
    "brewery_type": "micro",
    "address_1": "340 Forked Neck Rd",
    "address_2": null,
    "address_3": null,
    "city": "Shamong",
    "state_province": "New Jersey",
    "postal_code": "08088",
    "country": "United States",
    "longitude": -74.72540127,
    "latitude": 39.78817758,
    "phone": "6098012686",
    "website_url": "http://www.brothertonbrewing.com",
    "state": "New Jersey",
    "street": "340 Forked Neck Rd"
  },
  {
    "id": "68e4d79f-cb2d-4c7c-ad44-0052927e5b59",
    "name": "Brotherwell Brewing",
    "brewery_type": "micro",
    "address_1": "400 E Bridge St",
    "address_2": null,
    "address_3": null,
    "city": "Waco",
    "state_province": "Texas",
    "postal_code": "76704-2505",
    "country": "United States",
    "longitude": -97.124214,
    "latitude": 31.56428,
    "phone": "2147638755",
    "website_url": null,
    "state": "Texas",
    "street": "400 E Bridge St"
  },
  {
    "id": "67840cfb-5c46-4a2b-912c-49165bc73d88",
    "name": "Brouwerij Cursus Keme",
    "brewery_type": "brewpub",
    "address_1": "155 Thompson St",
    "address_2": null,
    "address_3": null,
    "city": "Asheville",
    "state_province": "North Carolina",
    "postal_code": "28803-1443",
    "country": "United States",
    "longitude": -82.52572837,
    "latitude": 35.57438843,
    "phone": null,
    "website_url": null,
    "state": "North Carolina",
    "street": "155 Thompson St"
  },
  {
    "id": "6a5fa9b2-e8fe-4156-8a2a-d27e5b678ddd",
    "name": "Brouwerij Les Deplorables",
    "brewery_type": "nano",
    "address_1": "19812 163rd Ave NE",
    "address_2": null,
    "address_3": null,
    "city": "Woodinville",
    "state_province": "Washington",
    "postal_code": "98072-7027",
    "country": "United States",
    "longitude": -122.1225485,
    "latitude": 47.7711936,
    "phone": "2067902496",
    "website_url": null,
    "state": "Washington",
    "street": "19812 163rd Ave NE"
  },
  {
    "id": "8a2ef743-8539-4d41-828b-fc91dcecf6a1",
    "name": "Brouwerij West",
    "brewery_type": "micro",
    "address_1": "110 E 22nd St",
    "address_2": null,
    "address_3": null,
    "city": "San Pedro",
    "state_province": "California",
    "postal_code": "90731-7202",
    "country": "United States",
    "longitude": -118.2801245,
    "latitude": 33.72755547,
    "phone": "3108339330",
    "website_url": "http://www.brouwerijwest.com",
    "state": "California",
    "street": "110 E 22nd St"
  },
  {
    "id": "6bb73725-a04f-4453-bfb4-103c88d1dcac",
    "name": "Browar Caminus",
    "brewery_type": "brewpub",
    "address_1": "1 Maja 11",
    "address_2": null,
    "address_3": null,
    "city": "K\u0105ty Wroc\u0142awskie",
    "state_province": "dolno\u015bl\u0105skie",
    "postal_code": "55-080",
    "country": "Poland",
    "longitude": 16.7665208,
    "latitude": 51.0308894,
    "phone": null,
    "website_url": null,
    "state": "dolno\u015bl\u0105skie",
    "street": "1 Maja 11"
  },
  {
    "id": "a9d8d2a9-23f3-4975-85fe-77de5ea72a43",
    "name": "Browar Cztery \u015aciany",
    "brewery_type": "micro",
    "address_1": "Milicka 32",
    "address_2": null,
    "address_3": null,
    "city": "Trzebnica",
    "state_province": "dolno\u015bl\u0105skie",
    "postal_code": "55-100",
    "country": "Poland",
    "longitude": 17.0722456,
    "latitude": 51.3226873,
    "phone": null,
    "website_url": null,
    "state": "dolno\u015bl\u0105skie",
    "street": "Milicka 32"
  },
  {
    "id": "e46b3eae-e40f-4624-b606-b2abc8d25dab",
    "name": "Browar Dolina Bobru",
    "brewery_type": "micro",
    "address_1": "Zarzecze 1",
    "address_2": null,
    "address_3": null,
    "city": "Wle\u0144",
    "state_province": "dolno\u015bl\u0105skie",
    "postal_code": "59-610",
    "country": "Poland",
    "longitude": 15.6675929,
    "latitude": 51.0220276,
    "phone": null,
    "website_url": null,
    "state": "dolno\u015bl\u0105skie",
    "street": "Zarzecze 1"
  },
  {
    "id": "1457f05e-4ca2-4788-b76e-8c77a3d38998",
    "name": "Browar Jamrozowa Polana",
    "brewery_type": "micro",
    "address_1": "Olimpijska 1",
    "address_2": null,
    "address_3": null,
    "city": "Duszniki-Zdr\u00f3j",
    "state_province": "dolno\u015bl\u0105skie",
    "postal_code": "57-340",
    "country": "Poland",
    "longitude": 16.367628,
    "latitude": 50.3893103,
    "phone": null,
    "website_url": null,
    "state": "dolno\u015bl\u0105skie",
    "street": "Olimpijska 1"
  },
  {
    "id": "c53ce4ff-0b18-4759-80b9-c3d632162909",
    "name": "Browar Jedlinka",
    "brewery_type": "micro",
    "address_1": "Zamkowa 8",
    "address_2": null,
    "address_3": null,
    "city": "Jedlina-Zdr\u00f3j",
    "state_province": "dolno\u015bl\u0105skie",
    "postal_code": "58-330",
    "country": "Poland",
    "longitude": 16.3587951,
    "latitude": 50.712874,
    "phone": null,
    "website_url": null,
    "state": "dolno\u015bl\u0105skie",
    "street": "Zamkowa 8"
  },
  {
    "id": "c6794a77-7c9e-42d6-8baf-99841750d529",
    "name": "Browar Kamienica",
    "brewery_type": "micro",
    "address_1": "Kamienica 1a",
    "address_2": null,
    "address_3": null,
    "city": "Kamienica",
    "state_province": "dolno\u015bl\u0105skie",
    "postal_code": "57-550",
    "country": "Poland",
    "longitude": 16.8867481,
    "latitude": 50.251714,
    "phone": null,
    "website_url": null,
    "state": "dolno\u015bl\u0105skie",
    "street": "Kamienica 1a"
  },
  {
    "id": "886dedd2-fecc-4183-ba3b-746e9ae5f5fa",
    "name": "Browar \u0141a\u017cany",
    "brewery_type": "micro",
    "address_1": "S\u0142owia\u0144ska 23",
    "address_2": null,
    "address_3": null,
    "city": "\u017bar\u00f3w",
    "state_province": "dolno\u015bl\u0105skie",
    "postal_code": "58-130",
    "country": "Poland",
    "longitude": 16.5012637,
    "latitude": 50.9372257,
    "phone": null,
    "website_url": null,
    "state": "dolno\u015bl\u0105skie",
    "street": "S\u0142owia\u0144ska 23"
  },
  {
    "id": "da14fe75-eedf-47d8-a83f-7c2d23932637",
    "name": "Browar Lw\u00f3wek",
    "brewery_type": "regional",
    "address_1": "Traugutta 7",
    "address_2": null,
    "address_3": null,
    "city": "Lw\u00f3wek \u015al\u0105ski",
    "state_province": "dolno\u015bl\u0105skie",
    "postal_code": "59-600",
    "country": "Poland",
    "longitude": 15.5841981,
    "latitude": 51.109468,
    "phone": null,
    "website_url": null,
    "state": "dolno\u015bl\u0105skie",
    "street": "Traugutta 7"
  },
  {
    "id": "acaf83f9-7aaf-48db-baa7-f1a2c13926c2",
    "name": "Browar Mariental",
    "brewery_type": "brewpub",
    "address_1": "1 Maja 11",
    "address_2": null,
    "address_3": null,
    "city": "Szklarska Por\u0119ba",
    "state_province": "dolno\u015bl\u0105skie",
    "postal_code": "58-580",
    "country": "Poland",
    "longitude": 15.5249165,
    "latitude": 50.8259305,
    "phone": null,
    "website_url": null,
    "state": "dolno\u015bl\u0105skie",
    "street": "1 Maja 11"
  },
  {
    "id": "4943fcf7-31fa-4156-ba4c-6e0fcf3b2abf",
    "name": "Browar Miedzianka",
    "brewery_type": "micro",
    "address_1": "Miedzianka 57B",
    "address_2": null,
    "address_3": null,
    "city": "Miedzianka",
    "state_province": "dolno\u015bl\u0105skie",
    "postal_code": "58-520",
    "country": "Poland",
    "longitude": 15.9390136,
    "latitude": 50.877833,
    "phone": null,
    "website_url": null,
    "state": "dolno\u015bl\u0105skie",
    "street": "Miedzianka 57B"
  },
  {
    "id": "c88968bb-bd4a-4606-ad4e-583bd1797974",
    "name": "Browar Milicz",
    "brewery_type": "micro",
    "address_1": "Zielona 5",
    "address_2": null,
    "address_3": null,
    "city": "Milicz",
    "state_province": "dolno\u015bl\u0105skie",
    "postal_code": "56-300",
    "country": "Poland",
    "longitude": 17.2844713,
    "latitude": 51.5228333,
    "phone": null,
    "website_url": null,
    "state": "dolno\u015bl\u0105skie",
    "street": "Zielona 5"
  },
  {
    "id": "b26c3126-b9f8-450a-994d-1f19f3bf1262",
    "name": "Browar Profesja",
    "brewery_type": "regional",
    "address_1": "Kwidzy\u0144ska 6E",
    "address_2": null,
    "address_3": null,
    "city": "Wroc\u0142aw",
    "state_province": "dolno\u015bl\u0105skie",
    "postal_code": "51-416",
    "country": "Poland",
    "longitude": 17.0946435,
    "latitude": 51.1297761,
    "phone": null,
    "website_url": null,
    "state": "dolno\u015bl\u0105skie",
    "street": "Kwidzy\u0144ska 6E"
  },
  {
    "id": "e163f605-c2e2-45cf-b684-77f60dde6c9f",
    "name": "Browar Restauracyjny Prost",
    "brewery_type": "brewpub",
    "address_1": "Paprotna 4",
    "address_2": null,
    "address_3": null,
    "city": "Wroc\u0142aw",
    "state_province": "dolno\u015bl\u0105skie",
    "postal_code": "51-117",
    "country": "Poland",
    "longitude": 17.0228782,
    "latitude": 51.1507632,
    "phone": null,
    "website_url": null,
    "state": "dolno\u015bl\u0105skie",
    "street": "Paprotna 4"
  },
  {
    "id": "99eacd23-0305-4a47-87ed-086e0da1ae35",
    "name": "Browar Roch",
    "brewery_type": "micro",
    "address_1": "Nowe Rochowice 22",
    "address_2": null,
    "address_3": null,
    "city": "Nowe Rochowice",
    "state_province": "dolno\u015bl\u0105skie",
    "postal_code": "59-420",
    "country": "Poland",
    "longitude": 16.0398406,
    "latitude": 50.9407953,
    "phone": null,
    "website_url": null,
    "state": "dolno\u015bl\u0105skie",
    "street": "Nowe Rochowice 22"
  },
  {
    "id": "12738d11-80b2-41af-b991-fd5fed99f3d3",
    "name": "Browar Sowiduch",
    "brewery_type": "brewpub",
    "address_1": "Konstytucji 3 Maja 45A",
    "address_2": null,
    "address_3": null,
    "city": "Karpacz",
    "state_province": "dolno\u015bl\u0105skie",
    "postal_code": "58-540",
    "country": "Poland",
    "longitude": 15.7558721,
    "latitude": 50.7751604,
    "phone": null,
    "website_url": null,
    "state": "dolno\u015bl\u0105skie",
    "street": "Konstytucji 3 Maja 45A"
  },
  {
    "id": "95e49f64-c6ad-476e-8012-c87463562f18",
    "name": "Browar Stu Most\u00f3w",
    "brewery_type": "regional",
    "address_1": "Jana D\u0142ugosza 2/6",
    "address_2": null,
    "address_3": null,
    "city": "Wroc\u0142aw",
    "state_province": "dolno\u015bl\u0105skie",
    "postal_code": "51-162",
    "country": "Poland",
    "longitude": 17.0592865,
    "latitude": 51.1318701,
    "phone": null,
    "website_url": null,
    "state": "dolno\u015bl\u0105skie",
    "street": "Jana D\u0142ugosza 2/6"
  },
  {
    "id": "adb8817e-9b7c-4dd3-a3cd-09755d9f36d0",
    "name": "Browar \u015awidnica",
    "brewery_type": "micro",
    "address_1": "Bystrzycka 28B",
    "address_2": null,
    "address_3": null,
    "city": "\u015awidnica ",
    "state_province": "dolno\u015bl\u0105skie",
    "postal_code": "58-100",
    "country": "Poland",
    "longitude": 16.4994665,
    "latitude": 50.828839,
    "phone": null,
    "website_url": null,
    "state": "dolno\u015bl\u0105skie",
    "street": "Bystrzycka 28B"
  },
  {
    "id": "dfd46e8d-b3b0-4a2e-b4d2-28b9cc19f3c8",
    "name": "Browar Wagabunda",
    "brewery_type": "micro",
    "address_1": "Przemys\u0142owa 8",
    "address_2": null,
    "address_3": null,
    "city": "Niechl\u00f3w",
    "state_province": "dolno\u015bl\u0105skie",
    "postal_code": "56-215",
    "country": "Poland",
    "longitude": 16.3703998,
    "latitude": 51.6903932,
    "phone": null,
    "website_url": null,
    "state": "dolno\u015bl\u0105skie",
    "street": "Przemys\u0142owa 8"
  },
  {
    "id": "34b1ec5d-e881-4e08-b075-93eab766c992",
    "name": "Browar Widawa",
    "brewery_type": "micro",
    "address_1": "Wroc\u0142awska 97",
    "address_2": null,
    "address_3": null,
    "city": "Chrz\u0105stawa Ma\u0142a",
    "state_province": "dolno\u015bl\u0105skie",
    "postal_code": "55-003",
    "country": "Poland",
    "longitude": 17.284289,
    "latitude": 51.0839992,
    "phone": null,
    "website_url": null,
    "state": "dolno\u015bl\u0105skie",
    "street": "Wroc\u0142awska 97"
  },
  {
    "id": "2e352c87-84e1-4cc3-8d87-75815cc89e3a",
    "name": "Browar Wielka Sowa",
    "brewery_type": "micro",
    "address_1": "\u017beromskiego 9",
    "address_2": null,
    "address_3": null,
    "city": "Bielawa",
    "state_province": "dolno\u015bl\u0105skie",
    "postal_code": "58-260",
    "country": "Poland",
    "longitude": 16.6361506,
    "latitude": 50.696817,
    "phone": null,
    "website_url": null,
    "state": "dolno\u015bl\u0105skie",
    "street": "\u017beromskiego 9"
  },
  {
    "id": "89d617ce-5481-4421-937a-4996789cb583",
    "name": "Browar Wie\u017cyca",
    "brewery_type": "micro",
    "address_1": "Armii Krajowej 13",
    "address_2": null,
    "address_3": null,
    "city": "Sob\u00f3tka",
    "state_province": "dolno\u015bl\u0105skie",
    "postal_code": "55-050",
    "country": "Poland",
    "longitude": 16.7270842,
    "latitude": 50.892739,
    "phone": null,
    "website_url": null,
    "state": "dolno\u015bl\u0105skie",
    "street": "Armii Krajowej 13"
  },
  {
    "id": "14fa56bf-a922-44bb-aac2-2844a5710797",
    "name": "Browar Zbroz\u0142o",
    "brewery_type": "micro",
    "address_1": "Grunwaldzka 25",
    "address_2": null,
    "address_3": null,
    "city": "Oborniki \u015al\u0105skie",
    "state_province": "dolno\u015bl\u0105skie",
    "postal_code": "55-120",
    "country": "Poland",
    "longitude": 16.8990216,
    "latitude": 51.2960637,
    "phone": null,
    "website_url": null,
    "state": "dolno\u015bl\u0105skie",
    "street": "Grunwaldzka 25"
  },
  {
    "id": "a90fa39a-8a9e-4d6a-92a1-8d6b2e34261f",
    "name": "Browar Zielone Wzg\u00f3rze",
    "brewery_type": "micro",
    "address_1": "Parkowa 3",
    "address_2": null,
    "address_3": null,
    "city": "Sulistrowiczki",
    "state_province": "dolno\u015bl\u0105skie",
    "postal_code": "55-050",
    "country": "Poland",
    "longitude": 16.7350128,
    "latitude": 50.8458752,
    "phone": null,
    "website_url": null,
    "state": "dolno\u015bl\u0105skie",
    "street": "Parkowa 3"
  },
  {
    "id": "5137aaa8-be5a-40b1-95b1-2f3e0e0770e9",
    "name": "Browar Z\u0142oty Pies",
    "brewery_type": "brewpub",
    "address_1": "Wita Stwosza 1-2",
    "address_2": null,
    "address_3": null,
    "city": "Wroc\u0142aw",
    "state_province": "dolno\u015bl\u0105skie",
    "postal_code": "51-116",
    "country": "Poland",
    "longitude": 17.0336486,
    "latitude": 51.110441,
    "phone": null,
    "website_url": null,
    "state": "dolno\u015bl\u0105skie",
    "street": "Wita Stwosza 1-2"
  },
  {
    "id": "41ce95a9-1acd-4019-afcc-9abeded5c31f",
    "name": "Browarnia Sob\u00f3tka",
    "brewery_type": "micro",
    "address_1": "Osiedle Browarniane 34",
    "address_2": null,
    "address_3": null,
    "city": "Sob\u00f3tka-G\u00f3rka",
    "state_province": "dolno\u015bl\u0105skie",
    "postal_code": "55-050",
    "country": "Poland",
    "longitude": 16.7040764,
    "latitude": 50.8919594,
    "phone": null,
    "website_url": null,
    "state": "dolno\u015bl\u0105skie",
    "street": "Osiedle Browarniane 34"
  },
  {
    "id": "b09140d2-fce4-4996-86ea-2c0aafc6682d",
    "name": "Brown Iron Brewhouse",
    "brewery_type": "brewpub",
    "address_1": "57695 Van Dyke Rd",
    "address_2": null,
    "address_3": null,
    "city": "Washington",
    "state_province": "Michigan",
    "postal_code": "48094-2879",
    "country": "United States",
    "longitude": -83.03578521,
    "latitude": 42.71929931,
    "phone": "586697330",
    "website_url": "http://www.browniron.com",
    "state": "Michigan",
    "street": "57695 Van Dyke Rd"
  },
  {
    "id": "57d05506-be15-4281-bb0b-1b139d75e66a",
    "name": "Brown Truck Brewery",
    "brewery_type": "micro",
    "address_1": "1234 N Main St",
    "address_2": null,
    "address_3": null,
    "city": "High Point",
    "state_province": "North Carolina",
    "postal_code": "27262-3118",
    "country": "United States",
    "longitude": -80.0158688,
    "latitude": 35.9709266,
    "phone": "3368861234",
    "website_url": "http://www.browntruckbrewery.com",
    "state": "North Carolina",
    "street": "1234 N Main St"
  },
  {
    "id": "0353cf46-744c-4538-81c4-febe1d8a0be7",
    "name": "Brown's Brewing Co",
    "brewery_type": "brewpub",
    "address_1": "50 Factory Hill Rd",
    "address_2": null,
    "address_3": null,
    "city": "North Hoosick",
    "state_province": "New York",
    "postal_code": "12133",
    "country": "United States",
    "longitude": -73.34515821,
    "latitude": 42.92661444,
    "phone": "5182732337",
    "website_url": "http://www.brownsbrewing.com",
    "state": "New York",
    "street": "50 Factory Hill Rd"
  },
  {
    "id": "cac29608-c079-4fd2-b3c6-c13b8ac693eb",
    "name": "Brown's Brewing Co",
    "brewery_type": "brewpub",
    "address_1": "417 River St",
    "address_2": null,
    "address_3": null,
    "city": "Troy",
    "state_province": "New York",
    "postal_code": "12180-2822",
    "country": "United States",
    "longitude": -73.68755002,
    "latitude": 42.73567746,
    "phone": "5183654846",
    "website_url": "http://www.brownsbrewing.com",
    "state": "New York",
    "street": "417 River St"
  },
  {
    "id": "a623138e-cc2d-4549-abca-4bc2021b8c45",
    "name": "BR\u00da Brewery",
    "brewery_type": "micro",
    "address_1": "Unit 5 \u2013 Site 6",
    "address_2": "Oaktree Business Park",
    "address_3": null,
    "city": "Trim",
    "state_province": "Meath",
    "postal_code": "C15 RW10",
    "country": "Ireland",
    "longitude": -6.794949763,
    "latitude": 53.5660948,
    "phone": "353469438616",
    "website_url": "https://www.brubrewery.ie/",
    "state": "Meath",
    "street": "Unit 5 \u2013 Site 6"
  },
  {
    "id": "48a7cc57-7544-472d-bc89-2e12ab8e6d53",
    "name": "BRU Handbuilt Ales and Eats",
    "brewery_type": "brewpub",
    "address_1": "5290 Arapahoe Ave",
    "address_2": null,
    "address_3": null,
    "city": "Boulder",
    "state_province": "Colorado",
    "postal_code": "80303-1269",
    "country": "United States",
    "longitude": -105.2293345,
    "latitude": 40.0141462,
    "phone": "7206385193",
    "website_url": "http://www.bruboulder.com",
    "state": "Colorado",
    "street": "5290 Arapahoe Ave"
  },
  {
    "id": "6f687fce-bdae-4938-8ad5-3615520d9664",
    "name": "Brubaker's Brewery & Pub",
    "brewery_type": "planning",
    "address_1": null,
    "address_2": null,
    "address_3": null,
    "city": "Sylvania",
    "state_province": "Ohio",
    "postal_code": "43560-9586",
    "country": "United States",
    "longitude": null,
    "latitude": null,
    "phone": null,
    "website_url": null,
    "state": "Ohio",
    "street": null
  },
  {
    "id": "badb2bd3-2200-4496-88a9-b2d0af2862af",
    "name": "Bruehol Brewing LLC",
    "brewery_type": "proprietor",
    "address_1": "4828 E 2nd St",
    "address_2": null,
    "address_3": null,
    "city": "Benicia",
    "state_province": "California",
    "postal_code": "94510-1023",
    "country": "United States",
    "longitude": -122.1275637,
    "latitude": 38.08086313,
    "phone": "7073276768",
    "website_url": "http://www.bruehol.com",
    "state": "California",
    "street": "4828 E 2nd St"
  }
]