[
  {
    "id": "82faa8a9-2ee7-4869-85c0-d23620b5431d",
    "name": "Legal Draft Beer Company",
    "brewery_type": "micro",
    "address_1": "500 E Division St",
    "address_2": null,
    "address_3": null,
    "city": "Arlington",
    "state_province": "Texas",
    "postal_code": "76011-7212",
    "country": "United States",
    "longitude": -97.0489748,
    "latitude": 32.7400863,
    "phone": "8179622210",
    "website_url": "http://www.legaldraftbeer.com",
    "state": "Texas",
    "street": "500 E Division St"
  },
  {
    "id": "23dcb869-5fb7-461b-adfe-ee73c2dd5a88",
    "name": "Legal Remedy Brewing",
    "brewery_type": "brewpub",
    "address_1": "129 Oakland Ave",
    "address_2": null,
    "address_3": null,
    "city": "Rock Hill",
    "state_province": "South Carolina",
    "postal_code": "29730-4019",
    "country": "United States",
    "longitude": -81.0249405,
    "latitude": 34.9304961,
    "phone": "8033242337",
    "website_url": "http://www.legalremedybrewing.com",
    "state": "South Carolina",
    "street": "129 Oakland Ave"
  },
  {
    "id": "2d6465bf-6977-453b-a013-6c0b76ec22d1",
    "name": "Legend Brewing Co",
    "brewery_type": "brewpub",
    "address_1": "1 High St",
    "address_2": null,
    "address_3": null,
    "city": "Portsmouth",
    "state_province": "Virginia",
    "postal_code": "23704-3814",
    "country": "United States",
    "longitude": -76.29666342,
    "latitude": 36.83482035,
    "phone": "8042328871",
    "website_url": null,
    "state": "Virginia",
    "street": "1 High St"
  },
  {
    "id": "298156f9-917f-4572-82d3-77b251edeb2d",
    "name": "Legend Brewing Co",
    "brewery_type": "micro",
    "address_1": "321 W 7th St",
    "address_2": null,
    "address_3": null,
    "city": "Richmond",
    "state_province": "Virginia",
    "postal_code": "23224-2307",
    "country": "United States",
    "longitude": -77.4429749,
    "latitude": 37.5266924,
    "phone": "8042328871",
    "website_url": "http://www.legendbrewing.com",
    "state": "Virginia",
    "street": "321 W 7th St"
  },
  {
    "id": "c437ef44-0417-4548-876f-7e003b2f3b9c",
    "name": "Legends Brewhouse and Eatery (#1)",
    "brewery_type": "brewpub",
    "address_1": "2840 Shawano Ave",
    "address_2": null,
    "address_3": null,
    "city": "Green Bay",
    "state_province": "Wisconsin",
    "postal_code": "54313-6725",
    "country": "United States",
    "longitude": -88.036448,
    "latitude": 44.521795,
    "phone": "9206621111",
    "website_url": "http://www.legendseatery.com",
    "state": "Wisconsin",
    "street": "2840 Shawano Ave"
  },
  {
    "id": "834dad12-1f54-4555-935b-6a54a72e028f",
    "name": "Legends Brewhouse and Eatery (#2)",
    "brewery_type": "brewpub",
    "address_1": "875 Heritage Rd",
    "address_2": null,
    "address_3": null,
    "city": "de Pere",
    "state_province": "Wisconsin",
    "postal_code": "54115-3148",
    "country": "United States",
    "longitude": -88.06410764,
    "latitude": 44.42819213,
    "phone": "9203368036",
    "website_url": "http://www.legendseatery.com",
    "state": "Wisconsin",
    "street": "875 Heritage Rd"
  },
  {
    "id": "e77053eb-cb52-4028-be06-1b7ad0c4d5d0",
    "name": "Legends Craft Brewery",
    "brewery_type": "micro",
    "address_1": "1301 S Lewis St",
    "address_2": null,
    "address_3": null,
    "city": "Anaheim",
    "state_province": "California",
    "postal_code": "92805-6431",
    "country": "United States",
    "longitude": -117.8980621,
    "latitude": 33.81628085,
    "phone": "8883270202",
    "website_url": "http://www.legendsbeer.com",
    "state": "California",
    "street": "1301 S Lewis St"
  },
  {
    "id": "7d13578b-bcef-44e2-8894-e4ea8c6b4421",
    "name": "Legion Brewing Company",
    "brewery_type": "brewpub",
    "address_1": "1906 Commonwealth Ave",
    "address_2": null,
    "address_3": null,
    "city": "Charlotte",
    "state_province": "North Carolina",
    "postal_code": "28205-5020",
    "country": "United States",
    "longitude": -80.81322316,
    "latitude": 35.21870073,
    "phone": "8444675683",
    "website_url": "http://www.legionbrewing.com",
    "state": "North Carolina",
    "street": "1906 Commonwealth Ave"
  },
  {
    "id": "02259841-ba83-4903-bf26-e206b396ba2f",
    "name": "Legnicki Browar Ksi\u0105\u017c\u0119cy",
    "brewery_type": "brewpub",
    "address_1": "Dworcowa 9",
    "address_2": null,
    "address_3": null,
    "city": "Legnica",
    "state_province": "dolno\u015bl\u0105skie",
    "postal_code": "59-220",
    "country": "Poland",
    "longitude": 16.1681601,
    "latitude": 51.2122419,
    "phone": null,
    "website_url": null,
    "state": "dolno\u015bl\u0105skie",
    "street": "Dworcowa 9"
  },
  {
    "id": "77783d5a-bd52-4428-9425-7446f126ca5b",
    "name": "Lehmans Orchard Brewery and Farmhouse",
    "brewery_type": "brewpub",
    "address_1": "204 N Red Bud Trl",
    "address_2": null,
    "address_3": null,
    "city": "Buchanan",
    "state_province": "Michigan",
    "postal_code": "49107-1366",
    "country": "United States",
    "longitude": -86.35834031,
    "latitude": 41.82910596,
    "phone": "2693624063",
    "website_url": "http://www.lehmansfarmhouse.com",
    "state": "Michigan",
    "street": "204 N Red Bud Trl"
  },
  {
    "id": "069b495e-6e2a-4c09-808f-fe3b3e20fe23",
    "name": "Leinenkugel's 10th Street Brewery",
    "brewery_type": "large",
    "address_1": "1515 N 10th St",
    "address_2": null,
    "address_3": null,
    "city": "Milwaukee",
    "state_province": "Wisconsin",
    "postal_code": "53205-2157",
    "country": "United States",
    "longitude": -87.92455083,
    "latitude": 43.05050335,
    "phone": "4149313900",
    "website_url": "http://www.leinie.com",
    "state": "Wisconsin",
    "street": "1515 N 10th St"
  },
  {
    "id": "56988fcf-e019-46ad-9071-8839751cf3e0",
    "name": "Lemons Mill Brewery",
    "brewery_type": "micro",
    "address_1": "166 Marimon Ave",
    "address_2": null,
    "address_3": null,
    "city": "Harrodsburg",
    "state_province": "Kentucky",
    "postal_code": "40330-1311",
    "country": "United States",
    "longitude": -84.83862624,
    "latitude": 37.7608082,
    "phone": "8592650872",
    "website_url": "http://www.lemonsmillbrewery.com",
    "state": "Kentucky",
    "street": "166 Marimon Ave"
  },
  {
    "id": "753644a2-cb4c-4909-b77b-28a4763ae05c",
    "name": "Lena Brewing Company",
    "brewery_type": "micro",
    "address_1": "9416 W Wagner Rd",
    "address_2": null,
    "address_3": null,
    "city": "Lena",
    "state_province": "Illinois",
    "postal_code": "61048-9664",
    "country": "United States",
    "longitude": null,
    "latitude": null,
    "phone": null,
    "website_url": null,
    "state": "Illinois",
    "street": "9416 W Wagner Rd"
  },
  {
    "id": "ad5cdcdf-a787-4b90-a721-d350c532c57c",
    "name": "Lengthwise Brewing Co",
    "brewery_type": "brewpub",
    "address_1": "7700 District Blvd",
    "address_2": null,
    "address_3": null,
    "city": "Bakersfield",
    "state_province": "California",
    "postal_code": "93313-4861",
    "country": "United States",
    "longitude": -119.0885472,
    "latitude": 35.31323456,
    "phone": "6618362537",
    "website_url": "http://www.lengthwise.com",
    "state": "California",
    "street": "7700 District Blvd"
  },
  {
    "id": "01353cfd-2215-40a9-b41a-20a2e139e870",
    "name": "Lennox Brewery",
    "brewery_type": "micro",
    "address_1": "25 Lime Road",
    "address_2": "Broadmeadow Industrial Estate",
    "address_3": null,
    "city": "Dumbarton",
    "state_province": "West Dunbartonshire",
    "postal_code": "G82 2RP",
    "country": "Scotland",
    "longitude": -4.5708885,
    "latitude": 55.9478947,
    "phone": "1389298642",
    "website_url": "https://www.lennoxbrewery.com/",
    "state": "West Dunbartonshire",
    "street": "25 Lime Road"
  },
  {
    "id": "29b2bf8e-d0bf-4111-baf6-9d008cac8831",
    "name": "Lenny Boy Brewing Co",
    "brewery_type": "micro",
    "address_1": "3000 S Tryon St",
    "address_2": null,
    "address_3": null,
    "city": "Charlotte",
    "state_province": "North Carolina",
    "postal_code": "28217-1342",
    "country": "United States",
    "longitude": -80.87362412,
    "latitude": 35.20146285,
    "phone": "9805851728",
    "website_url": "http://www.discoverlennyboy.com",
    "state": "North Carolina",
    "street": "3000 S Tryon St"
  },
  {
    "id": "e8496c18-2615-4e81-a29f-ea64ea88269c",
    "name": "Les Cheneaux Distillers",
    "brewery_type": "brewpub",
    "address_1": "172 S Meridian St",
    "address_2": null,
    "address_3": null,
    "city": "Cedarville",
    "state_province": "Michigan",
    "postal_code": "49719",
    "country": "United States",
    "longitude": -84.36301089,
    "latitude": 45.99742724,
    "phone": "9064841213",
    "website_url": "http://www.lescheneauxdistillers.com",
    "state": "Michigan",
    "street": "172 S Meridian St"
  },
  {
    "id": "3e578a77-9a52-44ae-ba8a-fd77bfa30ab3",
    "name": "Levante Brewing Company",
    "brewery_type": "micro",
    "address_1": "208 Carter Dr Ste 2",
    "address_2": null,
    "address_3": null,
    "city": "West Chester",
    "state_province": "Pennsylvania",
    "postal_code": "19382-4500",
    "country": "United States",
    "longitude": null,
    "latitude": null,
    "phone": "4849998761",
    "website_url": "http://levantebrewing.com",
    "state": "Pennsylvania",
    "street": "208 Carter Dr Ste 2"
  },
  {
    "id": "9fc7686f-dbb3-4dea-81fe-74e95738150f",
    "name": "Level Beer",
    "brewery_type": "micro",
    "address_1": "5211 NE 148th Ave",
    "address_2": null,
    "address_3": null,
    "city": "Portland",
    "state_province": "Oregon",
    "postal_code": "97230-3434",
    "country": "United States",
    "longitude": -122.5110275,
    "latitude": 45.560506,
    "phone": "5037141222",
    "website_url": "http://www.levelbeer.com",
    "state": "Oregon",
    "street": "5211 NE 148th Ave"
  },
  {
    "id": "447ee073-dfab-4ef3-aacd-e6d0e9553972",
    "name": "Level Crossing Brewing Company",
    "brewery_type": "brewpub",
    "address_1": "2496 S West Temple",
    "address_2": null,
    "address_3": null,
    "city": "Salt Lake City",
    "state_province": "Utah",
    "postal_code": "84115-3050",
    "country": "United States",
    "longitude": -111.954182,
    "latitude": 40.732607,
    "phone": "3852705752",
    "website_url": "https://levelcrossingbrewing.com",
    "state": "Utah",
    "street": "2496 S West Temple"
  },
  {
    "id": "aea59bd4-e1de-4f88-a7f3-f3285d4d57ac",
    "name": "Levi Garrison & Sons Brewing Company",
    "brewery_type": "micro",
    "address_1": "105 W Bird St",
    "address_2": null,
    "address_3": null,
    "city": "Hamilton",
    "state_province": "Missouri",
    "postal_code": "64644-1029",
    "country": "United States",
    "longitude": -94.00051,
    "latitude": 39.744246,
    "phone": "8166689421",
    "website_url": "http://www.lgsbrewingco.com",
    "state": "Missouri",
    "street": "105 W Bird St"
  },
  {
    "id": "0c64f81d-9404-443f-83d4-8aa79babb415",
    "name": "Levitate",
    "brewery_type": "planning",
    "address_1": null,
    "address_2": null,
    "address_3": null,
    "city": "Mount Victory",
    "state_province": "Ohio",
    "postal_code": "43340-8908",
    "country": "United States",
    "longitude": null,
    "latitude": null,
    "phone": "3133849757",
    "website_url": null,
    "state": "Ohio",
    "street": null
  },
  {
    "id": "8fb9e997-a02c-4def-82cd-293821f252d9",
    "name": "Levity Brewing Co",
    "brewery_type": "brewpub",
    "address_1": "1380 Wayne Ave Ste A",
    "address_2": null,
    "address_3": null,
    "city": "Indiana",
    "state_province": "Pennsylvania",
    "postal_code": "15701-3544",
    "country": "United States",
    "longitude": null,
    "latitude": null,
    "phone": null,
    "website_url": null,
    "state": "Pennsylvania",
    "street": "1380 Wayne Ave Ste A"
  },
  {
    "id": "847374a2-b1d9-4313-bfc5-bf09a1a603c3",
    "name": "Lewis & Clark Brewing Co",
    "brewery_type": "micro",
    "address_1": "1517 Dodge Ave",
    "address_2": null,
    "address_3": null,
    "city": "Helena",
    "state_province": "Montana",
    "postal_code": "59601-2970",
    "country": "United States",
    "longitude": null,
    "latitude": null,
    "phone": "4064425960",
    "website_url": "http://www.lewisandclarkbrewing.com",
    "state": "Montana",
    "street": "1517 Dodge Ave"
  },
  {
    "id": "c3a1c1a9-40ef-48d9-b003-01e68ec6e471",
    "name": "Lewistown Brewing Co",
    "brewery_type": "planning",
    "address_1": null,
    "address_2": null,
    "address_3": null,
    "city": "Lewistown",
    "state_province": "Montana",
    "postal_code": "59457-8659",
    "country": "United States",
    "longitude": null,
    "latitude": null,
    "phone": "4063500170",
    "website_url": null,
    "state": "Montana",
    "street": null
  },
  {
    "id": "f8b70c73-33d2-42c7-b16e-0e8cc4c45399",
    "name": "Lexington Avenue Brewery - The LAB",
    "brewery_type": "brewpub",
    "address_1": "39 N Lexington Ave",
    "address_2": null,
    "address_3": null,
    "city": "Asheville",
    "state_province": "North Carolina",
    "postal_code": "28801-2827",
    "country": "United States",
    "longitude": -82.5532489,
    "latitude": 35.5961485,
    "phone": "8282520212",
    "website_url": "http://www.lexavebrew.com",
    "state": "North Carolina",
    "street": "39 N Lexington Ave"
  },
  {
    "id": "3d3c8ed5-4f99-4b44-a466-68346e35bc94",
    "name": "Lexington Brewing Co",
    "brewery_type": "brewpub",
    "address_1": "5475 Main St",
    "address_2": null,
    "address_3": null,
    "city": "Lexington",
    "state_province": "Michigan",
    "postal_code": "48450-",
    "country": "United States",
    "longitude": -82.530867,
    "latitude": 43.2678755,
    "phone": "8103595012",
    "website_url": "http://www.lexingtonbrewery.com",
    "state": "Michigan",
    "street": "5475 Main St"
  },
  {
    "id": "4af0aeca-09f1-423a-9492-cd0b0851255b",
    "name": "Liability Brewing Co.",
    "brewery_type": "planning",
    "address_1": null,
    "address_2": null,
    "address_3": null,
    "city": "Greenville",
    "state_province": "South Carolina",
    "postal_code": "29609-5559",
    "country": "United States",
    "longitude": null,
    "latitude": null,
    "phone": null,
    "website_url": "http://www.liabilitybrewing.co",
    "state": "South Carolina",
    "street": null
  },
  {
    "id": "561cd005-2fdd-4998-8501-bded8f7df8a9",
    "name": "Liars Bench Beer Company",
    "brewery_type": "brewpub",
    "address_1": "459 Islington St Ste 4",
    "address_2": null,
    "address_3": null,
    "city": "Portsmouth",
    "state_province": "New Hampshire",
    "postal_code": "03801-4291",
    "country": "United States",
    "longitude": null,
    "latitude": null,
    "phone": "6032949156",
    "website_url": "http://liarsbenchbeer.com",
    "state": "New Hampshire",
    "street": "459 Islington St Ste 4"
  },
  {
    "id": "9e1ff7aa-1d0d-47e1-8243-9fcbe139d1c3",
    "name": "Liberal Cup Public House and Brewery",
    "brewery_type": "brewpub",
    "address_1": "115 Water St",
    "address_2": null,
    "address_3": null,
    "city": "Hallowell",
    "state_province": "Maine",
    "postal_code": "04347-1357",
    "country": "United States",
    "longitude": -69.79013068,
    "latitude": 44.28681996,
    "phone": "2076232739",
    "website_url": "http://www.theliberalcup.com",
    "state": "Maine",
    "street": "115 Water St"
  },
  {
    "id": "c667c7f5-aa04-43a7-8263-51ae4ad53960",
    "name": "Liberation Brewing",
    "brewery_type": "micro",
    "address_1": "3630 Atlantic Ave",
    "address_2": null,
    "address_3": null,
    "city": "Long Beach",
    "state_province": "California",
    "postal_code": "90807",
    "country": "United States",
    "longitude": -118.1859647,
    "latitude": 33.8781951,
    "phone": "5623490133",
    "website_url": "http://www.liberationbrewing.com",
    "state": "California",
    "street": "3630 Atlantic Ave"
  },
  {
    "id": "80470606-8ec0-42ec-85f3-95bfca79363c",
    "name": "Libertine Brewing Company",
    "brewery_type": "brewpub",
    "address_1": "1234 Broad St",
    "address_2": null,
    "address_3": null,
    "city": "San Luis Obispo",
    "state_province": "California",
    "postal_code": "93401-3908",
    "country": "United States",
    "longitude": -120.6631926,
    "latitude": 35.2777052,
    "phone": "8057720700",
    "website_url": "http://www.libertinebrewing.com",
    "state": "California",
    "street": "1234 Broad St"
  },
  {
    "id": "89cd3953-5fbb-4fd3-b129-9914968d7e81",
    "name": "Liberty Brewery & Grill",
    "brewery_type": "brewpub",
    "address_1": "914 Mall Loop Rd",
    "address_2": null,
    "address_3": null,
    "city": "High Point",
    "state_province": "North Carolina",
    "postal_code": "27262-7654",
    "country": "United States",
    "longitude": null,
    "latitude": null,
    "phone": "3368824677",
    "website_url": "http://www.hp.libertybreweryandgrill.com",
    "state": "North Carolina",
    "street": "914 Mall Loop Rd"
  },
  {
    "id": "89d0d9f9-2826-4571-9a97-d4d4f32c2b5d",
    "name": "Liberty Craft Brewing",
    "brewery_type": "brewpub",
    "address_1": "7 Coon Mountain Ln",
    "address_2": null,
    "address_3": null,
    "city": "Liberty",
    "state_province": "Maine",
    "postal_code": "04949-3654",
    "country": "United States",
    "longitude": -69.33139756,
    "latitude": 44.36199964,
    "phone": "2073227663",
    "website_url": "http://www.libertycraftbrewing.com",
    "state": "Maine",
    "street": "7 Coon Mountain Ln"
  },
  {
    "id": "11ae6507-b5c7-47bd-80fa-02b057880ce2",
    "name": "Liberty Steakhouse and Brewery",
    "brewery_type": "brewpub",
    "address_1": "1321 Celebrity Cir",
    "address_2": null,
    "address_3": null,
    "city": "Myrtle Beach",
    "state_province": "South Carolina",
    "postal_code": "29577-7445",
    "country": "United States",
    "longitude": -78.87943206,
    "latitude": 33.71931324,
    "phone": "8436264677",
    "website_url": "http://www.libertybreweryandgrill.com/home",
    "state": "South Carolina",
    "street": "1321 Celebrity Cir"
  },
  {
    "id": "979248e5-f4cb-4077-8611-ea5b1c2a9b93",
    "name": "Liberty Street Brewing Co",
    "brewery_type": "micro",
    "address_1": "149 W Liberty St Ste 1",
    "address_2": null,
    "address_3": null,
    "city": "Plymouth",
    "state_province": "Michigan",
    "postal_code": "48170-8001",
    "country": "United States",
    "longitude": null,
    "latitude": null,
    "phone": "2487054171",
    "website_url": "http://www.libertystreetbeer.com",
    "state": "Michigan",
    "street": "149 W Liberty St Ste 1"
  },
  {
    "id": "06d4945e-56dd-41bf-af98-e3bf2ba4784e",
    "name": "Liberty Street Brewing Production Facility",
    "brewery_type": "micro",
    "address_1": "11721 Levan Rd",
    "address_2": null,
    "address_3": null,
    "city": "Livonia",
    "state_province": "Michigan",
    "postal_code": "48150-1401",
    "country": "United States",
    "longitude": -83.40169843,
    "latitude": 42.36866123,
    "phone": null,
    "website_url": null,
    "state": "Michigan",
    "street": "11721 Levan Rd"
  },
  {
    "id": "562fa562-87ba-4a7a-8fe1-b53b4de1e24e",
    "name": "Library Restaurant, Bar and Brewpub",
    "brewery_type": "brewpub",
    "address_1": "62 Isle Royale St",
    "address_2": null,
    "address_3": null,
    "city": "Houghton",
    "state_province": "Michigan",
    "postal_code": "49931-1827",
    "country": "United States",
    "longitude": -88.56701063,
    "latitude": 47.12215913,
    "phone": "9064875882",
    "website_url": "http://www.librarybrewpub.com",
    "state": "Michigan",
    "street": "62 Isle Royale St"
  },
  {
    "id": "b3c0e2b4-df8b-4332-9d45-b3df42c1de40",
    "name": "Library Sports Grille and Brewery",
    "brewery_type": "brewpub",
    "address_1": "201 E Custer St",
    "address_2": null,
    "address_3": null,
    "city": "Laramie",
    "state_province": "Wyoming",
    "postal_code": "82070-3633",
    "country": "United States",
    "longitude": -105.5947118,
    "latitude": 41.3093843,
    "phone": "3077420500",
    "website_url": "https://thelibrarybrewery.com",
    "state": "Wyoming",
    "street": "201 E Custer St"
  },
  {
    "id": "e8332f46-b446-4e25-a12e-d014adb38289",
    "name": "LIC Beer Project",
    "brewery_type": "micro",
    "address_1": "3928 23rd St",
    "address_2": null,
    "address_3": null,
    "city": "Long Island City",
    "state_province": "New York",
    "postal_code": "11101-4817",
    "country": "United States",
    "longitude": -73.942849,
    "latitude": 40.75063,
    "phone": "9178326840",
    "website_url": "http://licbeerproject.com",
    "state": "New York",
    "street": "3928 23rd St"
  },
  {
    "id": "8249e32d-981e-4f87-9dbd-bbf9dc6964a1",
    "name": "Lickinghole Creek Craft Brewery",
    "brewery_type": "micro",
    "address_1": "4100 Knolls Point Dr",
    "address_2": null,
    "address_3": null,
    "city": "Goochland",
    "state_province": "Virginia",
    "postal_code": "23063-2858",
    "country": "United States",
    "longitude": -78.0036966,
    "latitude": 37.7404672,
    "phone": "8043148717",
    "website_url": "http://www.lickingholecreek.com",
    "state": "Virginia",
    "street": "4100 Knolls Point Dr"
  },
  {
    "id": "75fcfbec-9b00-42d0-b102-d835345073e5",
    "name": "Lidl US LLC",
    "brewery_type": "contract",
    "address_1": "3500 S Clark St",
    "address_2": null,
    "address_3": null,
    "city": "Arlington",
    "state_province": "Virginia",
    "postal_code": "22202-4045",
    "country": "United States",
    "longitude": -77.051863,
    "latitude": 38.842856,
    "phone": null,
    "website_url": null,
    "state": "Virginia",
    "street": "3500 S Clark St"
  },
  {
    "id": "1aee8966-9383-49c6-a38f-aaa4f1fd3a6c",
    "name": "Lieferbrau Brewery LLC",
    "brewery_type": "micro",
    "address_1": "118 East Market Street",
    "address_2": null,
    "address_3": null,
    "city": "Red Bud",
    "state_province": "Illinois",
    "postal_code": "62278",
    "country": "United States",
    "longitude": -89.99352327,
    "latitude": 38.21165627,
    "phone": "6185348477",
    "website_url": null,
    "state": "Illinois",
    "street": "118 East Market Street"
  },
  {
    "id": "f1962bab-fd35-4329-9d64-7128cc394302",
    "name": "Life Brewpub",
    "brewery_type": "brewpub",
    "address_1": "2628 Richmond Rd",
    "address_2": null,
    "address_3": null,
    "city": "Lexington",
    "state_province": "Kentucky",
    "postal_code": "40509-1501",
    "country": "United States",
    "longitude": -84.43443,
    "latitude": 37.991255,
    "phone": "8592665433",
    "website_url": "http://www.LifeBrewpub.com",
    "state": "Kentucky",
    "street": "2628 Richmond Rd"
  },
  {
    "id": "63051dfb-b101-4b2a-9393-b70d089f1381",
    "name": "Lift Bridge Brewery",
    "brewery_type": "micro",
    "address_1": "1900 Tower Dr W",
    "address_2": null,
    "address_3": null,
    "city": "Stillwater",
    "state_province": "Minnesota",
    "postal_code": "55082-7515",
    "country": "United States",
    "longitude": -92.8317848,
    "latitude": 45.0391054,
    "phone": "8884302337",
    "website_url": "http://www.liftbridgebrewery.com",
    "state": "Minnesota",
    "street": "1900 Tower Dr W"
  },
  {
    "id": "0771ecda-e417-45d9-8494-82c254aa3f7d",
    "name": "Light the Lamp Brewery",
    "brewery_type": "micro",
    "address_1": "10 N Lake St Ste 107",
    "address_2": null,
    "address_3": null,
    "city": "Grayslake",
    "state_province": "Illinois",
    "postal_code": "60030-3636",
    "country": "United States",
    "longitude": null,
    "latitude": null,
    "phone": "8477528489",
    "website_url": "http://www.lightthelampbrewery.com",
    "state": "Illinois",
    "street": "10 N Lake St Ste 107"
  },
  {
    "id": "c555434b-91dd-402f-b594-dae761da73fa",
    "name": "Like Minds Brewing Co.",
    "brewery_type": "micro",
    "address_1": "823 E Hamilton St",
    "address_2": null,
    "address_3": null,
    "city": "Milwaukee",
    "state_province": "Wisconsin",
    "postal_code": "53202-1555",
    "country": "United States",
    "longitude": -87.90143961,
    "latitude": 43.0542106,
    "phone": "4142398587",
    "website_url": "http://www.likemindsbrewingco.com",
    "state": "Wisconsin",
    "street": "823 E Hamilton St"
  },
  {
    "id": "afa2d413-6c55-4c5b-abe0-31e305492138",
    "name": "Lil Beaver Brewery",
    "brewery_type": "micro",
    "address_1": "16 Currency Dr Unit B",
    "address_2": null,
    "address_3": null,
    "city": "Bloomington",
    "state_province": "Illinois",
    "postal_code": "61704-9632",
    "country": "United States",
    "longitude": null,
    "latitude": null,
    "phone": "3098082590",
    "website_url": "http://www.lilbeaverbrewery.com",
    "state": "Illinois",
    "street": "16 Currency Dr Unit B"
  },
  {
    "id": "a8e9cd3f-220f-4cf7-954c-6fc64705570b",
    "name": "Lil Paws Winery",
    "brewery_type": "micro",
    "address_1": "17574-A Mahoning Ave",
    "address_2": null,
    "address_3": null,
    "city": "Lake Milton",
    "state_province": "Ohio",
    "postal_code": "44429-9583",
    "country": "United States",
    "longitude": null,
    "latitude": null,
    "phone": "3309709463",
    "website_url": "http://www.lilpawswinery.com",
    "state": "Ohio",
    "street": "17574-A Mahoning Ave"
  },
  {
    "id": "35f5fb77-453a-4038-8124-cbe972f77f81",
    "name": "Lil' Charlie's Restaurant & Brewery",
    "brewery_type": "contract",
    "address_1": "504 E Pearl St",
    "address_2": null,
    "address_3": null,
    "city": "Batesville",
    "state_province": "Indiana",
    "postal_code": "47006-1585",
    "country": "United States",
    "longitude": -85.21614518,
    "latitude": 39.29564197,
    "phone": "8129346392",
    "website_url": "http://www.lilcharlies.com",
    "state": "Indiana",
    "street": "504 E Pearl St"
  }
]