[
  {
    "id": "151050ee-ccee-4ff2-98b3-4b2be567de2c",
    "name": "JagWine",
    "brewery_type": "bar",
    "address_1": "384 East Coast Road",
    "address_2": null,
    "address_3": null,
    "city": "Singapore",
    "state_province": "Singapore",
    "postal_code": "428988",
    "country": "Singapore",
    "longitude": 1.3088733714989,
    "latitude": 103.9116301,
    "phone": "+65 6348 1778",
    "website_url": "https://www.jagwine.com/",
    "state": "Singapore",
    "street": "384 East Coast Road"
  },
  {
    "id": "05ebd2ed-d854-4d35-918c-694451eed6d9",
    "name": "Jailbreak Brewing Company",
    "brewery_type": "micro",
    "address_1": "9445 Washington Blvd N Ste F",
    "address_2": null,
    "address_3": null,
    "city": "Laurel",
    "state_province": "Maryland",
    "postal_code": "20723-1380",
    "country": "United States",
    "longitude": null,
    "latitude": null,
    "phone": "4433459699",
    "website_url": "http://www.jailbreakbrewing.com",
    "state": "Maryland",
    "street": "9445 Washington Blvd N Ste F"
  },
  {
    "id": "2620bb33-78fe-4911-b4a5-3df64b547380",
    "name": "Jailhouse Brewing Co",
    "brewery_type": "micro",
    "address_1": "8 Cherry St",
    "address_2": null,
    "address_3": null,
    "city": "Hampton",
    "state_province": "Georgia",
    "postal_code": "30228-5575",
    "country": "United States",
    "longitude": -84.282374,
    "latitude": 33.387534,
    "phone": "4047297681",
    "website_url": "http://www.jailhousebrewing.com",
    "state": "Georgia",
    "street": "8 Cherry St"
  },
  {
    "id": "c52f614d-30de-455a-a0af-f0d29d5f70db",
    "name": "Jaipur Restaurant and Brewpub",
    "brewery_type": "brewpub",
    "address_1": "10922 Elm St",
    "address_2": null,
    "address_3": null,
    "city": "Omaha",
    "state_province": "Nebraska",
    "postal_code": "68144-4822",
    "country": "United States",
    "longitude": -96.08239397,
    "latitude": 41.23283768,
    "phone": "4023927331",
    "website_url": "http://www.jaipurbrewhouse.com",
    "state": "Nebraska",
    "street": "10922 Elm St"
  },
  {
    "id": "e33f24c1-438a-434d-ac79-d829faf1dc8b",
    "name": "JAKs Brewing Company",
    "brewery_type": "micro",
    "address_1": "11860 Stapleton Dr",
    "address_2": null,
    "address_3": null,
    "city": "Peyton",
    "state_province": "Colorado",
    "postal_code": "80831",
    "country": "United States",
    "longitude": null,
    "latitude": null,
    "phone": "7193751116",
    "website_url": "http://www.jaksbrewing.com",
    "state": "Colorado",
    "street": "11860 Stapleton Dr"
  },
  {
    "id": "b1351021-a901-4b9c-be60-a691bf42b730",
    "name": "Jam Room Brewing Co",
    "brewery_type": "micro",
    "address_1": "875 Main St",
    "address_2": null,
    "address_3": null,
    "city": "Newfoundland",
    "state_province": "Pennsylvania",
    "postal_code": "18445-5210",
    "country": "United States",
    "longitude": -75.32415972,
    "latitude": 41.3014372,
    "phone": "5702526122",
    "website_url": "http://www.jamroombrewing.net",
    "state": "Pennsylvania",
    "street": "875 Main St"
  },
  {
    "id": "ba029671-6ffc-4c6d-bac8-e6daed74efb5",
    "name": "James Peak Brewery",
    "brewery_type": "brewpub",
    "address_1": "70 E First St",
    "address_2": null,
    "address_3": null,
    "city": "Nederland",
    "state_province": "Colorado",
    "postal_code": "80466",
    "country": "United States",
    "longitude": null,
    "latitude": null,
    "phone": "3032589453",
    "website_url": "http://www.jamespeakbrew.com",
    "state": "Colorado",
    "street": "70 E First St"
  },
  {
    "id": "3b92be7f-cdff-41a9-b4bc-c96658727d57",
    "name": "James River Brewery",
    "brewery_type": "micro",
    "address_1": "561 Valley St",
    "address_2": null,
    "address_3": null,
    "city": "Scottsville",
    "state_province": "Virginia",
    "postal_code": "24590-4983",
    "country": "United States",
    "longitude": -78.49611667,
    "latitude": 37.80066298,
    "phone": "4342867837",
    "website_url": "http://www.jrbrewery.com/home.html",
    "state": "Virginia",
    "street": "561 Valley St"
  },
  {
    "id": "9c26b2c6-1017-4c43-876b-17f7a0d1afa5",
    "name": "Jamesport Brewing Co",
    "brewery_type": "brewpub",
    "address_1": "410 S James St",
    "address_2": null,
    "address_3": null,
    "city": "Ludington",
    "state_province": "Michigan",
    "postal_code": "49431-2159",
    "country": "United States",
    "longitude": -86.44787302,
    "latitude": 43.95168567,
    "phone": "2318452522",
    "website_url": "http://www.jamesportbrewingcompany.com",
    "state": "Michigan",
    "street": "410 S James St"
  },
  {
    "id": "187b8020-fa4f-435f-80f5-166764b9e1ca",
    "name": "Jamesport Farm Brewery",
    "brewery_type": "micro",
    "address_1": "5873 Sound Ave",
    "address_2": null,
    "address_3": null,
    "city": "Riverhead",
    "state_province": "New York",
    "postal_code": "11901-5611",
    "country": "United States",
    "longitude": -72.648395,
    "latitude": 40.96775,
    "phone": "6317228111",
    "website_url": "http://www.jamesportbrewhouse.com",
    "state": "New York",
    "street": "5873 Sound Ave"
  },
  {
    "id": "246a9990-7ca0-46ff-b735-a564fabaf8eb",
    "name": "Jamestown Brewing Company",
    "brewery_type": "planning",
    "address_1": null,
    "address_2": null,
    "address_3": null,
    "city": "Jamestown",
    "state_province": "New York",
    "postal_code": "14701-5110",
    "country": "United States",
    "longitude": null,
    "latitude": null,
    "phone": "7168644257",
    "website_url": null,
    "state": "New York",
    "street": null
  },
  {
    "id": "f5951169-a180-4970-aa22-28c534adf3a5",
    "name": "Jamex Brewing Co",
    "brewery_type": "micro",
    "address_1": "21721 Harper Ave",
    "address_2": null,
    "address_3": null,
    "city": "Saint Clair Shores",
    "state_province": "Michigan",
    "postal_code": "48080-2213",
    "country": "United States",
    "longitude": -82.8986171,
    "latitude": 42.5171113,
    "phone": "5869442030",
    "website_url": "http://www.jamexbrewing.com",
    "state": "Michigan",
    "street": "21721 Harper Ave"
  },
  {
    "id": "e6c1a3ed-0f8d-442b-a068-2afb8cb1d20f",
    "name": "Jamul Brewing Co. - Production Only",
    "brewery_type": "micro",
    "address_1": "3113 Calle Allejandro",
    "address_2": null,
    "address_3": null,
    "city": "Jamul",
    "state_province": "California",
    "postal_code": "91935-3108",
    "country": "United States",
    "longitude": -116.87742,
    "latitude": 32.709923,
    "phone": "6195179829",
    "website_url": "http://www.jamulbrewingco.com",
    "state": "California",
    "street": "3113 Calle Allejandro"
  },
  {
    "id": "f1a026c2-71d3-4675-a4d6-d94f9f4dfaae",
    "name": "Jarfly Brewing Co",
    "brewery_type": "micro",
    "address_1": "103 W Mount Vernon St",
    "address_2": null,
    "address_3": null,
    "city": "Somerset",
    "state_province": "Kentucky",
    "postal_code": "42501-1627",
    "country": "United States",
    "longitude": -84.60558001,
    "latitude": 37.09179504,
    "phone": "6064254962",
    "website_url": "http://www.jarflybrewing.com",
    "state": "Kentucky",
    "street": "103 W Mount Vernon St"
  },
  {
    "id": "bc25a7f0-db79-4f7c-b405-dbf468b39443",
    "name": "Jasper Ridge Brewing Co",
    "brewery_type": "brewpub",
    "address_1": "1075 Country Ln Ste 100",
    "address_2": null,
    "address_3": null,
    "city": "Ishpeming",
    "state_province": "Michigan",
    "postal_code": "49849-3402",
    "country": "United States",
    "longitude": -87.6791485,
    "latitude": 46.50148242,
    "phone": "9064856017",
    "website_url": "http://www.countryvillageresort.com/httpdocs/html/brewery.html",
    "state": "Michigan",
    "street": "1075 Country Ln Ste 100"
  },
  {
    "id": "0a1bb754-0318-4482-b8cf-5c4a568bd02f",
    "name": "Jaw Brew",
    "brewery_type": "micro",
    "address_1": "26 Crossveggate",
    "address_2": null,
    "address_3": null,
    "city": "Milngavie",
    "state_province": "East Dunbartonshire",
    "postal_code": "G62 6RA",
    "country": "Scotland",
    "longitude": -4.3131808,
    "latitude": 55.9408943,
    "phone": "7880690995",
    "website_url": "https://www.jawbrew.co.uk/",
    "state": "East Dunbartonshire",
    "street": "26 Crossveggate"
  },
  {
    "id": "1e7750e9-d014-407c-80ca-a3f70183a7b4",
    "name": "Jaworzy\u0144ski Browar Rzemie\u015blniczy Jauer",
    "brewery_type": "brewpub",
    "address_1": "Nowa Wie\u015b Legnicka 55B",
    "address_2": null,
    "address_3": null,
    "city": "Legnickie Pole",
    "state_province": "dolno\u015bl\u0105skie",
    "postal_code": "59-241",
    "country": "Poland",
    "longitude": 16.1744342,
    "latitude": 51.1555463,
    "phone": null,
    "website_url": null,
    "state": "dolno\u015bl\u0105skie",
    "street": "Nowa Wie\u015b Legnicka 55B"
  },
  {
    "id": "e9907162-94c6-4d12-983b-fa8ab96c7e5a",
    "name": "JC Brewhouse",
    "brewery_type": "closed",
    "address_1": null,
    "address_2": null,
    "address_3": null,
    "city": "Issaquah",
    "state_province": "Washington",
    "postal_code": "98029-8902",
    "country": "United States",
    "longitude": null,
    "latitude": null,
    "phone": "4252816502",
    "website_url": null,
    "state": "Washington",
    "street": null
  },
  {
    "id": "9d54b823-d300-4ccc-9cf9-8fcdb8dca252",
    "name": "JD's Sports Pub and Brewery",
    "brewery_type": "brewpub",
    "address_1": "690 Redwood Hwy",
    "address_2": null,
    "address_3": null,
    "city": "Grants Pass",
    "state_province": "Oregon",
    "postal_code": "97527-5582",
    "country": "United States",
    "longitude": -123.3420515,
    "latitude": 42.42319062,
    "phone": "5414710383",
    "website_url": "http://www.jdssportsbarandbrewery.com",
    "state": "Oregon",
    "street": "690 Redwood Hwy"
  },
  {
    "id": "723e9a14-cd3a-4193-908f-9c5b9eea143f",
    "name": "JDub's Brewing Co.",
    "brewery_type": "micro",
    "address_1": "1215 Mango Ave",
    "address_2": null,
    "address_3": null,
    "city": "Sarasota",
    "state_province": "Florida",
    "postal_code": "34237-2816",
    "country": "United States",
    "longitude": -82.52525823,
    "latitude": 27.34877798,
    "phone": "9419552739",
    "website_url": "http://www.jdubsbrewing.com",
    "state": "Florida",
    "street": "1215 Mango Ave"
  },
  {
    "id": "7a510870-1ac8-4f7c-9b9a-e112d990e8b2",
    "name": "Jekyll Brewing",
    "brewery_type": "micro",
    "address_1": "2855 Marconi Dr Ste 350",
    "address_2": null,
    "address_3": null,
    "city": "Alpharetta",
    "state_province": "Georgia",
    "postal_code": "30005-2051",
    "country": "United States",
    "longitude": -84.2536638,
    "latitude": 34.0816562,
    "phone": "7705968788",
    "website_url": "http://www.jekyllbrewing.com",
    "state": "Georgia",
    "street": "2855 Marconi Dr Ste 350"
  },
  {
    "id": "0bcac404-6a13-4b38-9036-df170eaaaf64",
    "name": "Jellyfish Brewing Company",
    "brewery_type": "micro",
    "address_1": "917 S Nebraska St",
    "address_2": null,
    "address_3": null,
    "city": "Seattle",
    "state_province": "Washington",
    "postal_code": "98108-2747",
    "country": "United States",
    "longitude": -122.3203471,
    "latitude": 47.54956765,
    "phone": "2063974999",
    "website_url": "http://www.jellyfishbrewing.com",
    "state": "Washington",
    "street": "917 S Nebraska St"
  },
  {
    "id": "961fd2c9-a4e9-4b3b-b7c5-3becc0c1ab5b",
    "name": "Jeremiah Johnson Brewing Company",
    "brewery_type": "brewpub",
    "address_1": "215 3rd St NW",
    "address_2": null,
    "address_3": null,
    "city": "Great Falls",
    "state_province": "Montana",
    "postal_code": "59404-4103",
    "country": "United States",
    "longitude": -111.3023947,
    "latitude": 47.50778029,
    "phone": "4067273947",
    "website_url": "http://www.jeremiahjohnsonbrewing.com",
    "state": "Montana",
    "street": "215 3rd St NW"
  },
  {
    "id": "84c68244-09d4-4c9a-8cfb-744cfe7fdd65",
    "name": "Jersey Girl Brewing Company",
    "brewery_type": "micro",
    "address_1": "426 Sand Shore Rd Unit 1",
    "address_2": null,
    "address_3": null,
    "city": "Hackettstown",
    "state_province": "New Jersey",
    "postal_code": "07840-5535",
    "country": "United States",
    "longitude": null,
    "latitude": null,
    "phone": "9085914186",
    "website_url": "http://www.jerseygirlbrewing.com",
    "state": "New Jersey",
    "street": "426 Sand Shore Rd Unit 1"
  },
  {
    "id": "30d25781-6bd5-4401-bf30-fbde7de4c15b",
    "name": "Jessup Farm Barrel House",
    "brewery_type": "micro",
    "address_1": "1921 Jessup Dr",
    "address_2": null,
    "address_3": null,
    "city": "Fort Collins",
    "state_province": "Colorado",
    "postal_code": "80525-2551",
    "country": "United States",
    "longitude": -105.0380013,
    "latitude": 40.5620458,
    "phone": "9705688345",
    "website_url": "http://jessupfarm.com/barrel-house/",
    "state": "Colorado",
    "street": "1921 Jessup Dr"
  },
  {
    "id": "e2139f79-90cb-4ca3-9f42-029569204f91",
    "name": "Jester King Brewery",
    "brewery_type": "micro",
    "address_1": "13187 Fitzhugh Rd",
    "address_2": null,
    "address_3": null,
    "city": "Austin",
    "state_province": "Texas",
    "postal_code": "78736-6510",
    "country": "United States",
    "longitude": -98.0824692,
    "latitude": 30.2547264,
    "phone": "5125375100",
    "website_url": "http://www.jesterkingbrewery.com",
    "state": "Texas",
    "street": "13187 Fitzhugh Rd"
  },
  {
    "id": "f60db593-2715-41e9-aa05-b8089f996e74",
    "name": "JGR Enterprises Inc",
    "brewery_type": "planning",
    "address_1": null,
    "address_2": null,
    "address_3": null,
    "city": "Omaha",
    "state_province": "Nebraska",
    "postal_code": "68135-6215",
    "country": "United States",
    "longitude": null,
    "latitude": null,
    "phone": "4028610174",
    "website_url": null,
    "state": "Nebraska",
    "street": null
  },
  {
    "id": "ee209064-11c6-4650-9e87-5bf9355eed33",
    "name": "Jig Head Brewing Company",
    "brewery_type": "micro",
    "address_1": "310 Newman Dr",
    "address_2": null,
    "address_3": null,
    "city": "Cookeville",
    "state_province": "Tennessee",
    "postal_code": "38501-4127",
    "country": "United States",
    "longitude": -85.5237389,
    "latitude": 36.14556179,
    "phone": "9315104406",
    "website_url": "http://www.jigheadbrewing.com",
    "state": "Tennessee",
    "street": "310 Newman Dr"
  },
  {
    "id": "e8c066e0-5d8a-485c-bedc-3ddd80d0129f",
    "name": "Jigsaw Brewing, LLC",
    "brewery_type": "planning",
    "address_1": null,
    "address_2": null,
    "address_3": null,
    "city": "High Point",
    "state_province": "North Carolina",
    "postal_code": "27260-5056",
    "country": "United States",
    "longitude": null,
    "latitude": null,
    "phone": null,
    "website_url": "http://www.jigsawbrewing.com",
    "state": "North Carolina",
    "street": null
  },
  {
    "id": "1fa23fcf-4e52-4d0d-a7a7-9719fd1a2058",
    "name": "Jigsy's Brewpub & Restaurant",
    "brewery_type": "brewpub",
    "address_1": "225 N Enola Rd",
    "address_2": null,
    "address_3": null,
    "city": "Enola",
    "state_province": "Pennsylvania",
    "postal_code": "17025-2414",
    "country": "United States",
    "longitude": null,
    "latitude": null,
    "phone": "7177327708",
    "website_url": "http://www.jigsyspizza.com",
    "state": "Pennsylvania",
    "street": "225 N Enola Rd"
  },
  {
    "id": "eb3620f7-5167-45bb-b2ba-47b0d2733e94",
    "name": "Jim Dandy Brewing",
    "brewery_type": "micro",
    "address_1": "305 E Lander St",
    "address_2": null,
    "address_3": null,
    "city": "Pocatello",
    "state_province": "Idaho",
    "postal_code": "83201",
    "country": "United States",
    "longitude": -112.4482702,
    "latitude": 42.8663043,
    "phone": "2082400470",
    "website_url": "http://www.jimdandybrewing.com",
    "state": "Idaho",
    "street": "305 E Lander St"
  },
  {
    "id": "27eacffe-b9f8-4312-818a-c2117a704ba0",
    "name": "JJs Brewing Company",
    "brewery_type": "brewpub",
    "address_1": "3615 n steele blvd",
    "address_2": null,
    "address_3": null,
    "city": "fayetteville",
    "state_province": "Arkansas",
    "postal_code": "72703",
    "country": "United States",
    "longitude": -94.15714342,
    "latitude": 36.11719055,
    "phone": "4792632562",
    "website_url": "http://www.thejbgb.com/",
    "state": "Arkansas",
    "street": "3615 n steele blvd"
  },
  {
    "id": "a0f8c970-e9d7-4844-83d1-8ce99ee4b9d3",
    "name": "JoBoy's Brew Pub",
    "brewery_type": "brewpub",
    "address_1": "27 E Main St",
    "address_2": null,
    "address_3": null,
    "city": "Lititz",
    "state_province": "Pennsylvania",
    "postal_code": "17543-1926",
    "country": "United States",
    "longitude": -76.3061545,
    "latitude": 40.1571224,
    "phone": "7175688330",
    "website_url": "http://www.joboysbrewpub.com",
    "state": "Pennsylvania",
    "street": "27 E Main St"
  },
  {
    "id": "389d305d-6099-4373-8e09-3c936c05944b",
    "name": "Johanssons Dining House",
    "brewery_type": "brewpub",
    "address_1": "4 W Main St",
    "address_2": null,
    "address_3": null,
    "city": "Westminster",
    "state_province": "Maryland",
    "postal_code": "21157-4816",
    "country": "United States",
    "longitude": -76.9959315,
    "latitude": 39.5753896,
    "phone": "4108760101",
    "website_url": "http://www.johanssonsdininghouse.com",
    "state": "Maryland",
    "street": "4 W Main St"
  },
  {
    "id": "45f45287-e619-4497-87cb-79fab92d6ef7",
    "name": "John Harvards Brew House - Framingham",
    "brewery_type": "brewpub",
    "address_1": "1 Worcester Rd",
    "address_2": null,
    "address_3": null,
    "city": "Framingham",
    "state_province": "Massachusetts",
    "postal_code": "01701-5359",
    "country": "United States",
    "longitude": -71.39619245,
    "latitude": 42.30411485,
    "phone": "5088752337",
    "website_url": "http://www.johnharvards.com",
    "state": "Massachusetts",
    "street": "1 Worcester Rd"
  },
  {
    "id": "5210079f-267a-4a16-b6f7-e459d8b88426",
    "name": "John S. Rhodell Brewery",
    "brewery_type": "micro",
    "address_1": "100 Walnut St Ste 111",
    "address_2": null,
    "address_3": null,
    "city": "Peoria",
    "state_province": "Illinois",
    "postal_code": "61602-1544",
    "country": "United States",
    "longitude": null,
    "latitude": null,
    "phone": "3099661047",
    "website_url": "http://www.rhodellbrewery.com",
    "state": "Illinois",
    "street": "100 Walnut St Ste 111"
  },
  {
    "id": "3a4dc5bd-ac82-444f-8869-cc2d8c38a41c",
    "name": "John Scott Brewing Co.",
    "brewery_type": "planning",
    "address_1": null,
    "address_2": null,
    "address_3": null,
    "city": "Trabuco Canyon",
    "state_province": "California",
    "postal_code": "92679-5145",
    "country": "United States",
    "longitude": -117.58938,
    "latitude": 33.6626232,
    "phone": "7144702055",
    "website_url": null,
    "state": "California",
    "street": null
  },
  {
    "id": "6a5490c6-bcdc-489e-ae51-f917ce73f468",
    "name": "Johnnie Byrd Brewing Company",
    "brewery_type": "micro",
    "address_1": "121 N Pearl St",
    "address_2": null,
    "address_3": null,
    "city": "Wayne",
    "state_province": "Nebraska",
    "postal_code": "68787-1932",
    "country": "United States",
    "longitude": -97.0191502,
    "latitude": 42.2294276,
    "phone": "4028331522",
    "website_url": "http://www.johnniebyrd.beer",
    "state": "Nebraska",
    "street": "121 N Pearl St"
  },
  {
    "id": "646eff4c-0945-4b2d-acda-dafee1142c70",
    "name": "Johnnie MacCracken's Celtic Firehouse Pub, Inc.",
    "brewery_type": "brewpub",
    "address_1": "15 Atlanta Street",
    "address_2": null,
    "address_3": null,
    "city": "Marietta",
    "state_province": "Georgia",
    "postal_code": "30060-1985",
    "country": "United States",
    "longitude": -84.5417592,
    "latitude": 33.9371282,
    "phone": "7705907868",
    "website_url": "http://www.johnniemaccrackens.com",
    "state": "Georgia",
    "street": "15 Atlanta Street"
  },
  {
    "id": "17e63f2a-c464-46e1-a841-04d0b8b6342d",
    "name": "Johnny's Calistoga / Mud City Brews",
    "brewery_type": "brewpub",
    "address_1": "1457 Lincoln Ave",
    "address_2": null,
    "address_3": null,
    "city": "Calistoga",
    "state_province": "California",
    "postal_code": "94515",
    "country": "United States",
    "longitude": -122.579054,
    "latitude": 38.578753,
    "phone": "7079425938",
    "website_url": "http://www.johnnyscalistoga.com",
    "state": "California",
    "street": "1457 Lincoln Ave"
  },
  {
    "id": "436ddc22-bd9b-4633-86a9-c5cec2d432ea",
    "name": "Johnson City Brewing Co",
    "brewery_type": "micro",
    "address_1": "410 E State of Franklin Rd",
    "address_2": null,
    "address_3": null,
    "city": "Johnson City",
    "state_province": "Tennessee",
    "postal_code": "37601-4871",
    "country": "United States",
    "longitude": -82.34636962,
    "latitude": 36.31715951,
    "phone": "4239304186",
    "website_url": "http://www.johnsoncitybrewing.com",
    "state": "Tennessee",
    "street": "410 E State of Franklin Rd"
  },
  {
    "id": "6edc70c0-9b5a-4ab6-8b2f-0d2b1e46e2bb",
    "name": "Jolly Pumpkin Artisan Ales",
    "brewery_type": "micro",
    "address_1": "2319 Bishop Cir E",
    "address_2": null,
    "address_3": null,
    "city": "Dexter",
    "state_province": "Michigan",
    "postal_code": "48130-1567",
    "country": "United States",
    "longitude": -83.87683682,
    "latitude": 42.32487277,
    "phone": "7344264962",
    "website_url": "http://www.jollypumpkin.com",
    "state": "Michigan",
    "street": "2319 Bishop Cir E"
  },
  {
    "id": "fc6aa7bd-8e48-4ff6-814d-ee16cfa86fc5",
    "name": "Jolly Pumpkin Cafe and Brewery",
    "brewery_type": "brewpub",
    "address_1": "311 S Main St",
    "address_2": null,
    "address_3": null,
    "city": "Ann Arbor",
    "state_province": "Michigan",
    "postal_code": "48104-2107",
    "country": "United States",
    "longitude": -83.7484551,
    "latitude": 42.2791598,
    "phone": "7349132730",
    "website_url": "http://www.jollypumpkin.com",
    "state": "Michigan",
    "street": "311 S Main St"
  },
  {
    "id": "d35177e2-9b5b-4677-b05f-860a1a3b48e4",
    "name": "Jolly Pumpkin Pizzeria and Brewery",
    "brewery_type": "brewpub",
    "address_1": "428 Bridge St NW",
    "address_2": null,
    "address_3": null,
    "city": "Grand Rapids",
    "state_province": "Michigan",
    "postal_code": "49504",
    "country": "United States",
    "longitude": -85.6800865,
    "latitude": 42.970511,
    "phone": "6164194676",
    "website_url": null,
    "state": "Michigan",
    "street": "428 Bridge St NW"
  },
  {
    "id": "40500db9-a3c6-44b5-b7d3-b4fee71c5f48",
    "name": "Jolly Pumpkin Restaurant, Brewery & Distillery",
    "brewery_type": "micro",
    "address_1": "13512 Peninsula Dr Old Mission Peninsula",
    "address_2": null,
    "address_3": null,
    "city": "Traverse City",
    "state_province": "Michigan",
    "postal_code": "49686-9717",
    "country": "United States",
    "longitude": null,
    "latitude": null,
    "phone": "2312234333",
    "website_url": "http://www.jollypumpkin.com",
    "state": "Michigan",
    "street": "13512 Peninsula Dr Old Mission Peninsula"
  },
  {
    "id": "50265193-672b-4d13-9d9a-0344fe4d074c",
    "name": "Jolly Roger Brew",
    "brewery_type": "micro",
    "address_1": "236 Raceway Dr Ste 12",
    "address_2": null,
    "address_3": null,
    "city": "Mooresville",
    "state_province": "North Carolina",
    "postal_code": "28117-6518",
    "country": "United States",
    "longitude": null,
    "latitude": null,
    "phone": "9194128132",
    "website_url": "http://www.jollyrogerbrew.com",
    "state": "North Carolina",
    "street": "236 Raceway Dr Ste 12"
  },
  {
    "id": "c7e84585-1dd0-4edb-86e9-283a6afd12ff",
    "name": "Jones Brewing Co",
    "brewery_type": "contract",
    "address_1": "254 Second Street",
    "address_2": null,
    "address_3": null,
    "city": "Smithton",
    "state_province": "Pennsylvania",
    "postal_code": "15479-0746",
    "country": "United States",
    "longitude": null,
    "latitude": null,
    "phone": null,
    "website_url": "http://www.stoneysbeer.com",
    "state": "Pennsylvania",
    "street": "254 Second Street"
  },
  {
    "id": "520af123-af19-47b9-bb8b-c3b48514ebec",
    "name": "Jones Creek Brewing",
    "brewery_type": "micro",
    "address_1": "173 Beam Rd",
    "address_2": null,
    "address_3": null,
    "city": "Chehalis",
    "state_province": "Washington",
    "postal_code": "98532-9303",
    "country": "United States",
    "longitude": -123.2774,
    "latitude": 46.588152,
    "phone": "3602453429",
    "website_url": "http://www.jonescreekbrewing.com",
    "state": "Washington",
    "street": "173 Beam Rd"
  },
  {
    "id": "da1cdce4-f03a-42cd-bea5-9174991e9127",
    "name": "Jordan Lake Brewing Co",
    "brewery_type": "micro",
    "address_1": "320 E Durham Rd",
    "address_2": null,
    "address_3": null,
    "city": "Cary",
    "state_province": "North Carolina",
    "postal_code": "27513-4043",
    "country": "United States",
    "longitude": -78.77537897,
    "latitude": 35.79022306,
    "phone": "9196945096",
    "website_url": "http://jordanlakebrewing.com",
    "state": "North Carolina",
    "street": "320 E Durham Rd"
  },
  {
    "id": "2b241add-edd2-4e62-98bf-038700e8e775",
    "name": "Joseph James Brewing Co, Inc",
    "brewery_type": "micro",
    "address_1": "155 N Gibson Rd",
    "address_2": null,
    "address_3": null,
    "city": "Henderson",
    "state_province": "Nevada",
    "postal_code": "89014-6713",
    "country": "United States",
    "longitude": -115.0294086,
    "latitude": 36.04146875,
    "phone": "7024542739",
    "website_url": "http://www.jjbrewco.com",
    "state": "Nevada",
    "street": "155 N Gibson Rd"
  }
]