[
  {
    "id": "3de678fa-0f47-4f10-8fb5-a74146614407",
    "name": "Black Walnut Brewery",
    "brewery_type": "micro",
    "address_1": "210 S King St",
    "address_2": null,
    "address_3": null,
    "city": "Leesburg",
    "state_province": "Virginia",
    "postal_code": "20175-3010",
    "country": "United States",
    "longitude": -77.5649731,
    "latitude": 39.1127558,
    "phone": "7037719474",
    "website_url": null,
    "state": "Virginia",
    "street": "210 S King St"
  },
  {
    "id": "f0798955-8b91-4b1f-bed3-995467ca5700",
    "name": "Black Warrior Brewing Co.",
    "brewery_type": "micro",
    "address_1": "2216 University Blvd",
    "address_2": null,
    "address_3": null,
    "city": "Tuscaloosa",
    "state_province": "Alabama",
    "postal_code": "35401-1542",
    "country": "United States",
    "longitude": -87.565915,
    "latitude": 33.21061755,
    "phone": null,
    "website_url": "http://www.blackwarriorbrewing.com",
    "state": "Alabama",
    "street": "2216 University Blvd"
  },
  {
    "id": "08bc0229-4621-4ddd-a27e-8da88d0a5800",
    "name": "Black Wolf Brewing LLC",
    "brewery_type": "planning",
    "address_1": null,
    "address_2": null,
    "address_3": null,
    "city": "Pocono Pines",
    "state_province": "Pennsylvania",
    "postal_code": "18350",
    "country": "United States",
    "longitude": null,
    "latitude": null,
    "phone": null,
    "website_url": null,
    "state": "Pennsylvania",
    "street": null
  },
  {
    "id": "bf4605ce-568b-4442-a8e0-41d0d261b451",
    "name": "Blackadder Brewing Company",
    "brewery_type": "micro",
    "address_1": "618 NW 60th St Ste A",
    "address_2": null,
    "address_3": null,
    "city": "Gainesville",
    "state_province": "Florida",
    "postal_code": "32607-6014",
    "country": "United States",
    "longitude": null,
    "latitude": null,
    "phone": "3523390324",
    "website_url": "http://www.blackadderbrewing.com",
    "state": "Florida",
    "street": "618 NW 60th St Ste A"
  },
  {
    "id": "df62d3a5-46ff-40e3-9f81-e35c286a4a94",
    "name": "Blackbeard's Brewing Company",
    "brewery_type": "brewpub",
    "address_1": "700 W Ocean Ave",
    "address_2": null,
    "address_3": null,
    "city": "Westport",
    "state_province": "Washington",
    "postal_code": "98595-9603",
    "country": "United States",
    "longitude": -124.1175413,
    "latitude": 46.8867861,
    "phone": "3602687662",
    "website_url": "http://www.blackbeardsbrewing.com",
    "state": "Washington",
    "street": "700 W Ocean Ave"
  },
  {
    "id": "99642888-e928-4aa2-a7a0-655aa43c6293",
    "name": "Blackberry Farm Brewery",
    "brewery_type": "micro",
    "address_1": "910 E Harper Ave",
    "address_2": null,
    "address_3": null,
    "city": "Maryville",
    "state_province": "Tennessee",
    "postal_code": "37804-4023",
    "country": "United States",
    "longitude": -83.965755,
    "latitude": 35.762562,
    "phone": "8659848166",
    "website_url": "http://www.blackberryfarm.com",
    "state": "Tennessee",
    "street": "910 E Harper Ave"
  },
  {
    "id": "a7b62684-c1ff-470b-8f59-d6198987a2d0",
    "name": "Blackfoot River Brewing Co",
    "brewery_type": "micro",
    "address_1": "66 S Park Ave",
    "address_2": null,
    "address_3": null,
    "city": "Helena",
    "state_province": "Montana",
    "postal_code": "59601-6271",
    "country": "United States",
    "longitude": -112.0417121,
    "latitude": 46.5862933,
    "phone": "4064493005",
    "website_url": "http://www.blackfootriverbrewing.com",
    "state": "Montana",
    "street": "66 S Park Ave"
  },
  {
    "id": "197c0988-b236-4432-90ad-da75db44166d",
    "name": "Blackhorse Brewery",
    "brewery_type": "planning",
    "address_1": null,
    "address_2": null,
    "address_3": null,
    "city": "Alcoa",
    "state_province": "Tennessee",
    "postal_code": "37701",
    "country": "United States",
    "longitude": null,
    "latitude": null,
    "phone": null,
    "website_url": null,
    "state": "Tennessee",
    "street": null
  },
  {
    "id": "847d8d94-eb0a-4bd3-8941-bbc92f0311ad",
    "name": "Blackhorse Pub and Brewery",
    "brewery_type": "brewpub",
    "address_1": "132 Franklin St",
    "address_2": null,
    "address_3": null,
    "city": "Clarksville",
    "state_province": "Tennessee",
    "postal_code": "37040-3438",
    "country": "United States",
    "longitude": -87.3588994,
    "latitude": 36.52735085,
    "phone": "9315523726",
    "website_url": "http://www.blackhorsebrews.com",
    "state": "Tennessee",
    "street": "132 Franklin St"
  },
  {
    "id": "908f6fa3-531d-4413-9134-09d24b652a5c",
    "name": "Blackhorse Pub and Brewery -  Knoxville",
    "brewery_type": "brewpub",
    "address_1": "4429 Kingston Pike",
    "address_2": null,
    "address_3": null,
    "city": "Knoxville",
    "state_province": "Tennessee",
    "postal_code": "37919-5252",
    "country": "United States",
    "longitude": -84.0443634,
    "latitude": 35.9259722,
    "phone": "8652498511",
    "website_url": "http://www.theblackhorsepub.net",
    "state": "Tennessee",
    "street": "4429 Kingston Pike"
  },
  {
    "id": "48e1320e-3669-41d7-8bd3-c39df498a970",
    "name": "Blacklist Artisan Ales",
    "brewery_type": "micro",
    "address_1": "120 E Superior St",
    "address_2": null,
    "address_3": null,
    "city": "Duluth",
    "state_province": "Minnesota",
    "postal_code": "55802-2116",
    "country": "United States",
    "longitude": -92.09596598,
    "latitude": 46.7882669,
    "phone": "2183109368",
    "website_url": "http://www.blacklistbeer.com",
    "state": "Minnesota",
    "street": "120 E Superior St"
  },
  {
    "id": "a3da9d07-5d9c-4bb5-998d-71d01fe752e4",
    "name": "BlackRock Brewers",
    "brewery_type": "micro",
    "address_1": "1664 S Research Loop Ste 200",
    "address_2": null,
    "address_3": null,
    "city": "Tucson",
    "state_province": "Arizona",
    "postal_code": "85710-6767",
    "country": "United States",
    "longitude": -110.8217786,
    "latitude": 32.20160831,
    "phone": "5202073203",
    "website_url": "http://www.brb.beer",
    "state": "Arizona",
    "street": "1664 S Research Loop Ste 200"
  },
  {
    "id": "4da03934-2c69-466f-9f84-937efbc8b74a",
    "name": "Blackrocks Brewery",
    "brewery_type": "micro",
    "address_1": "424 N 3rd St",
    "address_2": null,
    "address_3": null,
    "city": "Marquette",
    "state_province": "Michigan",
    "postal_code": "49855-3555",
    "country": "United States",
    "longitude": -87.39462133,
    "latitude": 46.5464589,
    "phone": "9062731333",
    "website_url": "http://www.blackrocksbrewery.com",
    "state": "Michigan",
    "street": "424 N 3rd St"
  },
  {
    "id": "e6d1cb57-2a2e-4ec1-a91d-dab1b0b2a3cc",
    "name": "Blackrocks Brewery - Production Facility",
    "brewery_type": "micro",
    "address_1": "950 W Washington St",
    "address_2": null,
    "address_3": null,
    "city": "Marquette",
    "state_province": "Michigan",
    "postal_code": "49855-4019",
    "country": "United States",
    "longitude": -87.41368794,
    "latitude": 46.54594024,
    "phone": "9062731333",
    "website_url": "http://www.blackrocksbrewery.com",
    "state": "Michigan",
    "street": "950 W Washington St"
  },
  {
    "id": "4954a924-9efc-45c1-87c7-d931b7992bcb",
    "name": "Blacks Brewery",
    "brewery_type": "micro",
    "address_1": "Farm Lane",
    "address_2": "Knocknabohilly",
    "address_3": null,
    "city": "Kinsale",
    "state_province": "Cork",
    "postal_code": "P17 XW70",
    "country": "Ireland",
    "longitude": -8.515723944,
    "latitude": 51.71109933,
    "phone": "353873881074",
    "website_url": "https://www.blacksbrewery.com/",
    "state": "Cork",
    "street": "Farm Lane"
  },
  {
    "id": "e14896e7-fade-424f-97d7-4f620406b5f7",
    "name": "Blacksmith Brewing Co",
    "brewery_type": "micro",
    "address_1": "114 Main St",
    "address_2": null,
    "address_3": null,
    "city": "Stevensville",
    "state_province": "Montana",
    "postal_code": "59870-2109",
    "country": "United States",
    "longitude": -114.0929303,
    "latitude": 46.51154971,
    "phone": "4067770680",
    "website_url": "http://www.blacksmithbrewing.com",
    "state": "Montana",
    "street": "114 Main St"
  },
  {
    "id": "d306cd9b-40d8-4be9-9581-5ad25289c9d4",
    "name": "BlackStack Brewing",
    "brewery_type": "micro",
    "address_1": "755 Prior Ave N Ste 110",
    "address_2": null,
    "address_3": null,
    "city": "Saint Paul",
    "state_province": "Minnesota",
    "postal_code": "55104-1064",
    "country": "United States",
    "longitude": null,
    "latitude": null,
    "phone": "6123692932",
    "website_url": "http://www.blackstackbrewing.com",
    "state": "Minnesota",
    "street": "755 Prior Ave N Ste 110"
  },
  {
    "id": "6f2cc06f-175c-4b85-89fd-7da62e1959a7",
    "name": "Blackstone Brewing Co",
    "brewery_type": "micro",
    "address_1": "2312 Clifton Ave",
    "address_2": null,
    "address_3": null,
    "city": "Nashville",
    "state_province": "Tennessee",
    "postal_code": "37209-4115",
    "country": "United States",
    "longitude": -86.80974363,
    "latitude": 36.15796783,
    "phone": "6153209002",
    "website_url": "http://blackstonebrewery.com",
    "state": "Tennessee",
    "street": "2312 Clifton Ave"
  },
  {
    "id": "b248192a-f86e-4dbd-a324-0a71424f2656",
    "name": "Blackwater Brewing Co",
    "brewery_type": "micro",
    "address_1": "912 William Ave",
    "address_2": null,
    "address_3": null,
    "city": "Davis",
    "state_province": "West Virginia",
    "postal_code": "26260-0356",
    "country": "United States",
    "longitude": -79.4695264,
    "latitude": 39.1274943,
    "phone": "3042098118",
    "website_url": "http://www.BlackwaterBrewingWV.com",
    "state": "West Virginia",
    "street": "912 William Ave"
  },
  {
    "id": "cb8add44-ed44-445c-911b-14d6c5363fd0",
    "name": "Blackwater Draw Brewing Company",
    "brewery_type": "brewpub",
    "address_1": "701 N Main",
    "address_2": null,
    "address_3": null,
    "city": "Bryan",
    "state_province": "Texas",
    "postal_code": "77803",
    "country": "United States",
    "longitude": -96.35277742,
    "latitude": 30.6580876,
    "phone": "9797046191",
    "website_url": "http://www.blackwaterbrew.com",
    "state": "Texas",
    "street": "701 N Main"
  },
  {
    "id": "6dd11447-9e89-49f2-8c7e-5332653968db",
    "name": "Blaker Brewing",
    "brewery_type": "micro",
    "address_1": "1063 Montcalire Dr",
    "address_2": null,
    "address_3": null,
    "city": "Ceres",
    "state_province": "California",
    "postal_code": "95307",
    "country": "United States",
    "longitude": -120.9797388,
    "latitude": 37.57642992,
    "phone": "2095854040",
    "website_url": "http://www.blakerbrewing.com",
    "state": "California",
    "street": "1063 Montcalire Dr"
  },
  {
    "id": "3b7eac5f-539f-4a65-9066-1558446f68b7",
    "name": "Blank Canvas Brewery",
    "brewery_type": "micro",
    "address_1": "46 Betton St Ste 3",
    "address_2": null,
    "address_3": null,
    "city": "Brewer",
    "state_province": "Maine",
    "postal_code": "04412-2636",
    "country": "United States",
    "longitude": null,
    "latitude": null,
    "phone": null,
    "website_url": "http://www.blankcanvasbrewery.wordpress.com",
    "state": "Maine",
    "street": "46 Betton St Ste 3"
  },
  {
    "id": "4ab37f9a-f9dc-4fba-8b59-581c8968c668",
    "name": "Blasted Barley Beer Company",
    "brewery_type": "brewpub",
    "address_1": "404 S Mill Ave Ste 101",
    "address_2": null,
    "address_3": null,
    "city": "Tempe",
    "state_province": "Arizona",
    "postal_code": "85281-2879",
    "country": "United States",
    "longitude": null,
    "latitude": null,
    "phone": "4809675887",
    "website_url": "http://www.blastedbarley.com",
    "state": "Arizona",
    "street": "404 S Mill Ave Ste 101"
  },
  {
    "id": "a7343f5b-f031-4150-9ec0-cfb868ca7565",
    "name": "Blasty Bough Brewing Company",
    "brewery_type": "micro",
    "address_1": "3 Griffin Rd",
    "address_2": null,
    "address_3": null,
    "city": "Epsom",
    "state_province": "New Hampshire",
    "postal_code": "03234-4816",
    "country": "United States",
    "longitude": -71.2932629,
    "latitude": 43.20382502,
    "phone": "6037384717",
    "website_url": "http://www.blastybough.com",
    "state": "New Hampshire",
    "street": "3 Griffin Rd"
  },
  {
    "id": "9be2e661-7d9a-4445-b1b9-6a420a047407",
    "name": "Blazing Tree Brewery",
    "brewery_type": "micro",
    "address_1": "11426 Rojas Dr Ste A13",
    "address_2": null,
    "address_3": null,
    "city": "El Paso",
    "state_province": "Texas",
    "postal_code": "79936-6486",
    "country": "United States",
    "longitude": null,
    "latitude": null,
    "phone": "9153073627",
    "website_url": null,
    "state": "Texas",
    "street": "11426 Rojas Dr Ste A13"
  },
  {
    "id": "967e2ae2-4955-4372-94ca-88fb0db58df7",
    "name": "Bleeding Heart Brewery",
    "brewery_type": "closed",
    "address_1": "1150 S Colony Way Ste 3 Pmb 618",
    "address_2": null,
    "address_3": null,
    "city": "Palmer",
    "state_province": "Alaska",
    "postal_code": "99645-6972",
    "country": "United States",
    "longitude": -149.109799,
    "latitude": 61.601303,
    "phone": "7609172417",
    "website_url": "http://facebook.com/bleedingheartbrewery",
    "state": "Alaska",
    "street": "1150 S Colony Way Ste 3 Pmb 618"
  },
  {
    "id": "224f2344-53ec-4ef1-87f3-a9fa24f00931",
    "name": "Blewett Brewing Company",
    "brewery_type": "brewpub",
    "address_1": "911 Commercial St",
    "address_2": null,
    "address_3": null,
    "city": "Leavenworth",
    "state_province": "Washington",
    "postal_code": "98826-1494",
    "country": "United States",
    "longitude": -120.6599479,
    "latitude": 47.59518806,
    "phone": "5098888809",
    "website_url": "http://www.blewettbrew.com",
    "state": "Washington",
    "street": "911 Commercial St"
  },
  {
    "id": "2a08f3ad-f6fc-442f-979a-2dbadd0c3c28",
    "name": "Blind Bat Brewery LLC, The",
    "brewery_type": "micro",
    "address_1": "420 Harrison Dr",
    "address_2": null,
    "address_3": null,
    "city": "Centerport",
    "state_province": "New York",
    "postal_code": "11721-1216",
    "country": "United States",
    "longitude": -73.38113106,
    "latitude": 40.8959081,
    "phone": "6318917909",
    "website_url": "http://www.BlindBatBrewery.com",
    "state": "New York",
    "street": "420 Harrison Dr"
  },
  {
    "id": "c8613358-8e0b-4ac7-8859-46f1efc36fd1",
    "name": "Blind Owl Brewery",
    "brewery_type": "brewpub",
    "address_1": "5014 E 62nd St",
    "address_2": null,
    "address_3": null,
    "city": "Indianapolis",
    "state_province": "Indiana",
    "postal_code": "46220-5228",
    "country": "United States",
    "longitude": null,
    "latitude": null,
    "phone": "3179241000",
    "website_url": "http://www.blindowlbrewery.com",
    "state": "Indiana",
    "street": "5014 E 62nd St"
  },
  {
    "id": "67836207-49ed-4d67-8dca-8f66acdcbb00",
    "name": "Blind Pig Brewery",
    "brewery_type": "brewpub",
    "address_1": "120 N Neil St",
    "address_2": null,
    "address_3": null,
    "city": "Champaign",
    "state_province": "Illinois",
    "postal_code": "61820-4023",
    "country": "United States",
    "longitude": -88.24341082,
    "latitude": 40.11714609,
    "phone": "2173985133",
    "website_url": "http://www.blindpigbrewery.com",
    "state": "Illinois",
    "street": "120 N Neil St"
  },
  {
    "id": "f2972e73-5167-41ea-ab23-08c16ec14221",
    "name": "Blind Squirrel Brewery",
    "brewery_type": "micro",
    "address_1": "4716 South US Highway 19 E Suite B",
    "address_2": null,
    "address_3": null,
    "city": "Plumtree",
    "state_province": "North Carolina",
    "postal_code": "28664-0173",
    "country": "United States",
    "longitude": null,
    "latitude": null,
    "phone": "8287652739",
    "website_url": "http://www.blindsquirrelbrewery.com",
    "state": "North Carolina",
    "street": "4716 South US Highway 19 E Suite B"
  },
  {
    "id": "789c9614-dbbd-473e-a5d8-7c881dfa5e51",
    "name": "Blind Tiger Brewery & Restaurant",
    "brewery_type": "brewpub",
    "address_1": "417 SW 37th St",
    "address_2": null,
    "address_3": null,
    "city": "Topeka",
    "state_province": "Kansas",
    "postal_code": "66611-2354",
    "country": "United States",
    "longitude": -95.6846745,
    "latitude": 39.0002602,
    "phone": "7852672739",
    "website_url": "http://www.blindtiger.com",
    "state": "Kansas",
    "street": "417 SW 37th St"
  },
  {
    "id": "83078530-df39-4a88-bbac-362f1253a43a",
    "name": "Block 15",
    "brewery_type": "brewpub",
    "address_1": "300 SW Jefferson Ave",
    "address_2": null,
    "address_3": null,
    "city": "Corvallis",
    "state_province": "Oregon",
    "postal_code": "97333-4607",
    "country": "United States",
    "longitude": -123.262222,
    "latitude": 44.5622701,
    "phone": "5417582077",
    "website_url": null,
    "state": "Oregon",
    "street": "300 SW Jefferson Ave"
  },
  {
    "id": "df8022a7-1cbc-4e06-a5e5-c163fcfa3ce1",
    "name": "Block 15 Brewery & Tap Room",
    "brewery_type": "brewpub",
    "address_1": "3415 SW Deschutes St",
    "address_2": null,
    "address_3": null,
    "city": "Corvallis",
    "state_province": "Oregon",
    "postal_code": "97333-9283",
    "country": "United States",
    "longitude": -123.269049,
    "latitude": 44.5305284,
    "phone": "5417522337",
    "website_url": "http://www.block15.com",
    "state": "Oregon",
    "street": "3415 SW Deschutes St"
  },
  {
    "id": "7e39a579-8605-49a5-9988-a4d594650d1e",
    "name": "Block Brewing Company",
    "brewery_type": "brewpub",
    "address_1": "1140 S Michigan Ave",
    "address_2": null,
    "address_3": null,
    "city": "Howell",
    "state_province": "Michigan",
    "postal_code": "48843-2669",
    "country": "United States",
    "longitude": -83.931806,
    "latitude": 42.603858,
    "phone": null,
    "website_url": "http://www.blockbrewingcompany.com",
    "state": "Michigan",
    "street": "1140 S Michigan Ave"
  },
  {
    "id": "b5c811b0-dcf0-42d2-801b-74b0519227e5",
    "name": "Bloom Brew",
    "brewery_type": "micro",
    "address_1": "100 Riverside Dr",
    "address_2": null,
    "address_3": null,
    "city": "West Newton",
    "state_province": "Pennsylvania",
    "postal_code": "15089-1542",
    "country": "United States",
    "longitude": -79.768066,
    "latitude": 40.210228,
    "phone": "7243224494",
    "website_url": "http://www.bloombrew.com",
    "state": "Pennsylvania",
    "street": "100 Riverside Dr"
  },
  {
    "id": "08270e49-04d2-43a5-ae56-f9025f60668a",
    "name": "Bloomer Brewing Co",
    "brewery_type": "micro",
    "address_1": "1103 9th Ave",
    "address_2": null,
    "address_3": null,
    "city": "Bloomer",
    "state_province": "Wisconsin",
    "postal_code": "54724-1409",
    "country": "United States",
    "longitude": -91.48668085784,
    "latitude": 45.107450904119,
    "phone": "7159334995",
    "website_url": null,
    "state": "Wisconsin",
    "street": "1103 9th Ave"
  },
  {
    "id": "0b768b24-8163-4b21-a633-ef4dad76b501",
    "name": "Bloomington Brewing Co",
    "brewery_type": "brewpub",
    "address_1": "1795 E 10th St",
    "address_2": null,
    "address_3": null,
    "city": "Bloomington",
    "state_province": "Indiana",
    "postal_code": "47407-6955",
    "country": "United States",
    "longitude": -86.51136673,
    "latitude": 39.1720504,
    "phone": "8123392256",
    "website_url": null,
    "state": "Indiana",
    "street": "1795 E 10th St"
  },
  {
    "id": "b63e1e54-3e7d-4755-a513-0792ab9e4d12",
    "name": "Bloomington Brewing Co - Production Facility",
    "brewery_type": "micro",
    "address_1": "2234 West Industrial Drive",
    "address_2": null,
    "address_3": null,
    "city": "Bloomington",
    "state_province": "Indiana",
    "postal_code": "47404",
    "country": "United States",
    "longitude": null,
    "latitude": null,
    "phone": "8126992005",
    "website_url": "http://www.bbcbloomington.com",
    "state": "Indiana",
    "street": "2234 West Industrial Drive"
  },
  {
    "id": "22ef447a-0379-4be5-ab93-72d95e4a778a",
    "name": "Blowing Rock Brewing Company",
    "brewery_type": "brewpub",
    "address_1": "152 Sunset Dr",
    "address_2": null,
    "address_3": null,
    "city": "Blowing Rock",
    "state_province": "North Carolina",
    "postal_code": "28605-7205",
    "country": "United States",
    "longitude": -81.677229,
    "latitude": 36.1327196,
    "phone": "8284149600",
    "website_url": "http://www.blowingrockbrewing.com",
    "state": "North Carolina",
    "street": "152 Sunset Dr"
  },
  {
    "id": "68f388b7-f7ed-4ece-8968-879d2846b189",
    "name": "Blue Blaze Brewing",
    "brewery_type": "micro",
    "address_1": "528 S Turner Ave",
    "address_2": null,
    "address_3": null,
    "city": "Charlotte",
    "state_province": "North Carolina",
    "postal_code": "28208-4259",
    "country": "United States",
    "longitude": -80.86710843,
    "latitude": 35.24138809,
    "phone": "9808592586",
    "website_url": "http://www.blueblazebrewing.com",
    "state": "North Carolina",
    "street": "528 S Turner Ave"
  },
  {
    "id": "f5e7c55b-e9bc-40fd-9008-dcf443a88837",
    "name": "Blue Blood Brewing Company",
    "brewery_type": "brewpub",
    "address_1": "925 Robbers Cave Rd",
    "address_2": null,
    "address_3": null,
    "city": "Lincoln",
    "state_province": "Nebraska",
    "postal_code": "68502-4200",
    "country": "United States",
    "longitude": -96.70701376,
    "latitude": 40.77999602,
    "phone": "4024772337",
    "website_url": "http://www.bluebloodbrewing.com",
    "state": "Nebraska",
    "street": "925 Robbers Cave Rd"
  },
  {
    "id": "956f2d40-477b-455a-bc21-b03779150cf0",
    "name": "Blue Canoe Brewery",
    "brewery_type": "brewpub",
    "address_1": "113 S Franklin St",
    "address_2": null,
    "address_3": null,
    "city": "Titusville",
    "state_province": "Pennsylvania",
    "postal_code": "16354-1737",
    "country": "United States",
    "longitude": -79.6733234,
    "latitude": 41.6230211,
    "phone": "8147750077",
    "website_url": null,
    "state": "Pennsylvania",
    "street": "113 S Franklin St"
  },
  {
    "id": "755b03e1-07f0-4c63-952d-449a5b8f554e",
    "name": "Blue Canoe Brewing Co",
    "brewery_type": "micro",
    "address_1": "1637 E. 15th Street",
    "address_2": null,
    "address_3": null,
    "city": "Little Rock",
    "state_province": "Arkansas",
    "postal_code": "72202",
    "country": "United States",
    "longitude": -92.25366807,
    "latitude": 34.73235496,
    "phone": "5014929378",
    "website_url": "http://www.bluecanoebrewco.com",
    "state": "Arkansas",
    "street": "1637 E. 15th Street"
  },
  {
    "id": "2daa16bf-b6ef-40f1-b70a-b3590227c0b5",
    "name": "Blue Cat Brew Pub",
    "brewery_type": "brewpub",
    "address_1": "113 18th St",
    "address_2": null,
    "address_3": null,
    "city": "Rock Island",
    "state_province": "Illinois",
    "postal_code": "61201-8708",
    "country": "United States",
    "longitude": -90.5145797,
    "latitude": 41.51094347,
    "phone": "3097888247",
    "website_url": "http://www.bluecatbrewpub.com",
    "state": "Illinois",
    "street": "113 18th St"
  },
  {
    "id": "2595ff73-65f0-41ea-820c-3d7d35f453ca",
    "name": "Blue Collar Brewery, Inc.",
    "brewery_type": "brewpub",
    "address_1": "40 Cottage St",
    "address_2": null,
    "address_3": null,
    "city": "Poughkeepsie",
    "state_province": "New York",
    "postal_code": "12601-2015",
    "country": "United States",
    "longitude": -73.91831,
    "latitude": 41.707234,
    "phone": "8454542739",
    "website_url": "http://www.thebluecollarbrewery.com",
    "state": "New York",
    "street": "40 Cottage St"
  },
  {
    "id": "bfcbf176-9040-445a-a70f-58d8ce0df722",
    "name": "Blue Corn Cafe",
    "brewery_type": "brewpub",
    "address_1": "4056 Cerrillos Rd Ste G",
    "address_2": null,
    "address_3": null,
    "city": "Santa Fe",
    "state_province": "New Mexico",
    "postal_code": "87507-2605",
    "country": "United States",
    "longitude": null,
    "latitude": null,
    "phone": "5059841800",
    "website_url": "http://www.bluecorncafe.com",
    "state": "New Mexico",
    "street": "4056 Cerrillos Rd Ste G"
  },
  {
    "id": "b0d6f266-fc2c-4902-ac56-8037f58608c3",
    "name": "Blue Cow Cafe/Big Rapids Brewing Co",
    "brewery_type": "brewpub",
    "address_1": "119 N Michigan Ave",
    "address_2": null,
    "address_3": null,
    "city": "Big Rapids",
    "state_province": "Michigan",
    "postal_code": "49307-1401",
    "country": "United States",
    "longitude": -85.48211793,
    "latitude": 43.69871439,
    "phone": "2317960100",
    "website_url": "http://www.bluecowcafe.com",
    "state": "Michigan",
    "street": "119 N Michigan Ave"
  },
  {
    "id": "3cb83545-6111-426e-8c53-f463bdefbd9b",
    "name": "Blue Earl Brewing Company",
    "brewery_type": "micro",
    "address_1": "210 Artisan Dr",
    "address_2": null,
    "address_3": null,
    "city": "Smyrna",
    "state_province": "Delaware",
    "postal_code": "19977-3715",
    "country": "United States",
    "longitude": -75.62418056,
    "latitude": 39.28096844,
    "phone": null,
    "website_url": "http://www.blueearlbrewing.com",
    "state": "Delaware",
    "street": "210 Artisan Dr"
  },
  {
    "id": "267e407e-db63-4026-8468-8043815c24e8",
    "name": "Blue Frog Brewing Company",
    "brewery_type": "micro",
    "address_1": "1740 Travis Blvd",
    "address_2": null,
    "address_3": null,
    "city": "Fairfield",
    "state_province": "California",
    "postal_code": "94533-3431",
    "country": "United States",
    "longitude": -122.0600589,
    "latitude": 38.2585569,
    "phone": "7074292337",
    "website_url": "http://www.bluefrogbrewingcompany.com",
    "state": "California",
    "street": "1740 Travis Blvd"
  }
]