[
  {
    "id": "ad3eac47-5589-4d11-a8cf-f118895fe7f7",
    "name": "Exit 6 Brewery",
    "brewery_type": "micro",
    "address_1": "5055 Highway N Ste 112",
    "address_2": null,
    "address_3": null,
    "city": "Saint Charles",
    "state_province": "Missouri",
    "postal_code": "63304-8031",
    "country": "United States",
    "longitude": -90.639934,
    "latitude": 38.745126,
    "phone": "6362444343",
    "website_url": "http://www.exit6brewery.com",
    "state": "Missouri",
    "street": "5055 Highway N Ste 112"
  },
  {
    "id": "38b01e10-3aac-4226-b30f-bb568f0e41bc",
    "name": "Exit Strategy Brewing Company",
    "brewery_type": "brewpub",
    "address_1": "7700 Madison St",
    "address_2": null,
    "address_3": null,
    "city": "Forest Park",
    "state_province": "Illinois",
    "postal_code": "60130-1404",
    "country": "United States",
    "longitude": -87.8108065,
    "latitude": 41.8795262,
    "phone": "7086898771",
    "website_url": "http://www.exitstrategybrewing.com",
    "state": "Illinois",
    "street": "7700 Madison St"
  },
  {
    "id": "e7d630be-55a7-4d75-8fa0-72a6f25e49ec",
    "name": "Explorer Brewing Company",
    "brewery_type": "micro",
    "address_1": "209 Ash St",
    "address_2": null,
    "address_3": null,
    "city": "Kelso",
    "state_province": "Washington",
    "postal_code": "98626",
    "country": "United States",
    "longitude": -122.9120251,
    "latitude": 46.14277372,
    "phone": "3602328337",
    "website_url": "https://www.facebook.com/discoverourcraft",
    "state": "Washington",
    "street": "209 Ash St"
  },
  {
    "id": "4df55a90-f4fa-4966-9e9c-5d0beaa22d46",
    "name": "Extra Billys Brewery and Smokehouse",
    "brewery_type": "brewpub",
    "address_1": "1110 Alverser Dr",
    "address_2": null,
    "address_3": null,
    "city": "Midlothian",
    "state_province": "Virginia",
    "postal_code": "23113-2654",
    "country": "United States",
    "longitude": null,
    "latitude": null,
    "phone": "8043798727",
    "website_url": "http://www.extrabillys.com",
    "state": "Virginia",
    "street": "1110 Alverser Dr"
  },
  {
    "id": "b2040588-749b-4784-b662-24d3e14c0827",
    "name": "F-Town Brewing Company",
    "brewery_type": "micro",
    "address_1": "22 4th St NE",
    "address_2": null,
    "address_3": null,
    "city": "Faribault",
    "state_province": "Minnesota",
    "postal_code": "55021-5207",
    "country": "United States",
    "longitude": -93.26734492,
    "latitude": 44.29499775,
    "phone": "5073317677",
    "website_url": "http://www.ftownbeer.com",
    "state": "Minnesota",
    "street": "22 4th St NE"
  },
  {
    "id": "09fd5463-3654-4126-8c8a-fc7af79025cc",
    "name": "Faction Brewing Co",
    "brewery_type": "micro",
    "address_1": "2501 Monarch St Ste 200",
    "address_2": null,
    "address_3": null,
    "city": "Alameda",
    "state_province": "California",
    "postal_code": "94501-5098",
    "country": "United States",
    "longitude": -122.3097077,
    "latitude": 37.7866722,
    "phone": "5105232739",
    "website_url": "http://www.factionbrewing.com",
    "state": "California",
    "street": "2501 Monarch St Ste 200"
  },
  {
    "id": "4b832677-fcb7-4eb8-8d6b-c0429d0db2f1",
    "name": "Factotum Brewhouse",
    "brewery_type": "micro",
    "address_1": "3845 Lipan St",
    "address_2": null,
    "address_3": null,
    "city": "Denver",
    "state_province": "Colorado",
    "postal_code": "80211-2651",
    "country": "United States",
    "longitude": -105.0020653,
    "latitude": 39.7702043,
    "phone": "7204414735",
    "website_url": "http://www.factotumbrewhouse.com",
    "state": "Colorado",
    "street": "3845 Lipan St"
  },
  {
    "id": "409cbbab-e5e4-45a7-a251-16406806ccda",
    "name": "Fainting Goat Brewing Company",
    "brewery_type": "micro",
    "address_1": "330 S Main St",
    "address_2": null,
    "address_3": null,
    "city": "Fuquay Varina",
    "state_province": "North Carolina",
    "postal_code": "27526-2225",
    "country": "United States",
    "longitude": -78.80001933,
    "latitude": 35.5812855,
    "phone": "9193950642",
    "website_url": "http://www.faintinggoatbeer.com",
    "state": "North Carolina",
    "street": "330 S Main St"
  },
  {
    "id": "146c521f-d3c9-4a86-82a8-7bbf951aedea",
    "name": "Fair Isle Brewing",
    "brewery_type": "micro",
    "address_1": "936 NW 49th St",
    "address_2": null,
    "address_3": null,
    "city": "Seattle",
    "state_province": "Washington",
    "postal_code": "98107-3653",
    "country": "United States",
    "longitude": -122.37009151542,
    "latitude": 47.664611749884,
    "phone": "2064283434",
    "website_url": "http://www.fairislebrewing.com",
    "state": "Washington",
    "street": "936 NW 49th St"
  },
  {
    "id": "3614131f-2a22-4bcb-8708-e7450dc980d2",
    "name": "Fair Oaks Brew Pub",
    "brewery_type": "brewpub",
    "address_1": "7988 California Ave",
    "address_2": null,
    "address_3": null,
    "city": "Fair Oaks",
    "state_province": "California",
    "postal_code": "95628-7140",
    "country": "United States",
    "longitude": -121.2687393,
    "latitude": 38.64181849,
    "phone": null,
    "website_url": "http://www.fairoaksbrewpub.com",
    "state": "California",
    "street": "7988 California Ave"
  },
  {
    "id": "cdbad8ba-146f-45dd-b87c-c91eec35d170",
    "name": "Fair State Brewing Cooperative",
    "brewery_type": "micro",
    "address_1": "2506A Central Ave NE",
    "address_2": null,
    "address_3": null,
    "city": "Minneapolis",
    "state_province": "Minnesota",
    "postal_code": "55418",
    "country": "United States",
    "longitude": -93.247453,
    "latitude": 45.01337914,
    "phone": "6124443209",
    "website_url": "http://www.fairstate.coop",
    "state": "Minnesota",
    "street": "2506A Central Ave NE"
  },
  {
    "id": "8cb37c9f-01f0-4737-b068-0563e61da8d8",
    "name": "Fair State Brewing Cooperative - St. Paul",
    "brewery_type": "micro",
    "address_1": "2075 Ellis Ave",
    "address_2": null,
    "address_3": null,
    "city": "Saint Paul",
    "state_province": "Minnesota",
    "postal_code": "55114-1308",
    "country": "United States",
    "longitude": -93.18822129,
    "latitude": 44.96603388,
    "phone": "6124443209",
    "website_url": null,
    "state": "Minnesota",
    "street": "2075 Ellis Ave"
  },
  {
    "id": "3321c8e5-b94c-4eac-bdd7-2702889ab9f8",
    "name": "Fair Winds Brewing Company",
    "brewery_type": "micro",
    "address_1": "7000 Newington Rd Ste K& # L",
    "address_2": null,
    "address_3": null,
    "city": "Lorton",
    "state_province": "Virginia",
    "postal_code": "22079-1133",
    "country": "United States",
    "longitude": null,
    "latitude": null,
    "phone": "7033722001",
    "website_url": "http://www.fairwindsbrewing.com",
    "state": "Virginia",
    "street": "7000 Newington Rd Ste K& # L"
  },
  {
    "id": "e73ab2c9-9e8e-40f7-ac90-d3de503f2052",
    "name": "Fairfield Craft Ales",
    "brewery_type": "micro",
    "address_1": "724 Honeyspot Rd",
    "address_2": null,
    "address_3": null,
    "city": "Stratford",
    "state_province": "Connecticut",
    "postal_code": "06615-7109",
    "country": "United States",
    "longitude": -73.14702832,
    "latitude": 41.17565816,
    "phone": "2032962530",
    "website_url": "http://www.fairfieldcraftales.com",
    "state": "Connecticut",
    "street": "724 Honeyspot Rd"
  },
  {
    "id": "ff7683a0-1be0-4ac4-a538-91e45d7db527",
    "name": "Fairfield Opera House Brewery",
    "brewery_type": "brewpub",
    "address_1": "415 N D St",
    "address_2": null,
    "address_3": null,
    "city": "Fairfield",
    "state_province": "Nebraska",
    "postal_code": "68938-2114",
    "country": "United States",
    "longitude": -98.10588657,
    "latitude": 40.43061571,
    "phone": "4027262447",
    "website_url": "http://www.fairfieldoperahouse.com",
    "state": "Nebraska",
    "street": "415 N D St"
  },
  {
    "id": "33ddedf3-db57-4bc5-a935-ee1ac0ca1435",
    "name": "Fairhope Brewing Co",
    "brewery_type": "micro",
    "address_1": "914 Nichols Ave",
    "address_2": null,
    "address_3": null,
    "city": "Fairhope",
    "state_province": "Alabama",
    "postal_code": "36532-3684",
    "country": "United States",
    "longitude": -87.898282,
    "latitude": 30.516291,
    "phone": "2512797517",
    "website_url": null,
    "state": "Alabama",
    "street": "914 Nichols Ave"
  },
  {
    "id": "e80dd655-7f93-4e25-9008-89124f4dc685",
    "name": "Fairport Brewing Co",
    "brewery_type": "micro",
    "address_1": "99 S Main St",
    "address_2": null,
    "address_3": null,
    "city": "Fairport",
    "state_province": "New York",
    "postal_code": "14450-2100",
    "country": "United States",
    "longitude": -77.4416792,
    "latitude": 43.0988098,
    "phone": "5857520613",
    "website_url": "http://www.fairportbrewing.com",
    "state": "New York",
    "street": "99 S Main St"
  },
  {
    "id": "469c98f8-6cf2-4bce-89d2-8ac4f07e519d",
    "name": "Fairport Brewing Co",
    "brewery_type": "micro",
    "address_1": "1000 Turk Hill Rd Ste 298",
    "address_2": null,
    "address_3": null,
    "city": "Fairport",
    "state_province": "New York",
    "postal_code": "14450-8755",
    "country": "United States",
    "longitude": null,
    "latitude": null,
    "phone": "5857520613",
    "website_url": null,
    "state": "New York",
    "street": "1000 Turk Hill Rd Ste 298"
  },
  {
    "id": "ce39a577-ce79-4328-9251-faa66bd7ffa7",
    "name": "Fall Brewing Company",
    "brewery_type": "micro",
    "address_1": "4542 30th St",
    "address_2": null,
    "address_3": null,
    "city": "San Diego",
    "state_province": "California",
    "postal_code": "92116-4247",
    "country": "United States",
    "longitude": -117.1302802,
    "latitude": 32.75997514,
    "phone": "6195010903",
    "website_url": "http://www.fallbrewing.com",
    "state": "California",
    "street": "4542 30th St"
  },
  {
    "id": "0bd3a805-101a-44af-97ee-eae99c7fe1c7",
    "name": "Fall River Brewing Company",
    "brewery_type": "closed",
    "address_1": "24339 State Highway 89",
    "address_2": null,
    "address_3": null,
    "city": "Burney",
    "state_province": "California",
    "postal_code": "96013-9615",
    "country": "United States",
    "longitude": -121.6230357,
    "latitude": 40.99337635,
    "phone": null,
    "website_url": "http://www.fallriverbrewing.com",
    "state": "California",
    "street": "24339 State Highway 89"
  },
  {
    "id": "29fb815b-f6a0-461b-8b08-9829959cdf1a",
    "name": "Fall River Brewing Company",
    "brewery_type": "micro",
    "address_1": "4001 Eastside Rd",
    "address_2": null,
    "address_3": null,
    "city": "Redding",
    "state_province": "California",
    "postal_code": "96001",
    "country": "United States",
    "longitude": -122.3869586,
    "latitude": 40.55859975,
    "phone": null,
    "website_url": "http://www.fallriverbrewing.com",
    "state": "California",
    "street": "4001 Eastside Rd"
  },
  {
    "id": "c93b83e9-91a9-4f3b-b3d7-4931d43ff2bf",
    "name": "Fallbrook Brewing Co",
    "brewery_type": "micro",
    "address_1": "116 W Hawthorne St",
    "address_2": null,
    "address_3": null,
    "city": "Fallbrook",
    "state_province": "California",
    "postal_code": "92028-",
    "country": "United States",
    "longitude": -117.2516425,
    "latitude": 33.38273379,
    "phone": null,
    "website_url": "http://www.fallbrookbrewing.com",
    "state": "California",
    "street": "116 W Hawthorne St"
  },
  {
    "id": "e5467256-ec72-496e-82ff-8a5bf07bf2c1",
    "name": "Falling Branch Brewery",
    "brewery_type": "micro",
    "address_1": "825 Highland Rd",
    "address_2": null,
    "address_3": null,
    "city": "Street",
    "state_province": "Maryland",
    "postal_code": "21154-1312",
    "country": "United States",
    "longitude": -76.3708166,
    "latitude": 39.66665004,
    "phone": null,
    "website_url": "http://fallingbranchbeer.com",
    "state": "Maryland",
    "street": "825 Highland Rd"
  },
  {
    "id": "e986a09e-8f49-456c-b9dc-950b744484d4",
    "name": "Falling Down Beer Co.",
    "brewery_type": "brewpub",
    "address_1": "2270 E 10 Mile Rd",
    "address_2": null,
    "address_3": null,
    "city": "Warren",
    "state_province": "Michigan",
    "postal_code": "48091-3701",
    "country": "United States",
    "longitude": -82.9805361,
    "latitude": 42.4787048,
    "phone": null,
    "website_url": null,
    "state": "Michigan",
    "street": "2270 E 10 Mile Rd"
  },
  {
    "id": "85bdcb94-2d7c-4c98-bb30-e1d09e8f05b8",
    "name": "Falling Knife Brewing Company",
    "brewery_type": "micro",
    "address_1": "783 Harding St NE",
    "address_2": "Suite #100",
    "address_3": null,
    "city": "Minneapolis",
    "state_province": "Minnesota",
    "postal_code": "55413",
    "country": "United States",
    "longitude": -93.221498,
    "latitude": 44.998312,
    "phone": "6123547101",
    "website_url": "https://fallingknife.beer",
    "state": "Minnesota",
    "street": "783 Harding St NE"
  },
  {
    "id": "3cffc2c8-fe86-46cd-836b-55f860daa1d9",
    "name": "Falling Sky Brewing",
    "brewery_type": "brewpub",
    "address_1": "1334 Oak Aly",
    "address_2": null,
    "address_3": null,
    "city": "Eugene",
    "state_province": "Oregon",
    "postal_code": "97401-3190",
    "country": "United States",
    "longitude": -123.0921962,
    "latitude": 44.04539623,
    "phone": "5415057096",
    "website_url": "http://www.fallingskybrewing.com",
    "state": "Oregon",
    "street": "1334 Oak Aly"
  },
  {
    "id": "46c00e4c-6069-40af-9412-24cc10a64902",
    "name": "Falls City Brewing Company",
    "brewery_type": "micro",
    "address_1": "901 E Liberty St",
    "address_2": null,
    "address_3": null,
    "city": "Louisville",
    "state_province": "Kentucky",
    "postal_code": "40204",
    "country": "United States",
    "longitude": -85.73625618,
    "latitude": 38.25036895,
    "phone": "5022577284",
    "website_url": "http://www.fallscitybeer.com",
    "state": "Kentucky",
    "street": "901 E Liberty St"
  },
  {
    "id": "774bb339-af5e-4a24-9bec-a34d854dc393",
    "name": "Fam's Brewing Company",
    "brewery_type": "brewpub",
    "address_1": "1291 Folly Rd",
    "address_2": null,
    "address_3": null,
    "city": "Charleston",
    "state_province": "South Carolina",
    "postal_code": "29412",
    "country": "United States",
    "longitude": null,
    "latitude": null,
    "phone": "8437937733",
    "website_url": "http://www.famspizza.com",
    "state": "South Carolina",
    "street": "1291 Folly Rd"
  },
  {
    "id": "2cd2c54f-2579-4da6-8c4e-cd95c811d78a",
    "name": "Family Business Beer Company",
    "brewery_type": "micro",
    "address_1": "19510 Hamilton Pool Rd",
    "address_2": null,
    "address_3": null,
    "city": "Dripping Springs",
    "state_province": "Texas",
    "postal_code": "78620-2823",
    "country": "United States",
    "longitude": null,
    "latitude": null,
    "phone": "5128294202",
    "website_url": "http://www.familybusinessbeerco.com",
    "state": "Texas",
    "street": "19510 Hamilton Pool Rd"
  },
  {
    "id": "c266b8f9-e306-4809-a344-5c6244ce6c6e",
    "name": "Fanatic Brewing Company",
    "brewery_type": "micro",
    "address_1": "2735 N Central St",
    "address_2": null,
    "address_3": null,
    "city": "Knoxville",
    "state_province": "Tennessee",
    "postal_code": "37917",
    "country": "United States",
    "longitude": -83.94224452,
    "latitude": 35.99175106,
    "phone": "8655482337",
    "website_url": "http://www.fanaticbrewing.com",
    "state": "Tennessee",
    "street": "2735 N Central St"
  },
  {
    "id": "b024d4aa-863a-460b-ad4d-aba44398e2ab",
    "name": "Fannin Brewing",
    "brewery_type": "micro",
    "address_1": "3758 E First St",
    "address_2": null,
    "address_3": null,
    "city": "Blue Ridge",
    "state_province": "Georgia",
    "postal_code": "30513-4514",
    "country": "United States",
    "longitude": -84.31707477,
    "latitude": 34.87142613,
    "phone": "7062582762",
    "website_url": "http://www.fanninbrewingcompany.com",
    "state": "Georgia",
    "street": "3758 E First St"
  },
  {
    "id": "e82ab4e0-4615-4ab0-b7f5-8d5b75839bb7",
    "name": "Fantasy Brewmasters, LLC",
    "brewery_type": "contract",
    "address_1": "5825 Dogwood Way",
    "address_2": null,
    "address_3": null,
    "city": "Naples",
    "state_province": "Florida",
    "postal_code": "34116-4909",
    "country": "United States",
    "longitude": null,
    "latitude": null,
    "phone": "2392063247",
    "website_url": null,
    "state": "Florida",
    "street": "5825 Dogwood Way"
  },
  {
    "id": "20652f26-12e5-4a3e-8a7b-589f6626acb4",
    "name": "Far Gohn Brewing Company",
    "brewery_type": "micro",
    "address_1": "301 S East St",
    "address_2": null,
    "address_3": null,
    "city": "Culpeper",
    "state_province": "Virginia",
    "postal_code": "22701-3105",
    "country": "United States",
    "longitude": null,
    "latitude": null,
    "phone": "5404232089",
    "website_url": "http://www.fargohnbrewing.com",
    "state": "Virginia",
    "street": "301 S East St"
  },
  {
    "id": "e87d9efb-c71e-45fb-a54c-3bdc71391046",
    "name": "Fargo Brewing Co",
    "brewery_type": "micro",
    "address_1": "610 University Dr N",
    "address_2": null,
    "address_3": null,
    "city": "Fargo",
    "state_province": "North Dakota",
    "postal_code": "58102-4342",
    "country": "United States",
    "longitude": -96.79937236,
    "latitude": 46.88326389,
    "phone": "7014782337",
    "website_url": "http://www.fargobrewing.com",
    "state": "North Dakota",
    "street": "610 University Dr N"
  },
  {
    "id": "0186da1a-a5c4-4076-8a33-25ee193a65a4",
    "name": "Farm Road Brewery",
    "brewery_type": "planning",
    "address_1": null,
    "address_2": null,
    "address_3": null,
    "city": "Arlington",
    "state_province": "Vermont",
    "postal_code": "05250-8766",
    "country": "United States",
    "longitude": null,
    "latitude": null,
    "phone": null,
    "website_url": null,
    "state": "Vermont",
    "street": null
  },
  {
    "id": "90f16bb9-b94f-4f2c-8fae-c64ed95208b3",
    "name": "Farm Shed Wines & Brews",
    "brewery_type": "micro",
    "address_1": "22808 Sumner Buckley Hwy E",
    "address_2": null,
    "address_3": null,
    "city": "Buckley",
    "state_province": "Washington",
    "postal_code": "98321-8424",
    "country": "United States",
    "longitude": -122.124967,
    "latitude": 47.180813,
    "phone": "8444379786",
    "website_url": "http://www.farmshedwines.com",
    "state": "Washington",
    "street": "22808 Sumner Buckley Hwy E"
  },
  {
    "id": "4bd0b915-e78d-4dde-bf1d-549999499aca",
    "name": "Farmacy Brewing",
    "brewery_type": "planning",
    "address_1": null,
    "address_2": null,
    "address_3": null,
    "city": "Reisterstown",
    "state_province": "Maryland",
    "postal_code": "21136-3817",
    "country": "United States",
    "longitude": null,
    "latitude": null,
    "phone": "4109352551",
    "website_url": null,
    "state": "Maryland",
    "street": null
  },
  {
    "id": "ab98a927-af49-4318-928d-0bb98651f45d",
    "name": "Farmers Brewing Co",
    "brewery_type": "planning",
    "address_1": null,
    "address_2": null,
    "address_3": null,
    "city": "Princeton",
    "state_province": "California",
    "postal_code": "95970-9519",
    "country": "United States",
    "longitude": -122.009975,
    "latitude": 39.4032192,
    "phone": "5306246053",
    "website_url": "http://www.farmersbrewing.com",
    "state": "California",
    "street": null
  },
  {
    "id": "b2a43962-9a78-4e6d-882c-d3cb13129327",
    "name": "Farmington Brewing Company LLC",
    "brewery_type": "micro",
    "address_1": "33336 Grand River Ave",
    "address_2": null,
    "address_3": null,
    "city": "Farmington",
    "state_province": "Michigan",
    "postal_code": "48336-3124",
    "country": "United States",
    "longitude": -83.37603742,
    "latitude": 42.4649541,
    "phone": "2489579543",
    "website_url": "http://fbcbrewing.com",
    "state": "Michigan",
    "street": "33336 Grand River Ave"
  },
  {
    "id": "6cbd8d7c-b5af-4eda-802c-550643b62d42",
    "name": "Farmington Underground Canning and Kegging",
    "brewery_type": "micro",
    "address_1": null,
    "address_2": null,
    "address_3": null,
    "city": "Farmington",
    "state_province": "Michigan",
    "postal_code": "48336",
    "country": "United States",
    "longitude": null,
    "latitude": null,
    "phone": null,
    "website_url": null,
    "state": "Michigan",
    "street": null
  },
  {
    "id": "7eaa5cbc-b92b-4c5f-91fa-5242c2a66214",
    "name": "Farmstrong Brewing Co",
    "brewery_type": "micro",
    "address_1": "110 Stewart Rd",
    "address_2": null,
    "address_3": null,
    "city": "Mount Vernon",
    "state_province": "Washington",
    "postal_code": "98273-9628",
    "country": "United States",
    "longitude": -122.3369645,
    "latitude": 48.4431376,
    "phone": "3608738852",
    "website_url": "http://www.farmstrongbrewing.com",
    "state": "Washington",
    "street": "110 Stewart Rd"
  },
  {
    "id": "e07da07f-d0a7-46e5-ac44-190dbff63bfa",
    "name": "Farnam House Brewing Company",
    "brewery_type": "brewpub",
    "address_1": "3558 Farnam St",
    "address_2": null,
    "address_3": null,
    "city": "Omaha",
    "state_province": "Nebraska",
    "postal_code": "68131-3304",
    "country": "United States",
    "longitude": -95.96580178,
    "latitude": 41.2578153,
    "phone": "4024016086",
    "website_url": "http://www.farnamhousebrewing.com",
    "state": "Nebraska",
    "street": "3558 Farnam St"
  },
  {
    "id": "2151a210-0008-45b5-902a-6300cd87bea6",
    "name": "Farnham Ale & Lager",
    "brewery_type": "micro",
    "address_1": "82 Ethan Allen Dr",
    "address_2": null,
    "address_3": null,
    "city": "South Burlington",
    "state_province": "Vermont",
    "postal_code": "05403-5971",
    "country": "United States",
    "longitude": -73.15391274,
    "latitude": 44.48290389,
    "phone": "8027351288",
    "website_url": "http://www.farnham-alelager.com",
    "state": "Vermont",
    "street": "82 Ethan Allen Dr"
  },
  {
    "id": "dfa10b9e-ad89-4a05-b718-2621cca3d5f9",
    "name": "Fast Fashion Brewing",
    "brewery_type": "micro",
    "address_1": "730 N 34th St",
    "address_2": null,
    "address_3": null,
    "city": "Seattle",
    "state_province": "Washington",
    "postal_code": "98103",
    "country": "United States",
    "longitude": -122.3484134,
    "latitude": 47.64970532,
    "phone": "2065574907",
    "website_url": "https://fastfashion.us/",
    "state": "Washington",
    "street": "730 N 34th St"
  },
  {
    "id": "deb362d3-968b-47c5-81f0-61178ed0d6ca",
    "name": "Fat Bottom Brewing",
    "brewery_type": "micro",
    "address_1": "800 44th Ave N",
    "address_2": null,
    "address_3": null,
    "city": "Nashville",
    "state_province": "Tennessee",
    "postal_code": "37209-2336",
    "country": "United States",
    "longitude": -86.84031688,
    "latitude": 36.16044926,
    "phone": "6152935783",
    "website_url": "http://www.fatbottombrewing.com",
    "state": "Tennessee",
    "street": "800 44th Ave N"
  },
  {
    "id": "8cd7a35b-7a2e-43ab-bdcd-f3a2f2cd8331",
    "name": "Fat Boy Brewing Co",
    "brewery_type": "closed",
    "address_1": "2851 S Stratton Dr",
    "address_2": null,
    "address_3": null,
    "city": "Milwaukee",
    "state_province": "Wisconsin",
    "postal_code": "53219-2759",
    "country": "United States",
    "longitude": -88.0130081,
    "latitude": 42.99227079,
    "phone": "4147616366",
    "website_url": "http://www.fatboybeer.com",
    "state": "Wisconsin",
    "street": "2851 S Stratton Dr"
  },
  {
    "id": "e47d18ae-4f7c-4c27-8a28-feae3c16d541",
    "name": "Fat Head's Brewery",
    "brewery_type": "regional",
    "address_1": null,
    "address_2": null,
    "address_3": null,
    "city": "Middleburg Heights",
    "state_province": "Ohio",
    "postal_code": "44130-2472",
    "country": "United States",
    "longitude": null,
    "latitude": null,
    "phone": "2168980242",
    "website_url": "http://www.fatheads.com",
    "state": "Ohio",
    "street": null
  },
  {
    "id": "7b7dbd69-0464-48a3-898e-cad1deb07b3b",
    "name": "Fat Head's Brewery & Saloon",
    "brewery_type": "brewpub",
    "address_1": "24581 Lorain Rd",
    "address_2": null,
    "address_3": null,
    "city": "North Olmsted",
    "state_province": "Ohio",
    "postal_code": "44070-2170",
    "country": "United States",
    "longitude": -81.89440993,
    "latitude": 41.42667743,
    "phone": "4408011001",
    "website_url": "http://www.fatheadscleveland.com",
    "state": "Ohio",
    "street": "24581 Lorain Rd"
  },
  {
    "id": "26f084da-1c39-4d15-9139-a0566da855da",
    "name": "Fat Head's Brewpub - Canton",
    "brewery_type": "brewpub",
    "address_1": "3885 Everhard Rd NW",
    "address_2": null,
    "address_3": null,
    "city": "Canton",
    "state_province": "Ohio",
    "postal_code": "44709-4003",
    "country": "United States",
    "longitude": -81.41867571,
    "latitude": 40.85972436,
    "phone": null,
    "website_url": null,
    "state": "Ohio",
    "street": "3885 Everhard Rd NW"
  },
  {
    "id": "cd11bf3f-f398-4758-816a-378f4d841cd3",
    "name": "Fat Hen Brewing Co",
    "brewery_type": "brewpub",
    "address_1": "150 Front St",
    "address_2": null,
    "address_3": null,
    "city": "Exeter",
    "state_province": "New Hampshire",
    "postal_code": "03833",
    "country": "United States",
    "longitude": null,
    "latitude": null,
    "phone": "6035804137",
    "website_url": null,
    "state": "New Hampshire",
    "street": "150 Front St"
  }
]