[
  {
    "id": "ec8490e6-a241-47af-8746-eb5f95a2012f",
    "name": "Central Coast Brewing Co - Monterey St.",
    "brewery_type": "micro",
    "address_1": "1422 Monterey St Ste B100",
    "address_2": null,
    "address_3": null,
    "city": "San Luis Obispo",
    "state_province": "California",
    "postal_code": "93401-2900",
    "country": "United States",
    "longitude": -120.655724,
    "latitude": 35.28597462,
    "phone": "8057832739",
    "website_url": "http://www.centralcoastbrewing.com",
    "state": "California",
    "street": "1422 Monterey St Ste B100"
  },
  {
    "id": "729fb6cc-0d37-4179-81fe-73a18e67b667",
    "name": "Central Machine Works",
    "brewery_type": "micro",
    "address_1": "4824 E Cesar Chavez St",
    "address_2": null,
    "address_3": null,
    "city": "Austin",
    "state_province": "Texas",
    "postal_code": "78702-5135",
    "country": "United States",
    "longitude": -97.7037665,
    "latitude": 30.2520225,
    "phone": "512-220-2340",
    "website_url": "http://cmwbrewery.com/",
    "state": "Texas",
    "street": "4824 E Cesar Chavez St"
  },
  {
    "id": "3e9028ae-2464-4ab9-b852-26d54695af7a",
    "name": "Central Standard Brewing",
    "brewery_type": "micro",
    "address_1": "156 S Greenwood St",
    "address_2": null,
    "address_3": null,
    "city": "Wichita",
    "state_province": "Kansas",
    "postal_code": "67211-1815",
    "country": "United States",
    "longitude": -97.3184245,
    "latitude": 37.6846165,
    "phone": "3162608515",
    "website_url": "http://www.drinkcsb.com",
    "state": "Kansas",
    "street": "156 S Greenwood St"
  },
  {
    "id": "dcef9d1b-d9c0-4512-aeb6-eb22c60de041",
    "name": "Central State Brewing",
    "brewery_type": "micro",
    "address_1": "4001 E 26th St",
    "address_2": null,
    "address_3": null,
    "city": "Indianapolis",
    "state_province": "Indiana",
    "postal_code": "46218",
    "country": "United States",
    "longitude": -86.099105,
    "latitude": 39.805091,
    "phone": "3174079855",
    "website_url": "http://centralstatebrewing.com",
    "state": "Indiana",
    "street": "4001 E 26th St"
  },
  {
    "id": "4ef7f47b-2152-427e-89a8-bc3326630ed4",
    "name": "Central Waters Brewing Co",
    "brewery_type": "regional",
    "address_1": "351 Allen St",
    "address_2": null,
    "address_3": null,
    "city": "Amherst",
    "state_province": "Wisconsin",
    "postal_code": "54406-8954",
    "country": "United States",
    "longitude": -89.27970182,
    "latitude": 44.4422503,
    "phone": "7158242739",
    "website_url": "http://www.centralwaters.com",
    "state": "Wisconsin",
    "street": "351 Allen St"
  },
  {
    "id": "e3c0946f-f098-4820-baf7-65cba1c2abca",
    "name": "Cerberus Brewing Company",
    "brewery_type": "brewpub",
    "address_1": "702 W Colorado Ave",
    "address_2": null,
    "address_3": null,
    "city": "Colorado Springs",
    "state_province": "Colorado",
    "postal_code": "80905-1539",
    "country": "United States",
    "longitude": -104.8374071,
    "latitude": 38.8330574,
    "phone": "7196362337",
    "website_url": "http://www.cerberusbrewingco.com",
    "state": "Colorado",
    "street": "702 W Colorado Ave"
  },
  {
    "id": "780ad4bb-6a56-4af5-a613-5551fd00166a",
    "name": "Cercis Brewing Company",
    "brewery_type": "micro",
    "address_1": "106 N Dickason Blvd",
    "address_2": null,
    "address_3": null,
    "city": "Columbus",
    "state_province": "Wisconsin",
    "postal_code": "53925-",
    "country": "United States",
    "longitude": -89.01542922,
    "latitude": 43.33907788,
    "phone": "9203500500",
    "website_url": "https://www.cercisbrewingco.com",
    "state": "Wisconsin",
    "street": "106 N Dickason Blvd"
  },
  {
    "id": "d41989d3-e3a4-47c0-a0eb-cdcfe61a1066",
    "name": "Cerebral Brewing",
    "brewery_type": "micro",
    "address_1": "1477 Monroe St",
    "address_2": null,
    "address_3": null,
    "city": "Denver",
    "state_province": "Colorado",
    "postal_code": "80206-2708",
    "country": "United States",
    "longitude": -104.9451783,
    "latitude": 39.73968253,
    "phone": "3039277365",
    "website_url": "http://www.cerebralbrewing.com",
    "state": "Colorado",
    "street": "1477 Monroe St"
  },
  {
    "id": "979f53b8-e18d-45d6-a893-bd7f3419f803",
    "name": "Cervecentro",
    "brewery_type": "planning",
    "address_1": null,
    "address_2": null,
    "address_3": null,
    "city": "Miami",
    "state_province": "Florida",
    "postal_code": "33181-3404",
    "country": "United States",
    "longitude": null,
    "latitude": null,
    "phone": "3055171656",
    "website_url": "http://www.cervecentro.com.ve",
    "state": "Florida",
    "street": null
  },
  {
    "id": "6ee6cc71-b24b-481e-95f3-05bdefbaa41d",
    "name": "Cerveceria Del Pueblo",
    "brewery_type": "micro",
    "address_1": "141 W Bellevue Dr",
    "address_2": "#100",
    "address_3": null,
    "city": "Pasadena",
    "state_province": "California",
    "postal_code": "91105-1822",
    "country": "United States",
    "longitude": -118.1532146754,
    "latitude": 34.138666361191,
    "phone": "6266587652",
    "website_url": "https://www.cerveceriadelpueblo.com/",
    "state": "California",
    "street": "141 W Bellevue Dr"
  },
  {
    "id": "5b077a9d-d97a-43d7-9c66-68e6d512f499",
    "name": "Cerveja Alvoreada",
    "brewery_type": "brewpub",
    "address_1": "Rua Sousa Porto, 24",
    "address_2": null,
    "address_3": null,
    "city": "Beja",
    "state_province": "Beja",
    "postal_code": "7800-071",
    "country": "Portugal",
    "longitude": -7.8538140624018,
    "latitude": 38.009903135997,
    "phone": "+351 963 592 133",
    "website_url": null,
    "state": "Beja",
    "street": "Rua Sousa Porto, 24"
  },
  {
    "id": "7d199c4a-13fd-4568-825f-73c2b6722bb8",
    "name": "Cerveza Guajira",
    "brewery_type": "planning",
    "address_1": null,
    "address_2": null,
    "address_3": null,
    "city": "Miami",
    "state_province": "Florida",
    "postal_code": "33137",
    "country": "United States",
    "longitude": null,
    "latitude": null,
    "phone": "3056005692",
    "website_url": null,
    "state": "Florida",
    "street": null
  },
  {
    "id": "c592a01a-6e1d-4f47-b65c-7d83344977b9",
    "name": "CH Evans Brewing Co/Albany Pump Station",
    "brewery_type": "brewpub",
    "address_1": "19 Quackenbush Sq",
    "address_2": null,
    "address_3": null,
    "city": "Albany",
    "state_province": "New York",
    "postal_code": "12207-2311",
    "country": "United States",
    "longitude": null,
    "latitude": null,
    "phone": "5184479000",
    "website_url": "http://www.evansale.com",
    "state": "New York",
    "street": "19 Quackenbush Sq"
  },
  {
    "id": "27baa23f-707d-40e8-98f5-64f94b3f19ad",
    "name": "Chafunkta Brewing Co",
    "brewery_type": "micro",
    "address_1": "69123 Skybrook Rd. STE E",
    "address_2": null,
    "address_3": null,
    "city": "Mandeville",
    "state_province": "Louisiana",
    "postal_code": "70471-7777",
    "country": "United States",
    "longitude": -90.035658,
    "latitude": 30.432895,
    "phone": "9858690716",
    "website_url": "http://www.chafunkta.com",
    "state": "Louisiana",
    "street": "69123 Skybrook Rd. STE E"
  },
  {
    "id": "ecbd7424-8f25-4db0-af5e-8334991c2983",
    "name": "Chagrin Beer Company",
    "brewery_type": "contract",
    "address_1": "178 E Washington St",
    "address_2": null,
    "address_3": null,
    "city": "Chagrin Falls",
    "state_province": "Ohio",
    "postal_code": "44022-2978",
    "country": "United States",
    "longitude": -81.38518067,
    "latitude": 41.42999722,
    "phone": "2166451739",
    "website_url": null,
    "state": "Ohio",
    "street": "178 E Washington St"
  },
  {
    "id": "54a938fd-f2bc-4579-b173-3657eaaed527",
    "name": "Chain Reaction Brewing Company",
    "brewery_type": "micro",
    "address_1": "902 S Lipan St",
    "address_2": null,
    "address_3": null,
    "city": "Denver",
    "state_province": "Colorado",
    "postal_code": "80223-2717",
    "country": "United States",
    "longitude": -105.001629,
    "latitude": 39.69879376,
    "phone": "3039220960",
    "website_url": "http://www.chainreactionbrewingco.com",
    "state": "Colorado",
    "street": "902 S Lipan St"
  },
  {
    "id": "10bbba8b-368e-4c6e-adeb-cc6ff7faa782",
    "name": "Chainline Brewing Company",
    "brewery_type": "closed",
    "address_1": "503 6th St S",
    "address_2": null,
    "address_3": null,
    "city": "Kirkland",
    "state_province": "Washington",
    "postal_code": "98033-6717",
    "country": "United States",
    "longitude": -122.1967583,
    "latitude": 47.6717847,
    "phone": "4252420923",
    "website_url": "http://www.chainlinebrewing.com",
    "state": "Washington",
    "street": "503 6th St S"
  },
  {
    "id": "6df522c7-de96-4790-a66a-510f9591b7a2",
    "name": "Chainline Brewing Company - Chainline Station",
    "brewery_type": "taproom",
    "address_1": "604 5th Pl S",
    "address_2": null,
    "address_3": null,
    "city": "Kirkland",
    "state_province": "Washington",
    "postal_code": "98033-6673",
    "country": "United States",
    "longitude": -122.19816854523,
    "latitude": 47.670639091347,
    "phone": "4255424550",
    "website_url": "https://chainlinebrewing.com",
    "state": "Washington",
    "street": "604 5th Pl S"
  },
  {
    "id": "9a5923b4-e597-40e8-8b91-8ae103c1fa03",
    "name": "Chainline Brewing Company Taproom at Urban",
    "brewery_type": "micro",
    "address_1": "500 Uptown Ct Ste 210",
    "address_2": null,
    "address_3": null,
    "city": "Kirkland",
    "state_province": "Washington",
    "postal_code": "98033-5375",
    "country": "United States",
    "longitude": -122.19855,
    "latitude": 47.67924,
    "phone": "4252420923",
    "website_url": "http://www.chainlinebrewing.com",
    "state": "Washington",
    "street": "500 Uptown Ct Ste 210"
  },
  {
    "id": "ccdcafc4-b513-4979-b45c-b4103b1d5a9a",
    "name": "Champion Brewing Company",
    "brewery_type": "micro",
    "address_1": "324 6th St SE",
    "address_2": null,
    "address_3": null,
    "city": "Charlottesville",
    "state_province": "Virginia",
    "postal_code": "22902-5655",
    "country": "United States",
    "longitude": -78.4784691,
    "latitude": 38.0277402,
    "phone": "4342952739",
    "website_url": "http://www.championbrewingcompany.com",
    "state": "Virginia",
    "street": "324 6th St SE"
  },
  {
    "id": "6e39f621-d0ff-4765-97c2-53224a0d3825",
    "name": "Chandeleur Island Brewing Company",
    "brewery_type": "micro",
    "address_1": "2711 14th St",
    "address_2": null,
    "address_3": null,
    "city": "Gulfport",
    "state_province": "Mississippi",
    "postal_code": "39501-1928",
    "country": "United States",
    "longitude": -89.09540702,
    "latitude": 30.367827,
    "phone": "2287019985",
    "website_url": "http://www.chandeleurbrew.com",
    "state": "Mississippi",
    "street": "2711 14th St"
  },
  {
    "id": "852afa33-abfd-43c6-8a70-25726671635f",
    "name": "Chandler's Ford Brewing LLC",
    "brewery_type": "planning",
    "address_1": null,
    "address_2": null,
    "address_3": null,
    "city": "Huntsville",
    "state_province": "Alabama",
    "postal_code": "35802",
    "country": "United States",
    "longitude": -86.5859011,
    "latitude": 34.729847,
    "phone": "2564576999",
    "website_url": "http://chandlersfordbrewing.com",
    "state": "Alabama",
    "street": null
  },
  {
    "id": "60b2dd42-d68e-482b-a6a9-5b67213fd4d4",
    "name": "Channel Brewing Co.",
    "brewery_type": "micro",
    "address_1": "110 N San Joaquin St",
    "address_2": null,
    "address_3": null,
    "city": "Stockton",
    "state_province": "California",
    "postal_code": "95209-4506",
    "country": "United States",
    "longitude": -121.2874106,
    "latitude": 37.95439196,
    "phone": "2094904133",
    "website_url": "http://www.channelbrewing.co",
    "state": "California",
    "street": "110 N San Joaquin St"
  },
  {
    "id": "50f44b4d-4e59-4fbb-9a62-f10bb61496c5",
    "name": "Chaos Bay Brewing Co",
    "brewery_type": "micro",
    "address_1": "2901 Perry Ave",
    "address_2": null,
    "address_3": null,
    "city": "Bremerton",
    "state_province": "Washington",
    "postal_code": "98310-4945",
    "country": "United States",
    "longitude": -122.6145084,
    "latitude": 47.58932601,
    "phone": "3603772344",
    "website_url": "https://www.chaosbaybrewing.com",
    "state": "Washington",
    "street": "2901 Perry Ave"
  },
  {
    "id": "82055805-2151-4d92-aa60-9f30c6c0457c",
    "name": "Chaos Brewing",
    "brewery_type": "micro",
    "address_1": "112 S Main St",
    "address_2": null,
    "address_3": null,
    "city": "Joplin",
    "state_province": "Missouri",
    "postal_code": "64801",
    "country": "United States",
    "longitude": -94.514437,
    "latitude": 37.1027,
    "phone": null,
    "website_url": "http://www.chaosbrewing.beer",
    "state": "Missouri",
    "street": "112 S Main St"
  },
  {
    "id": "5afdddcd-a7dc-4667-bef8-0da63fe4c00f",
    "name": "Chaos Mountain Brewing, LLC",
    "brewery_type": "micro",
    "address_1": "3135 Dillons Mill Rd",
    "address_2": null,
    "address_3": null,
    "city": "Callaway",
    "state_province": "Virginia",
    "postal_code": "24067-2615",
    "country": "United States",
    "longitude": null,
    "latitude": null,
    "phone": "5403341600",
    "website_url": "http://www.chaosmountainbrewing.com",
    "state": "Virginia",
    "street": "3135 Dillons Mill Rd"
  },
  {
    "id": "fa90e092-28ce-4e31-98d3-d2afd28c26f3",
    "name": "Chapeau Brewing Co",
    "brewery_type": "micro",
    "address_1": "Redkiln Close",
    "address_2": null,
    "address_3": null,
    "city": "Horsham",
    "state_province": "West Sussex",
    "postal_code": "RH13 5QL",
    "country": "England",
    "longitude": -0.30833,
    "latitude": 51.070596,
    "phone": "1403252459",
    "website_url": "https://www.chapeaubrewing.com/",
    "state": "West Sussex",
    "street": "Redkiln Close"
  },
  {
    "id": "c34f869b-04f7-4614-bfbc-9a0d9f142ed8",
    "name": "Chapel + Main",
    "brewery_type": "brewpub",
    "address_1": "83 Main St",
    "address_2": null,
    "address_3": null,
    "city": "Dover",
    "state_province": "New Hampshire",
    "postal_code": "03820",
    "country": "United States",
    "longitude": null,
    "latitude": null,
    "phone": "6038425170",
    "website_url": null,
    "state": "New Hampshire",
    "street": "83 Main St"
  },
  {
    "id": "e2a24eaa-1fc3-44a9-b05b-38820ef4a978",
    "name": "Chapel Brewing",
    "brewery_type": "micro",
    "address_1": "15 Hester St E",
    "address_2": null,
    "address_3": null,
    "city": "Dundas",
    "state_province": "Minnesota",
    "postal_code": "55019-3942",
    "country": "United States",
    "longitude": null,
    "latitude": null,
    "phone": "5076641300",
    "website_url": "http://www.chapelbrewing.com",
    "state": "Minnesota",
    "street": "15 Hester St E"
  },
  {
    "id": "96ac0045-d677-4fe5-8dba-ba3fca9f2fe1",
    "name": "Chapman Crafted Beer",
    "brewery_type": "micro",
    "address_1": "123 N Cypress St",
    "address_2": null,
    "address_3": null,
    "city": "Orange",
    "state_province": "California",
    "postal_code": "92866-1309",
    "country": "United States",
    "longitude": -117.856454,
    "latitude": 33.788493,
    "phone": "8448552337",
    "website_url": "http://www.chapmancrafted.beer",
    "state": "California",
    "street": "123 N Cypress St"
  },
  {
    "id": "d4df1800-b94f-47bf-bb45-c8fa08d2f766",
    "name": "Chapman's Brewing Company",
    "brewery_type": "brewpub",
    "address_1": "300 Industrial Dr",
    "address_2": null,
    "address_3": null,
    "city": "Angola",
    "state_province": "Indiana",
    "postal_code": "46703-1053",
    "country": "United States",
    "longitude": -85.00164782,
    "latitude": 41.64836256,
    "phone": "2603195495",
    "website_url": "http://www.chapmansbrewing.com",
    "state": "Indiana",
    "street": "300 Industrial Dr"
  },
  {
    "id": "84bda627-35de-4adc-89a8-d55ea166b330",
    "name": "Chapman's Brewing Company",
    "brewery_type": "planning",
    "address_1": null,
    "address_2": null,
    "address_3": null,
    "city": "Wabash",
    "state_province": "Indiana",
    "postal_code": "46992-3131",
    "country": "United States",
    "longitude": null,
    "latitude": null,
    "phone": null,
    "website_url": "http://www.chapmansbrewing.com",
    "state": "Indiana",
    "street": null
  },
  {
    "id": "d672e35e-6486-4d98-9343-994e67768660",
    "name": "Chappapeela Farms Brewery",
    "brewery_type": "micro",
    "address_1": "57542 Hillcrest School Rd",
    "address_2": null,
    "address_3": null,
    "city": "Amite",
    "state_province": "Louisiana",
    "postal_code": "70422-4922",
    "country": "United States",
    "longitude": null,
    "latitude": null,
    "phone": "2252819474",
    "website_url": "http://www.chapbrewery.com",
    "state": "Louisiana",
    "street": "57542 Hillcrest School Rd"
  },
  {
    "id": "98c74480-648c-4e48-9740-bfef75a0310e",
    "name": "Charles Towne Fermentory",
    "brewery_type": "micro",
    "address_1": "809 Savannah Hwy",
    "address_2": null,
    "address_3": null,
    "city": "Charleston",
    "state_province": "South Carolina",
    "postal_code": "29407-7278",
    "country": "United States",
    "longitude": -79.985096,
    "latitude": 32.781811,
    "phone": "8436410431",
    "website_url": "http://www.chsfermentory.com",
    "state": "South Carolina",
    "street": "809 Savannah Hwy"
  },
  {
    "id": "323df94a-cbe9-4948-afef-dccd585de0a5",
    "name": "Charleston Nano Brewery",
    "brewery_type": "nano",
    "address_1": "320 W Washington St",
    "address_2": null,
    "address_3": null,
    "city": "Charleston",
    "state_province": "West Virginia",
    "postal_code": "25302-2231",
    "country": "United States",
    "longitude": -81.61537541623,
    "latitude": 38.377733897225,
    "phone": "3043437289",
    "website_url": "http://www.charlestonnano.com",
    "state": "West Virginia",
    "street": "320 W Washington St"
  },
  {
    "id": "d03afb99-77f5-472e-add0-52b4da9d6b59",
    "name": "Charleville Vineyard & Microbrewery",
    "brewery_type": "micro",
    "address_1": "16937 Boyd Rd",
    "address_2": null,
    "address_3": null,
    "city": "Sainte Genevieve",
    "state_province": "Missouri",
    "postal_code": "63670-7914",
    "country": "United States",
    "longitude": -90.150279,
    "latitude": 37.757916,
    "phone": "5737564537",
    "website_url": "http://www.charlevillevineyard.com",
    "state": "Missouri",
    "street": "16937 Boyd Rd"
  },
  {
    "id": "44c7a96e-0bb9-4477-9302-9571d15068bf",
    "name": "Charlie and Jakes Brewery and Grille",
    "brewery_type": "brewpub",
    "address_1": "6300 N Wickham Rd Ste 137",
    "address_2": null,
    "address_3": null,
    "city": "Melbourne",
    "state_province": "Florida",
    "postal_code": "32940-2037",
    "country": "United States",
    "longitude": null,
    "latitude": null,
    "phone": "3217527675",
    "website_url": "http://www.cjbrewery.com",
    "state": "Florida",
    "street": "6300 N Wickham Rd Ste 137"
  },
  {
    "id": "e1677dd0-b321-4dd6-be81-713226ddd0bc",
    "name": "Charlie's Steak, Ribs & Ale",
    "brewery_type": "brewpub",
    "address_1": "3009 W 76 Country Blvd",
    "address_2": null,
    "address_3": null,
    "city": "Branson",
    "state_province": "Missouri",
    "postal_code": "65616-8312",
    "country": "United States",
    "longitude": -93.275808,
    "latitude": 36.639618,
    "phone": "4173346090",
    "website_url": "http://www.charliesbranson.com",
    "state": "Missouri",
    "street": "3009 W 76 Country Blvd"
  },
  {
    "id": "d7646611-58cd-4b1d-9572-c373a8c33401",
    "name": "Charlton Beer Company",
    "brewery_type": "micro",
    "address_1": null,
    "address_2": null,
    "address_3": null,
    "city": "Charlton",
    "state_province": "Massachusetts",
    "postal_code": "01507",
    "country": "United States",
    "longitude": null,
    "latitude": null,
    "phone": "5082485627",
    "website_url": "http://www.charltonbeercompany.com",
    "state": "Massachusetts",
    "street": null
  },
  {
    "id": "e01090fe-7c0c-42b6-ab1a-7f47b734dab9",
    "name": "Charter Oak Brewing Company LLC",
    "brewery_type": "contract",
    "address_1": "39B Shelter Rock Rd",
    "address_2": null,
    "address_3": null,
    "city": "Danbury",
    "state_province": "Connecticut",
    "postal_code": "06810-7043",
    "country": "United States",
    "longitude": -73.40421711,
    "latitude": 41.3961903,
    "phone": "2036165268",
    "website_url": "http://www.charteroakbrewing.com",
    "state": "Connecticut",
    "street": "39B Shelter Rock Rd"
  },
  {
    "id": "117fca17-2f1b-48dc-9036-b64d39dc0711",
    "name": "Chase Brewing Company / Chase Tap Room",
    "brewery_type": "brewpub",
    "address_1": "266 Jefferson St",
    "address_2": null,
    "address_3": null,
    "city": "Lexington",
    "state_province": "Kentucky",
    "postal_code": "40508-1217",
    "country": "United States",
    "longitude": -84.4986682,
    "latitude": 38.0546834,
    "phone": "8597973113",
    "website_url": "http://www.chasebrewing.com",
    "state": "Kentucky",
    "street": "266 Jefferson St"
  },
  {
    "id": "c1955297-f27b-4cdd-a34d-83626a1d7593",
    "name": "Chatham Brewing LLC",
    "brewery_type": "micro",
    "address_1": "59 Main St",
    "address_2": null,
    "address_3": null,
    "city": "Chatham",
    "state_province": "New York",
    "postal_code": "12037-1249",
    "country": "United States",
    "longitude": -73.59546931,
    "latitude": 42.36315065,
    "phone": "5186970202",
    "website_url": "http://www.chathambrewing.com",
    "state": "New York",
    "street": "59 Main St"
  },
  {
    "id": "c7b4ae17-1cbd-4a08-9b21-07a7a0bf1689",
    "name": "Chatoe Rogue Farmstead Brewery",
    "brewery_type": "closed",
    "address_1": "3590 Wigrich Rd",
    "address_2": null,
    "address_3": null,
    "city": "Independence",
    "state_province": "Oregon",
    "postal_code": "97351-9708",
    "country": "United States",
    "longitude": -123.0958477,
    "latitude": 44.80583507,
    "phone": "5038389813",
    "website_url": "http://www.rogue.com",
    "state": "Oregon",
    "street": "3590 Wigrich Rd"
  },
  {
    "id": "32e080ba-5023-493a-a6ea-0a13f5be02fb",
    "name": "Chattabrewchee Southern Brewhouse",
    "brewery_type": "micro",
    "address_1": "709 4th Ave",
    "address_2": null,
    "address_3": null,
    "city": "West Point",
    "state_province": "Georgia",
    "postal_code": "31833-1506",
    "country": "United States",
    "longitude": -85.18536152,
    "latitude": 32.87625763,
    "phone": "7065011151",
    "website_url": "http://www.chattabrewchee.com",
    "state": "Georgia",
    "street": "709 4th Ave"
  },
  {
    "id": "42e77bcd-0745-4456-bd46-4a917ce4e790",
    "name": "Chattahoochee Brewing Co",
    "brewery_type": "micro",
    "address_1": "505 13th St Ste A",
    "address_2": null,
    "address_3": null,
    "city": "Phenix City",
    "state_province": "Alabama",
    "postal_code": "36867-5128",
    "country": "United States",
    "longitude": null,
    "latitude": null,
    "phone": "3345590663",
    "website_url": "http://www.beerontheriver.com",
    "state": "Alabama",
    "street": "505 13th St Ste A"
  },
  {
    "id": "2df305d1-54c9-4414-aa77-cb4cd99044bd",
    "name": "Chattanooga Brewing Co",
    "brewery_type": "micro",
    "address_1": "1804 Chestnut St",
    "address_2": null,
    "address_3": null,
    "city": "Chattanooga",
    "state_province": "Tennessee",
    "postal_code": "37408-1027",
    "country": "United States",
    "longitude": -85.31443025,
    "latitude": 35.03633349,
    "phone": "4237029958",
    "website_url": "http://www.chattabrew.com",
    "state": "Tennessee",
    "street": "1804 Chestnut St"
  },
  {
    "id": "047bcd29-88dc-4b9d-843d-502921e8001e",
    "name": "Chatty Monks Brewing Company",
    "brewery_type": "brewpub",
    "address_1": "610 Penn Ave",
    "address_2": null,
    "address_3": null,
    "city": "West Reading",
    "state_province": "Pennsylvania",
    "postal_code": "19611-1004",
    "country": "United States",
    "longitude": -75.95000063,
    "latitude": 40.3357192,
    "phone": "4848180176",
    "website_url": "http://www.chattymonks.com",
    "state": "Pennsylvania",
    "street": "610 Penn Ave"
  },
  {
    "id": "468df106-530f-47c1-956a-8544beb7c6d6",
    "name": "Chau Tien Beer Company",
    "brewery_type": "contract",
    "address_1": null,
    "address_2": null,
    "address_3": null,
    "city": "Fairfield",
    "state_province": "California",
    "postal_code": "94533-0244",
    "country": "United States",
    "longitude": -122.0399663,
    "latitude": 38.2493581,
    "phone": "7072808044",
    "website_url": "http://www.paleale.com",
    "state": "California",
    "street": null
  },
  {
    "id": "18b7d2b2-1f37-41af-a89f-837ce6e80691",
    "name": "Cheaha Brewing Co",
    "brewery_type": "brewpub",
    "address_1": "1208 Walnut Ave",
    "address_2": null,
    "address_3": null,
    "city": "Anniston",
    "state_province": "Alabama",
    "postal_code": "36201-4526",
    "country": "United States",
    "longitude": -85.83377405,
    "latitude": 33.6601671,
    "phone": "2567707300",
    "website_url": "http://www.cheahabrewingcompany.com",
    "state": "Alabama",
    "street": "1208 Walnut Ave"
  },
  {
    "id": "b7f56781-add6-4bba-a3df-62a254f64971",
    "name": "Cheboygan Brewing Co",
    "brewery_type": "micro",
    "address_1": "101 N Main St",
    "address_2": null,
    "address_3": null,
    "city": "Cheboygan",
    "state_province": "Michigan",
    "postal_code": "49721-1637",
    "country": "United States",
    "longitude": -84.4743633,
    "latitude": 45.647403,
    "phone": "2312683277",
    "website_url": "http://www.cheboyganbrewing.com",
    "state": "Michigan",
    "street": "101 N Main St"
  }
]