[
  {
    "id": "bc1c658f-3780-4a49-b62a-ba9da764cf15",
    "name": "Daredevil Brewing Company",
    "brewery_type": "micro",
    "address_1": "1151 Main St",
    "address_2": null,
    "address_3": null,
    "city": "Indianapolis",
    "state_province": "Indiana",
    "postal_code": "46224-6976",
    "country": "United States",
    "longitude": -86.64727,
    "latitude": 39.844367,
    "phone": null,
    "website_url": "http://www.daredevilbeer.com",
    "state": "Indiana",
    "street": "1151 Main St"
  },
  {
    "id": "e819c7a4-d8a6-4999-b99f-1e7f45b46d71",
    "name": "Dark City Brewing Company",
    "brewery_type": "micro",
    "address_1": "801 Second Ave",
    "address_2": null,
    "address_3": null,
    "city": "Asbury Park",
    "state_province": "New Jersey",
    "postal_code": "07712-",
    "country": "United States",
    "longitude": null,
    "latitude": null,
    "phone": "7324553792",
    "website_url": "http://www.darkcitybrewing.com",
    "state": "New Jersey",
    "street": "801 Second Ave"
  },
  {
    "id": "70dbd577-56bb-4480-b51c-6f33123147d3",
    "name": "Dark Horse Brewing Co",
    "brewery_type": "micro",
    "address_1": "511 S Kalamazoo Ave",
    "address_2": null,
    "address_3": null,
    "city": "Marshall",
    "state_province": "Michigan",
    "postal_code": "49068-1718",
    "country": "United States",
    "longitude": -84.96397652,
    "latitude": 42.26638824,
    "phone": "2697819940",
    "website_url": "http://www.darkhorsebrewery.com",
    "state": "Michigan",
    "street": "511 S Kalamazoo Ave"
  },
  {
    "id": "9011ccfc-f054-47f3-9cdd-b52191746738",
    "name": "Dark Nebula Brewing  Co",
    "brewery_type": "planning",
    "address_1": "612 Tenney Mountain Highway",
    "address_2": null,
    "address_3": null,
    "city": "Plymouth",
    "state_province": "New Hampshire",
    "postal_code": "03264",
    "country": "United States",
    "longitude": null,
    "latitude": null,
    "phone": "6033694211",
    "website_url": "https://www.darknebulabrewing.com/",
    "state": "New Hampshire",
    "street": "612 Tenney Mountain Highway"
  },
  {
    "id": "eca31bef-2859-48a2-b933-bb9908a600f5",
    "name": "Dark Sea Cinema And Brewery",
    "brewery_type": "planning",
    "address_1": null,
    "address_2": null,
    "address_3": null,
    "city": "Oakland",
    "state_province": "California",
    "postal_code": "94609-1804",
    "country": "United States",
    "longitude": -122.2713563,
    "latitude": 37.8044557,
    "phone": null,
    "website_url": "http://microcinemabrewery.com",
    "state": "California",
    "street": null
  },
  {
    "id": "f9d22f56-1b7d-4483-afe6-66526c954861",
    "name": "Dark Sky Brewing Co.",
    "brewery_type": "micro",
    "address_1": "117 N Beaver St Ste A",
    "address_2": null,
    "address_3": null,
    "city": "Flagstaff",
    "state_province": "Arizona",
    "postal_code": "86001-5677",
    "country": "United States",
    "longitude": null,
    "latitude": null,
    "phone": "9282354525",
    "website_url": "http://www.darkskybrewing.com",
    "state": "Arizona",
    "street": "117 N Beaver St Ste A"
  },
  {
    "id": "bb8e4f8e-3197-4ce7-9ee5-41f3f8f2c192",
    "name": "Dark Star Brewing Co Ltd",
    "brewery_type": "taproom",
    "address_1": "Star Road",
    "address_2": null,
    "address_3": null,
    "city": "Horsham",
    "state_province": "West Sussex",
    "postal_code": "RH13 8RA",
    "country": "England",
    "longitude": -0.304978,
    "latitude": 50.957145,
    "phone": "1403713085",
    "website_url": "https://www.darkstarbrewing.co.uk/",
    "state": "West Sussex",
    "street": "Star Road"
  },
  {
    "id": "227fad1b-8030-4628-b62c-e82e544d7783",
    "name": "Darkness Brewing",
    "brewery_type": "micro",
    "address_1": "224 Fairfield Ave",
    "address_2": null,
    "address_3": null,
    "city": "Bellevue",
    "state_province": "Kentucky",
    "postal_code": "41073-1041",
    "country": "United States",
    "longitude": -84.48468072,
    "latitude": 39.10500991,
    "phone": null,
    "website_url": null,
    "state": "Kentucky",
    "street": "224 Fairfield Ave"
  },
  {
    "id": "57e52f8c-6b7f-4a55-83f1-203e2faa7f60",
    "name": "Darwin Brewing Co",
    "brewery_type": "micro",
    "address_1": "803 17th Ave W",
    "address_2": null,
    "address_3": null,
    "city": "Bradenton",
    "state_province": "Florida",
    "postal_code": "34205-7608",
    "country": "United States",
    "longitude": -82.57040458,
    "latitude": 27.48432988,
    "phone": "9417471970",
    "website_url": "http://www.darwinbrewingco.com",
    "state": "Florida",
    "street": "803 17th Ave W"
  },
  {
    "id": "fd74cc7b-1172-4664-9166-e9a7788d84c2",
    "name": "Daugherty Brewing Company",
    "brewery_type": "planning",
    "address_1": null,
    "address_2": null,
    "address_3": null,
    "city": "Erie",
    "state_province": "Pennsylvania",
    "postal_code": "16510-3680",
    "country": "United States",
    "longitude": null,
    "latitude": null,
    "phone": null,
    "website_url": "http://www.daughertybrewingcompany.com",
    "state": "Pennsylvania",
    "street": null
  },
  {
    "id": "77fbe71c-77bd-4ace-99d6-e519f1f84f03",
    "name": "Dauntless Brewing Company",
    "brewery_type": "planning",
    "address_1": null,
    "address_2": null,
    "address_3": null,
    "city": "Farmers Branch",
    "state_province": "Texas",
    "postal_code": "75234-2334",
    "country": "United States",
    "longitude": null,
    "latitude": null,
    "phone": "9035213472",
    "website_url": null,
    "state": "Texas",
    "street": null
  },
  {
    "id": "ef1cf3fb-430d-4334-a7db-69ea18ecead9",
    "name": "Dave's Brew Farm",
    "brewery_type": "closed",
    "address_1": "2470 Wilson St",
    "address_2": null,
    "address_3": null,
    "city": "Wilson",
    "state_province": "Wisconsin",
    "postal_code": "54027-3950",
    "country": "United States",
    "longitude": -92.176188,
    "latitude": 44.959339,
    "phone": "6124328130",
    "website_url": "http://www.brewfarm.com",
    "state": "Wisconsin",
    "street": "2470 Wilson St"
  },
  {
    "id": "0487123b-a36d-410a-8154-8e6f6b5f9bb0",
    "name": "Davidson Brothers Restaurant and Brewery",
    "brewery_type": "brewpub",
    "address_1": "184 Glen St Rte 9",
    "address_2": null,
    "address_3": null,
    "city": "Glens Falls",
    "state_province": "New York",
    "postal_code": "12801-0409",
    "country": "United States",
    "longitude": null,
    "latitude": null,
    "phone": "5187439026",
    "website_url": "http://www.davidsonbrothers.com",
    "state": "New York",
    "street": "184 Glen St Rte 9"
  },
  {
    "id": "cd47e129-f9a4-4744-9f43-de3638550dbe",
    "name": "Day Block Brewing Company",
    "brewery_type": "brewpub",
    "address_1": "1105 Washington Ave S",
    "address_2": null,
    "address_3": null,
    "city": "Minneapolis",
    "state_province": "Minnesota",
    "postal_code": "55415-1225",
    "country": "United States",
    "longitude": -93.253074,
    "latitude": 44.9751757,
    "phone": "6126177793",
    "website_url": "http://Dayblockbrewing.com",
    "state": "Minnesota",
    "street": "1105 Washington Ave S"
  },
  {
    "id": "5abd655a-b5ac-4a21-b014-1f88ffae1641",
    "name": "Daydreaming Brewing Company",
    "brewery_type": "micro",
    "address_1": "1 1/2 E Broadway",
    "address_2": null,
    "address_3": null,
    "city": "Derry",
    "state_province": "New Hampshire",
    "postal_code": "03038",
    "country": "United States",
    "longitude": null,
    "latitude": null,
    "phone": "6039653454",
    "website_url": null,
    "state": "New Hampshire",
    "street": "1 1/2 E Broadway"
  },
  {
    "id": "94cd9d0e-312e-4f41-8162-50179ef32e8a",
    "name": "Dayton Beer Co Production Brewery & Bierhall",
    "brewery_type": "micro",
    "address_1": "41 Madison St",
    "address_2": null,
    "address_3": null,
    "city": "Dayton",
    "state_province": "Ohio",
    "postal_code": "45402-2105",
    "country": "United States",
    "longitude": -84.18528868,
    "latitude": 39.76226676,
    "phone": "9372282337",
    "website_url": "http://www.thedaytonbeerco.com",
    "state": "Ohio",
    "street": "41 Madison St"
  },
  {
    "id": "4fe3ec65-0606-43e6-9eeb-33151ac9ce76",
    "name": "Daytona Beach Brewing Company",
    "brewery_type": "micro",
    "address_1": "482 Fentress Blvd Ste N",
    "address_2": null,
    "address_3": null,
    "city": "Daytona Beach",
    "state_province": "Florida",
    "postal_code": "32114-1298",
    "country": "United States",
    "longitude": null,
    "latitude": null,
    "phone": "3866792337",
    "website_url": "http://www.daytonabeachbrewingcompany.com",
    "state": "Florida",
    "street": "482 Fentress Blvd Ste N"
  },
  {
    "id": "1cd1dfd7-851b-4912-9bfe-2828dddc6540",
    "name": "DC Brau Brewing Company",
    "brewery_type": "regional",
    "address_1": "3178 Bladensburg Rd NE Ste B",
    "address_2": null,
    "address_3": null,
    "city": "Washington",
    "state_province": "District of Columbia",
    "postal_code": "20018-2214",
    "country": "United States",
    "longitude": null,
    "latitude": null,
    "phone": "2026218890",
    "website_url": "http://www.dcbrau.com",
    "state": "District of Columbia",
    "street": "3178 Bladensburg Rd NE Ste B"
  },
  {
    "id": "59f9f6fc-ea91-4fb3-9445-2f21156b1e6d",
    "name": "De Bine Brewing Company",
    "brewery_type": "micro",
    "address_1": "993 Florida Ave",
    "address_2": null,
    "address_3": null,
    "city": "Palm Harbor",
    "state_province": "Florida",
    "postal_code": "34683-4224",
    "country": "United States",
    "longitude": -82.76761678,
    "latitude": 28.07847685,
    "phone": "7272337964",
    "website_url": "http://www.debinebrewingco.com",
    "state": "Florida",
    "street": "993 Florida Ave"
  },
  {
    "id": "d563d869-5b6e-4da1-acf8-479d5d39dd6d",
    "name": "De Garde Brewing",
    "brewery_type": "micro",
    "address_1": "114 Ivy Ave",
    "address_2": null,
    "address_3": null,
    "city": "Tillamook",
    "state_province": "Oregon",
    "postal_code": "97141-2214",
    "country": "United States",
    "longitude": -123.8454035,
    "latitude": 45.45730575,
    "phone": "5038151635",
    "website_url": "http://www.degardebrewing.com/",
    "state": "Oregon",
    "street": "114 Ivy Ave"
  },
  {
    "id": "82d6623d-c9e3-4d5f-a2ae-82d175bf00e6",
    "name": "De La Vega\u00e2\u0080\u0099s Pecan Grill and Brewery",
    "brewery_type": "contract",
    "address_1": "500 S Telshor Blvd",
    "address_2": null,
    "address_3": null,
    "city": "Las Cruces",
    "state_province": "New Mexico",
    "postal_code": "88011-4613",
    "country": "United States",
    "longitude": -106.7374222,
    "latitude": 32.3019659,
    "phone": "5755211099",
    "website_url": "http://www.pecangrill.com",
    "state": "New Mexico",
    "street": "500 S Telshor Blvd"
  },
  {
    "id": "620a0c65-51c4-4be2-be16-025a3f102fbc",
    "name": "Dead Armadillo Brewery",
    "brewery_type": "micro",
    "address_1": "1004 E 4th St",
    "address_2": null,
    "address_3": null,
    "city": "Tulsa",
    "state_province": "Oklahoma",
    "postal_code": "74120-3222",
    "country": "United States",
    "longitude": -95.97958641,
    "latitude": 36.15561908,
    "phone": "9189499233",
    "website_url": "http://www.dabrewery.com",
    "state": "Oklahoma",
    "street": "1004 E 4th St"
  },
  {
    "id": "629f9712-6143-43a5-a29c-bf2a8396ea1d",
    "name": "Dead Bear Brewing Co",
    "brewery_type": "brewpub",
    "address_1": "2552 S I 75 Business Loop",
    "address_2": null,
    "address_3": null,
    "city": "Grayling",
    "state_province": "Michigan",
    "postal_code": "49738-2010",
    "country": "United States",
    "longitude": null,
    "latitude": null,
    "phone": "9897456289",
    "website_url": null,
    "state": "Michigan",
    "street": "2552 S I 75 Business Loop"
  },
  {
    "id": "5f82df6e-52a9-4143-8ea5-93294d43d645",
    "name": "Dead Bird Brewing Company",
    "brewery_type": "micro",
    "address_1": "1726 N 5th St",
    "address_2": null,
    "address_3": null,
    "city": "Milwaukee",
    "state_province": "Wisconsin",
    "postal_code": "53212",
    "country": "United States",
    "longitude": -87.91702858859,
    "latitude": 43.05338836859,
    "phone": null,
    "website_url": "http://www.deadbirdbrewing.com",
    "state": "Wisconsin",
    "street": "1726 N 5th St"
  },
  {
    "id": "e34b5399-e300-423a-8c2e-34f1091878b1",
    "name": "Dead Centre Brewing",
    "brewery_type": "brewpub",
    "address_1": "Custume Pier Appartments",
    "address_2": null,
    "address_3": null,
    "city": "Athlone",
    "state_province": "Westmeath",
    "postal_code": "N37 N1F2",
    "country": "Ireland",
    "longitude": -7.9428529,
    "latitude": 53.4236546,
    "phone": "353906420883",
    "website_url": "http://deadcentrebrewing.com/",
    "state": "Westmeath",
    "street": "Custume Pier Appartments"
  },
  {
    "id": "8fbdcf95-99f8-4543-ad86-4e9ef3dd2819",
    "name": "Dead Eric Brewing Co. LLC",
    "brewery_type": "micro",
    "address_1": "433 Old House Rd",
    "address_2": null,
    "address_3": null,
    "city": "Ridgeland",
    "state_province": "South Carolina",
    "postal_code": "29936-6946",
    "country": "United States",
    "longitude": -83.042921,
    "latitude": 34.723368,
    "phone": "8433383693",
    "website_url": "http://www.deadericbrewing.com",
    "state": "South Carolina",
    "street": "433 Old House Rd"
  },
  {
    "id": "1d032e21-1272-4825-b33b-f3f6d4c6ec43",
    "name": "Dead Hippie Brewing",
    "brewery_type": "micro",
    "address_1": "3701 S Santa Fe Dr Unit 7",
    "address_2": null,
    "address_3": null,
    "city": "Sheridan",
    "state_province": "Colorado",
    "postal_code": "80110-3344",
    "country": "United States",
    "longitude": null,
    "latitude": null,
    "phone": "7204467961",
    "website_url": "http://www.deadhippiebrewing.com",
    "state": "Colorado",
    "street": "3701 S Santa Fe Dr Unit 7"
  },
  {
    "id": "53b24a8d-eb78-4361-8cf8-c060925d2f73",
    "name": "Dead Lizard Brewing Company",
    "brewery_type": "micro",
    "address_1": "4507 36th St Ste C",
    "address_2": null,
    "address_3": null,
    "city": "Orlando",
    "state_province": "Florida",
    "postal_code": "32811-6520",
    "country": "United States",
    "longitude": null,
    "latitude": null,
    "phone": "4077108949",
    "website_url": "http://www.deadlizardbrewing.com",
    "state": "Florida",
    "street": "4507 36th St Ste C"
  },
  {
    "id": "7324090e-aaf4-4a30-8370-e8eb664445d0",
    "name": "Dead Low Brewing",
    "brewery_type": "planning",
    "address_1": null,
    "address_2": null,
    "address_3": null,
    "city": "Cincinnati",
    "state_province": "Ohio",
    "postal_code": "45230",
    "country": "United States",
    "longitude": null,
    "latitude": null,
    "phone": "5132909434",
    "website_url": "http://www.deadlowbrewing.com",
    "state": "Ohio",
    "street": null
  },
  {
    "id": "ccb30821-042d-43fc-a8a1-1ef9f9c6a288",
    "name": "Dead Oak Brewing Company",
    "brewery_type": "micro",
    "address_1": "5925 Entrada Ave",
    "address_2": null,
    "address_3": null,
    "city": "Atascadero",
    "state_province": "California",
    "postal_code": "93422-4223",
    "country": "United States",
    "longitude": -120.6687359,
    "latitude": 35.4897884,
    "phone": "6023327027",
    "website_url": "http://www.facebook.com/deadoakbrewing",
    "state": "California",
    "street": "5925 Entrada Ave"
  },
  {
    "id": "61101f4b-cd7e-401e-bab1-159dc83df85a",
    "name": "Deadbeach Brewery",
    "brewery_type": "brewpub",
    "address_1": "406 S Durango St",
    "address_2": null,
    "address_3": null,
    "city": "El Paso",
    "state_province": "Texas",
    "postal_code": "79901-1063",
    "country": "United States",
    "longitude": null,
    "latitude": null,
    "phone": "9158012337",
    "website_url": "http://www.deadbeach.com",
    "state": "Texas",
    "street": "406 S Durango St"
  },
  {
    "id": "e6e3663e-f931-44f1-ba5b-a9191f3eef41",
    "name": "Deadbeat Brewing Co",
    "brewery_type": "micro",
    "address_1": "14258 W Club Deluxe Rd",
    "address_2": null,
    "address_3": null,
    "city": "Hammond",
    "state_province": "Louisiana",
    "postal_code": "70403",
    "country": "United States",
    "longitude": -90.492386,
    "latitude": 30.475008,
    "phone": "9856620445",
    "website_url": "https://deadbeatbrewing.company.site",
    "state": "Louisiana",
    "street": "14258 W Club Deluxe Rd"
  },
  {
    "id": "c6c9841a-2199-4cf7-9892-4fcaa46d7fa1",
    "name": "Deadly Sins Brewing",
    "brewery_type": "micro",
    "address_1": "750 Jackson Ave Ste 102",
    "address_2": null,
    "address_3": null,
    "city": "Winter Park",
    "state_province": "Florida",
    "postal_code": "32789-4673",
    "country": "United States",
    "longitude": null,
    "latitude": null,
    "phone": "4079008726",
    "website_url": "http://www.deadlysinsbrewing.com",
    "state": "Florida",
    "street": "750 Jackson Ave Ste 102"
  },
  {
    "id": "d2f3c749-faf4-4551-a912-c207ccbc141a",
    "name": "Deadwood Brewery / Boston Bowl",
    "brewery_type": "brewpub",
    "address_1": "820 William T Morrissey Blvd",
    "address_2": null,
    "address_3": null,
    "city": "Boston",
    "state_province": "Massachusetts",
    "postal_code": "02122-3404",
    "country": "United States",
    "longitude": -71.04799748,
    "latitude": 42.29485605,
    "phone": "6177401440",
    "website_url": "http://www.deadwoodbrewery.com",
    "state": "Massachusetts",
    "street": "820 William T Morrissey Blvd"
  },
  {
    "id": "e18fd074-fb35-422b-85bd-b5ce56b72d2a",
    "name": "Dean and Co",
    "brewery_type": "micro",
    "address_1": "201 Grant St",
    "address_2": null,
    "address_3": null,
    "city": "La Junta",
    "state_province": "Colorado",
    "postal_code": "81050",
    "country": "United States",
    "longitude": null,
    "latitude": null,
    "phone": null,
    "website_url": null,
    "state": "Colorado",
    "street": "201 Grant St"
  },
  {
    "id": "532b0c2e-6f35-448e-8f77-2e4042be5e9b",
    "name": "Deanitude Brewing Company, LLC",
    "brewery_type": "planning",
    "address_1": null,
    "address_2": null,
    "address_3": null,
    "city": "Dallas",
    "state_province": "Texas",
    "postal_code": "75225-0734",
    "country": "United States",
    "longitude": null,
    "latitude": null,
    "phone": "2143600004",
    "website_url": "http://www.deanitudebrewing.com",
    "state": "Texas",
    "street": null
  },
  {
    "id": "6204438f-fe47-448d-9f43-25a19793d874",
    "name": "Deans Brothers Brewing Co.",
    "brewery_type": "micro",
    "address_1": "1006 S Hathaway St",
    "address_2": null,
    "address_3": null,
    "city": "Santa Ana",
    "state_province": "California",
    "postal_code": "92705-4129",
    "country": "United States",
    "longitude": -117.853182,
    "latitude": 33.7353305,
    "phone": "7145422001",
    "website_url": "http://www.deansbros.com",
    "state": "California",
    "street": "1006 S Hathaway St"
  },
  {
    "id": "1d6ae265-d8dd-4a19-9524-801019b356c6",
    "name": "Dearborn Brewing",
    "brewery_type": "micro",
    "address_1": "21930 Michigan Ave",
    "address_2": null,
    "address_3": null,
    "city": "Dearborn",
    "state_province": "Michigan",
    "postal_code": "48124-2351",
    "country": "United States",
    "longitude": -83.2433835,
    "latitude": 42.30664415,
    "phone": "3139144187",
    "website_url": "http://www.dearbornbrewing.com",
    "state": "Michigan",
    "street": "21930 Michigan Ave"
  },
  {
    "id": "c3a06a86-327d-43f5-8305-bef7578db4e9",
    "name": "Death Avenue",
    "brewery_type": "brewpub",
    "address_1": "315 10th Ave B/W 28th & 29th St.",
    "address_2": null,
    "address_3": null,
    "city": "New York",
    "state_province": "New York",
    "postal_code": "10001-1416",
    "country": "United States",
    "longitude": null,
    "latitude": null,
    "phone": "2126958080",
    "website_url": "http://www.deathave.com",
    "state": "New York",
    "street": "315 10th Ave B/W 28th & 29th St."
  },
  {
    "id": "37534d85-42a3-4ba2-ac1f-96a207b20c80",
    "name": "Death Of The Fox",
    "brewery_type": "micro",
    "address_1": "119 Berkley Rd Ste B",
    "address_2": null,
    "address_3": null,
    "city": "Clarksboro",
    "state_province": "New Jersey",
    "postal_code": "08020-1161",
    "country": "United States",
    "longitude": null,
    "latitude": null,
    "phone": null,
    "website_url": "http://www.deathofthefoxbrewing.com",
    "state": "New Jersey",
    "street": "119 Berkley Rd Ste B"
  },
  {
    "id": "ce7b7506-b385-43ad-96d9-4736c60a8843",
    "name": "Death Valley Brewing",
    "brewery_type": "micro",
    "address_1": "102 Old Spanish Trail Hwy",
    "address_2": null,
    "address_3": null,
    "city": "Tecopa",
    "state_province": "California",
    "postal_code": "92389",
    "country": "United States",
    "longitude": -116.2063394,
    "latitude": 35.84889235,
    "phone": "7608524273",
    "website_url": "http://www.deathvalleybrewing.com",
    "state": "California",
    "street": "102 Old Spanish Trail Hwy"
  },
  {
    "id": "1aa70549-6274-422c-ac3f-9c2e9df3b210",
    "name": "Deb's Brewtopia",
    "brewery_type": "micro",
    "address_1": "106 Cedar St",
    "address_2": null,
    "address_3": null,
    "city": "Elkader",
    "state_province": "Iowa",
    "postal_code": "52043",
    "country": "United States",
    "longitude": -91.40608353,
    "latitude": 42.85486681,
    "phone": "5632453737",
    "website_url": "http://www.debsbrewtopia.com",
    "state": "Iowa",
    "street": "106 Cedar St"
  },
  {
    "id": "9e543dda-cb7f-4dc9-a43d-e5c730b02ef0",
    "name": "Decadent Ales",
    "brewery_type": "micro",
    "address_1": "607A E Boston Post Rd",
    "address_2": null,
    "address_3": null,
    "city": "Mamaroneck",
    "state_province": "New York",
    "postal_code": "10543-",
    "country": "United States",
    "longitude": -73.72755206,
    "latitude": 40.95193675,
    "phone": "8005981085",
    "website_url": "http://www.decadentales.com",
    "state": "New York",
    "street": "607A E Boston Post Rd"
  },
  {
    "id": "cfb26ba4-d716-495e-9ce8-b40d3a0cf9f3",
    "name": "Decatur Brew Works",
    "brewery_type": "micro",
    "address_1": "101 N Main St",
    "address_2": null,
    "address_3": null,
    "city": "Decatur",
    "state_province": "Illinois",
    "postal_code": "62523-1206",
    "country": "United States",
    "longitude": -88.95573973,
    "latitude": 39.84128742,
    "phone": "2173308683",
    "website_url": "http://www.decaturbrewworks.com",
    "state": "Illinois",
    "street": "101 N Main St"
  },
  {
    "id": "4e286a11-b83b-4b84-9cc7-26165de8cbb7",
    "name": "Deception Brewing Company",
    "brewery_type": "closed",
    "address_1": "1174 SW Highway 99W",
    "address_2": null,
    "address_3": null,
    "city": "Dundee",
    "state_province": "Oregon",
    "postal_code": "97115",
    "country": "United States",
    "longitude": -123.0147466,
    "latitude": 45.27437643,
    "phone": "9718328054",
    "website_url": "http://www.deceptionbrewingco.com",
    "state": "Oregon",
    "street": "1174 SW Highway 99W"
  },
  {
    "id": "3bdba496-2442-4bef-b18d-08d6f2c525b3",
    "name": "Decibel Brewing Co",
    "brewery_type": "micro",
    "address_1": "18204 Bothell Everett Hwy Ste C",
    "address_2": null,
    "address_3": null,
    "city": "Bothell",
    "state_province": "Washington",
    "postal_code": "98012-6869",
    "country": "United States",
    "longitude": -122.210174,
    "latitude": 47.833364,
    "phone": "4254081946",
    "website_url": "http://www.decibelbrewing.com",
    "state": "Washington",
    "street": "18204 Bothell Everett Hwy Ste C"
  },
  {
    "id": "f8eb2cdf-8cda-482f-9df5-53e7bdc3d42f",
    "name": "Deciduous Brewing Company",
    "brewery_type": "micro",
    "address_1": "12 Weaver St",
    "address_2": null,
    "address_3": null,
    "city": "Newmarket",
    "state_province": "New Hampshire",
    "postal_code": "03857-2307",
    "country": "United States",
    "longitude": null,
    "latitude": null,
    "phone": "6032925809",
    "website_url": null,
    "state": "New Hampshire",
    "street": "12 Weaver St"
  },
  {
    "id": "e2610530-7819-4b89-80e6-86ea6fd7ff44",
    "name": "Deck Beer Garden",
    "brewery_type": "brewpub",
    "address_1": "Av. Aida 63",
    "address_2": null,
    "address_3": null,
    "city": "Estoril",
    "state_province": "Lisboa",
    "postal_code": "2765-187",
    "country": "Portugal",
    "longitude": -9.3993510993256,
    "latitude": 38.704282297252,
    "phone": "+351 21 468 2661",
    "website_url": "https://www.facebook.com/deckbeerlab",
    "state": "Lisboa",
    "street": "Av. Aida 63"
  },
  {
    "id": "9fbd0b0c-5aa5-417c-a699-85aa4dc90f86",
    "name": "Declaration Brewing Company",
    "brewery_type": "micro",
    "address_1": "2030 S Cherokee St",
    "address_2": null,
    "address_3": null,
    "city": "Denver",
    "state_province": "Colorado",
    "postal_code": "80223-3917",
    "country": "United States",
    "longitude": -104.9910056,
    "latitude": 39.67973155,
    "phone": "3039557410",
    "website_url": "http://www.declarationbrewing.com",
    "state": "Colorado",
    "street": "2030 S Cherokee St"
  },
  {
    "id": "60e1a83a-3b06-4d02-aef9-7e1ae7e9feec",
    "name": "Deep Brewing Company",
    "brewery_type": "micro",
    "address_1": "2524 Cathay Ct STE 2",
    "address_2": null,
    "address_3": null,
    "city": "Tallahassee",
    "state_province": "Florida",
    "postal_code": "32308-4248",
    "country": "United States",
    "longitude": null,
    "latitude": null,
    "phone": "8505701478",
    "website_url": "http://www.deepbrewing.com",
    "state": "Florida",
    "street": "2524 Cathay Ct STE 2"
  }
]