[
  {
    "id": "5be36509-b0db-42b2-89ac-09b98b7062f3",
    "name": "Storybook Brewing",
    "brewery_type": "micro",
    "address_1": "3121 N El Paso St Ste A",
    "address_2": null,
    "address_3": null,
    "city": "Colorado Springs",
    "state_province": "Colorado",
    "postal_code": "80907-5469",
    "country": "United States",
    "longitude": null,
    "latitude": null,
    "phone": "7196336266",
    "website_url": "http://www.storybookbrewing.com",
    "state": "Colorado",
    "street": "3121 N El Paso St Ste A"
  },
  {
    "id": "e9659928-655c-42e1-bf69-bf9a3fcb673f",
    "name": "Storytellers Brewery and Meet House, LLC",
    "brewery_type": "planning",
    "address_1": null,
    "address_2": null,
    "address_3": null,
    "city": "Corona",
    "state_province": "California",
    "postal_code": "92880-1798",
    "country": "United States",
    "longitude": -117.5664449,
    "latitude": 33.8752945,
    "phone": "9092475710",
    "website_url": "http://www.storytellersbrewery.com",
    "state": "California",
    "street": null
  },
  {
    "id": "1e5f9366-7e38-443f-87a2-77278d845c12",
    "name": "Stoudts Brewing Co",
    "brewery_type": "micro",
    "address_1": "\u00c2\u00a0Rt. 272 2800 North Reading Road",
    "address_2": null,
    "address_3": null,
    "city": "Adamstown",
    "state_province": "Pennsylvania",
    "postal_code": "19501",
    "country": "United States",
    "longitude": null,
    "latitude": null,
    "phone": "7174844386",
    "website_url": "http://www.stoudtsbeer.com",
    "state": "Pennsylvania",
    "street": "\u00c2\u00a0Rt. 272 2800 North Reading Road"
  },
  {
    "id": "9626985c-e888-4370-8bf1-6096ddaf1df8",
    "name": "Stoup Brewing",
    "brewery_type": "micro",
    "address_1": "1108 NW 52nd St",
    "address_2": null,
    "address_3": null,
    "city": "Seattle",
    "state_province": "Washington",
    "postal_code": "98107-5129",
    "country": "United States",
    "longitude": -122.3711883,
    "latitude": 47.6666399,
    "phone": "2064575524",
    "website_url": "http://www.stoupbrewing.com",
    "state": "Washington",
    "street": "1108 NW 52nd St"
  },
  {
    "id": "bbe40deb-da31-4fe6-aee8-f7cfd40c5416",
    "name": "Stout Beard Brewing Company",
    "brewery_type": "brewpub",
    "address_1": "1153 W Fayette St Ste 102",
    "address_2": null,
    "address_3": null,
    "city": "Syracuse",
    "state_province": "New York",
    "postal_code": "13204-2740",
    "country": "United States",
    "longitude": null,
    "latitude": null,
    "phone": "3153993016",
    "website_url": "http://www.stoutbeardbrewery.com",
    "state": "New York",
    "street": "1153 W Fayette St Ste 102"
  },
  {
    "id": "5623e30f-2e4e-44ba-924b-52e4c4551609",
    "name": "Stover Brewing",
    "brewery_type": "planning",
    "address_1": null,
    "address_2": null,
    "address_3": null,
    "city": "San Diego",
    "state_province": "California",
    "postal_code": "92124-1426",
    "country": "United States",
    "longitude": -117.1627714,
    "latitude": 32.7174209,
    "phone": "6193634677",
    "website_url": "http://www.stoverbrewing.com",
    "state": "California",
    "street": null
  },
  {
    "id": "a85eb847-20ed-421e-b887-0a040f71a0b1",
    "name": "Straight Shot Brewing",
    "brewery_type": "planning",
    "address_1": null,
    "address_2": null,
    "address_3": null,
    "city": "Poquoson",
    "state_province": "Virginia",
    "postal_code": "23662-0000",
    "country": "United States",
    "longitude": null,
    "latitude": null,
    "phone": null,
    "website_url": null,
    "state": "Virginia",
    "street": null
  },
  {
    "id": "b88fe606-1632-4efd-bd71-3ce087044d3d",
    "name": "Straight to Ale",
    "brewery_type": "micro",
    "address_1": "2610 Clinton Ave W",
    "address_2": null,
    "address_3": null,
    "city": "Huntsville",
    "state_province": "Alabama",
    "postal_code": "35805-3046",
    "country": "United States",
    "longitude": -86.5932014,
    "latitude": 34.7277523,
    "phone": "2566039096",
    "website_url": "http://www.straighttoale.com",
    "state": "Alabama",
    "street": "2610 Clinton Ave W"
  },
  {
    "id": "618e8707-d2ef-4e27-9fd9-ef3a01daf7cb",
    "name": "Strand Brewery",
    "brewery_type": "brewpub",
    "address_1": "93415 County Road 690",
    "address_2": null,
    "address_3": null,
    "city": "Dowagiac",
    "state_province": "Michigan",
    "postal_code": "49047-9025",
    "country": "United States",
    "longitude": null,
    "latitude": null,
    "phone": "2694247500",
    "website_url": "http://www.strandbrewery.com",
    "state": "Michigan",
    "street": "93415 County Road 690"
  },
  {
    "id": "4fe4470b-c860-48e7-8c9b-aa1ddc204498",
    "name": "Strand Brewing Co",
    "brewery_type": "micro",
    "address_1": "2201 Dominguez St",
    "address_2": null,
    "address_3": null,
    "city": "Torrance",
    "state_province": "California",
    "postal_code": "90501-1418",
    "country": "United States",
    "longitude": -118.3240401,
    "latitude": 33.8414814,
    "phone": "3105170900",
    "website_url": "http://www.strandbrewing.com",
    "state": "California",
    "street": "2201 Dominguez St"
  },
  {
    "id": "58d3c116-e6ca-42f7-b20d-f30b97b34a64",
    "name": "Strange Craft Beer Co",
    "brewery_type": "micro",
    "address_1": "1330 Zuni St Ste M",
    "address_2": null,
    "address_3": null,
    "city": "Denver",
    "state_province": "Colorado",
    "postal_code": "80204-2328",
    "country": "United States",
    "longitude": null,
    "latitude": null,
    "phone": "7209852337",
    "website_url": "http://www.strangecraft.com",
    "state": "Colorado",
    "street": "1330 Zuni St Ste M"
  },
  {
    "id": "494b4e52-242c-4bf4-bd7d-8717602538ae",
    "name": "Strange Days Brewing Co",
    "brewery_type": "micro",
    "address_1": "316 Oak St",
    "address_2": null,
    "address_3": null,
    "city": "Kansas City",
    "state_province": "Missouri",
    "postal_code": "64106",
    "country": "United States",
    "longitude": -94.57994512,
    "latitude": 39.1100614,
    "phone": "8164695321",
    "website_url": "http://www.strangedaysbrewing.com",
    "state": "Missouri",
    "street": "316 Oak St"
  },
  {
    "id": "0aa2b16d-c58f-4577-94ac-5b70d28b94d6",
    "name": "Strange Days Brewing Company",
    "brewery_type": "micro",
    "address_1": "316 Oak St",
    "address_2": null,
    "address_3": null,
    "city": "Kansas City",
    "state_province": "Missouri",
    "postal_code": "64106",
    "country": "United States",
    "longitude": -94.57994512,
    "latitude": 39.1100614,
    "phone": "9134336232",
    "website_url": "http://www.strangedaysbrewing.com",
    "state": "Missouri",
    "street": "316 Oak St"
  },
  {
    "id": "e16701b2-c0f1-4a14-934f-7e51fa99cc3c",
    "name": "Strange Land Brewery",
    "brewery_type": "micro",
    "address_1": "5904 Bee Cave Road",
    "address_2": null,
    "address_3": null,
    "city": "Austin",
    "state_province": "Texas",
    "postal_code": "78746",
    "country": "United States",
    "longitude": null,
    "latitude": null,
    "phone": "5122762295",
    "website_url": "http://www.strangelandbrewery.com",
    "state": "Texas",
    "street": "5904 Bee Cave Road"
  },
  {
    "id": "83007a0a-a4d4-4bdf-9f74-b215b2309125",
    "name": "Strange Roots Experimental Ales",
    "brewery_type": "micro",
    "address_1": "4399 Gibsonia Road",
    "address_2": null,
    "address_3": null,
    "city": "Gibsonia",
    "state_province": "Pennsylvania",
    "postal_code": "15044-9343",
    "country": "United States",
    "longitude": -79.9709659,
    "latitude": 40.6301186,
    "phone": "4124072506",
    "website_url": "http://www.strangerootsbeer.com",
    "state": "Pennsylvania",
    "street": "4399 Gibsonia Road"
  },
  {
    "id": "22c0044e-28f9-4ac5-a8f6-7f1390bccb63",
    "name": "Strange Roots Experimental Ales",
    "brewery_type": "micro",
    "address_1": "501 E Ohio St",
    "address_2": null,
    "address_3": null,
    "city": "Pittsburgh",
    "state_province": "Pennsylvania",
    "postal_code": "15209-2671",
    "country": "United States",
    "longitude": -79.9951469,
    "latitude": 40.4546063,
    "phone": "4124072506",
    "website_url": "http://www.strangerootsbeer.com",
    "state": "Pennsylvania",
    "street": "501 E Ohio St"
  },
  {
    "id": "50932c46-8dd8-4915-a0ed-8073fb25323d",
    "name": "Strangebird Beer",
    "brewery_type": "micro",
    "address_1": "62 Marshall Street",
    "address_2": null,
    "address_3": null,
    "city": "Rochester",
    "state_province": "New York",
    "postal_code": "14607",
    "country": "United States",
    "longitude": -77.601928,
    "latitude": 43.15127745,
    "phone": "5855058700",
    "website_url": "https://www.strangebirdbeer.com",
    "state": "New York",
    "street": "62 Marshall Street"
  },
  {
    "id": "9c0a83ee-575b-471a-9871-ea540065bb1c",
    "name": "Strangeways Brewing - FXBG",
    "brewery_type": "micro",
    "address_1": "350 Lansdowne Rd",
    "address_2": null,
    "address_3": null,
    "city": "Fredericksburg",
    "state_province": "Virginia",
    "postal_code": "22401-7351",
    "country": "United States",
    "longitude": -77.45625316,
    "latitude": 38.27297555,
    "phone": "8043034336",
    "website_url": null,
    "state": "Virginia",
    "street": "350 Lansdowne Rd"
  },
  {
    "id": "b2c8d268-7e99-4428-b31b-6eb2f6fe24dd",
    "name": "Strangeways Brewing - RVA",
    "brewery_type": "micro",
    "address_1": "2277 Dabney Rd Ste A",
    "address_2": null,
    "address_3": null,
    "city": "Richmond",
    "state_province": "Virginia",
    "postal_code": "23230-3335",
    "country": "United States",
    "longitude": null,
    "latitude": null,
    "phone": "8043034336",
    "website_url": "http://strangewaysbrewing.com/",
    "state": "Virginia",
    "street": "2277 Dabney Rd Ste A"
  },
  {
    "id": "2ee45c72-c744-46b3-a8b1-500cf7531e7d",
    "name": "Strap Tank Brewing Co.",
    "brewery_type": "brewpub",
    "address_1": "596 S 1750 W",
    "address_2": null,
    "address_3": null,
    "city": "Springville",
    "state_province": "Utah",
    "postal_code": "84663-3088",
    "country": "United States",
    "longitude": -111.641975,
    "latitude": 40.159405,
    "phone": "3853250262",
    "website_url": "https://straptankbrewery.com",
    "state": "Utah",
    "street": "596 S 1750 W"
  },
  {
    "id": "d2d86e25-5932-4c58-b430-f8ea60e9e72f",
    "name": "Straub Brewery",
    "brewery_type": "regional",
    "address_1": "303 Sorg St",
    "address_2": null,
    "address_3": null,
    "city": "Saint Marys",
    "state_province": "Pennsylvania",
    "postal_code": "15857-1592",
    "country": "United States",
    "longitude": -78.55352821,
    "latitude": 41.42586622,
    "phone": "8143356518",
    "website_url": "http://www.straubbeer.com",
    "state": "Pennsylvania",
    "street": "303 Sorg St"
  },
  {
    "id": "18cb8551-92d3-4c8c-934f-51daef9f7b53",
    "name": "Strawberry Alley Ale Works",
    "brewery_type": "brewpub",
    "address_1": "103 Strawberry Aly",
    "address_2": null,
    "address_3": null,
    "city": "Clarksville",
    "state_province": "Tennessee",
    "postal_code": "37040-4267",
    "country": "United States",
    "longitude": -87.36026635,
    "latitude": 36.5280248,
    "phone": "9319194777",
    "website_url": "http://www.saaleworks.com",
    "state": "Tennessee",
    "street": "103 Strawberry Aly"
  },
  {
    "id": "b2f096d6-1297-43d7-bf20-429cbbc3ddf7",
    "name": "Strawn Brewing Co",
    "brewery_type": "micro",
    "address_1": "27 Word St",
    "address_2": null,
    "address_3": null,
    "city": "Fairburn",
    "state_province": "Georgia",
    "postal_code": "30213-1545",
    "country": "United States",
    "longitude": -84.58368873,
    "latitude": 33.56062198,
    "phone": "6785453775",
    "website_url": "http://www.strawnbrewing.com",
    "state": "Georgia",
    "street": "27 Word St"
  },
  {
    "id": "31ea7b52-41bb-42de-9287-dffb127d273a",
    "name": "Streetcar 82 Brewing Co.",
    "brewery_type": "micro",
    "address_1": "4824 Rhode Island Ave",
    "address_2": null,
    "address_3": null,
    "city": "Hyattsville",
    "state_province": "Maryland",
    "postal_code": "20781-2034",
    "country": "United States",
    "longitude": -76.9430028,
    "latitude": 38.9493263,
    "phone": "2407820152",
    "website_url": "http://www.streetcar82brewing.com",
    "state": "Maryland",
    "street": "4824 Rhode Island Ave"
  },
  {
    "id": "1068e771-b1ba-47d0-960b-03ef44043ecd",
    "name": "Streetside Brewery",
    "brewery_type": "micro",
    "address_1": "4003 Eastern Ave",
    "address_2": null,
    "address_3": null,
    "city": "Cincinnati",
    "state_province": "Ohio",
    "postal_code": "45226-1747",
    "country": "United States",
    "longitude": -84.43295078,
    "latitude": 39.10919541,
    "phone": "5136155877",
    "website_url": null,
    "state": "Ohio",
    "street": "4003 Eastern Ave"
  },
  {
    "id": "be63195b-5f3a-4f31-949a-12f59086c6dd",
    "name": "Strike Brewing Co",
    "brewery_type": "micro",
    "address_1": "2099 S 10th St Unit 30",
    "address_2": null,
    "address_3": null,
    "city": "San Jose",
    "state_province": "California",
    "postal_code": "95112-4116",
    "country": "United States",
    "longitude": -121.8582561,
    "latitude": 37.31067385,
    "phone": "6507146983",
    "website_url": "http://www.strikebrewingco.com",
    "state": "California",
    "street": "2099 S 10th St Unit 30"
  },
  {
    "id": "4e84c26e-4850-4bee-898d-fcdffd88b881",
    "name": "Strikhedonia Brewing Company LLC",
    "brewery_type": "planning",
    "address_1": null,
    "address_2": null,
    "address_3": null,
    "city": "Saint Charles",
    "state_province": "Illinois",
    "postal_code": "60174-4591",
    "country": "United States",
    "longitude": null,
    "latitude": null,
    "phone": null,
    "website_url": null,
    "state": "Illinois",
    "street": null
  },
  {
    "id": "d6639eb1-44cd-4b0e-a08c-c3a3143d695b",
    "name": "Strong Brewing",
    "brewery_type": "micro",
    "address_1": "7 Rope Ferry Rd",
    "address_2": null,
    "address_3": null,
    "city": "Sedgwick",
    "state_province": "Maine",
    "postal_code": "04676-3409",
    "country": "United States",
    "longitude": null,
    "latitude": null,
    "phone": "2073598722",
    "website_url": "http://strongbrewing.com/",
    "state": "Maine",
    "street": "7 Rope Ferry Rd"
  },
  {
    "id": "94772c9e-dff5-4404-8f15-6572633b0307",
    "name": "Strong Rope Brewery",
    "brewery_type": "micro",
    "address_1": "574A President St",
    "address_2": null,
    "address_3": null,
    "city": "Brooklyn",
    "state_province": "New York",
    "postal_code": "11215-1019",
    "country": "United States",
    "longitude": -73.9840898,
    "latitude": 40.6769023,
    "phone": "5857033010",
    "website_url": "http://www.strongropebrewery.com",
    "state": "New York",
    "street": "574A President St"
  },
  {
    "id": "99deb304-2fa2-4236-a1cb-81524c7492ce",
    "name": "Stronghouse Brewery",
    "brewery_type": "planning",
    "address_1": null,
    "address_2": null,
    "address_3": null,
    "city": "Telluride",
    "state_province": "Colorado",
    "postal_code": "81435",
    "country": "United States",
    "longitude": null,
    "latitude": null,
    "phone": null,
    "website_url": null,
    "state": "Colorado",
    "street": null
  },
  {
    "id": "37c008fe-71cf-4cf9-9c38-1f7be73a7da6",
    "name": "Structures Brewing",
    "brewery_type": "micro",
    "address_1": "1420 N State St",
    "address_2": null,
    "address_3": null,
    "city": "Bellingham",
    "state_province": "Washington",
    "postal_code": "98225-4513",
    "country": "United States",
    "longitude": -122.4744507,
    "latitude": 48.74988055,
    "phone": "3605827475",
    "website_url": "http://www.structuresbrewing.com",
    "state": "Washington",
    "street": "1420 N State St"
  },
  {
    "id": "182c933b-f3e9-477b-906b-b0ca5344c27b",
    "name": "Strum Brewing Company",
    "brewery_type": "micro",
    "address_1": "235 S Campus Ave",
    "address_2": null,
    "address_3": null,
    "city": "Ontario",
    "state_province": "California",
    "postal_code": "91761-1736",
    "country": "United States",
    "longitude": -117.6412505,
    "latitude": 34.06156086,
    "phone": "9096786935",
    "website_url": "http://www.strumbrewing.com",
    "state": "California",
    "street": "235 S Campus Ave"
  },
  {
    "id": "36a608ec-8a91-4964-ba78-8b39ebbf4321",
    "name": "Stubborn Beauty Brewing",
    "brewery_type": "closed",
    "address_1": "180 Johnson St",
    "address_2": null,
    "address_3": null,
    "city": "Middletown",
    "state_province": "Connecticut",
    "postal_code": "06457-2247",
    "country": "United States",
    "longitude": -72.65990742,
    "latitude": 41.57233253,
    "phone": "8608747459",
    "website_url": "http://www.stubbornbeauty.com",
    "state": "Connecticut",
    "street": "180 Johnson St"
  },
  {
    "id": "8deff2ef-1885-4ff2-b3d7-08dfcadb04e4",
    "name": "Stubborn German Brewing Co",
    "brewery_type": "micro",
    "address_1": "119 S Main St",
    "address_2": null,
    "address_3": null,
    "city": "Waterloo",
    "state_province": "Illinois",
    "postal_code": "62298-1323",
    "country": "United States",
    "longitude": -90.15032876,
    "latitude": 38.33531994,
    "phone": "6185042444",
    "website_url": "http://www.stubborngermanbrewing.com",
    "state": "Illinois",
    "street": "119 S Main St"
  },
  {
    "id": "6b730aef-f353-4f27-94c4-b45a2db292c6",
    "name": "Studebaker Brewing Company",
    "brewery_type": "planning",
    "address_1": null,
    "address_2": null,
    "address_3": null,
    "city": "South Bend",
    "state_province": "Indiana",
    "postal_code": "46601",
    "country": "United States",
    "longitude": null,
    "latitude": null,
    "phone": "5742349077",
    "website_url": "http://www.studebakerbrewingco.com",
    "state": "Indiana",
    "street": null
  },
  {
    "id": "685316d4-623d-4b81-a0a8-1549e8247c3c",
    "name": "Studio Brew",
    "brewery_type": "brewpub",
    "address_1": "221 Moore St",
    "address_2": null,
    "address_3": null,
    "city": "Bristol",
    "state_province": "Virginia",
    "postal_code": "24201-4302",
    "country": "United States",
    "longitude": -82.18231373,
    "latitude": 36.59862808,
    "phone": "4233603258",
    "website_url": "http://www.studiobrew.beer",
    "state": "Virginia",
    "street": "221 Moore St"
  },
  {
    "id": "e5ea4994-015e-43d1-a748-630b1cf68cc1",
    "name": "Stumblefoot Brewing",
    "brewery_type": "micro",
    "address_1": "1784 La Costa Meadows Dr Ste 103",
    "address_2": null,
    "address_3": null,
    "city": "San Marcos",
    "state_province": "California",
    "postal_code": "92078-5174",
    "country": "United States",
    "longitude": -117.2194838,
    "latitude": 33.10419694,
    "phone": "7605663668",
    "website_url": "http://www.stumblefoot.com",
    "state": "California",
    "street": "1784 La Costa Meadows Dr Ste 103"
  },
  {
    "id": "b022972f-6576-4453-823d-96fe18987454",
    "name": "Stumblin' Monkey Brewing Co",
    "brewery_type": "micro",
    "address_1": "61 School St Ste G",
    "address_2": null,
    "address_3": null,
    "city": "Victor",
    "state_province": "New York",
    "postal_code": "14564-1420",
    "country": "United States",
    "longitude": null,
    "latitude": null,
    "phone": "5853988189",
    "website_url": "http://www.stumblinmonkeybeer.com",
    "state": "New York",
    "street": "61 School St Ste G"
  },
  {
    "id": "15dd2469-e167-42af-8e72-ef36bdd41376",
    "name": "Stump City Brewing LLC",
    "brewery_type": "micro",
    "address_1": "521 W Fulton Street Ext",
    "address_2": null,
    "address_3": null,
    "city": "Gloversville",
    "state_province": "New York",
    "postal_code": "12078-6309",
    "country": "United States",
    "longitude": null,
    "latitude": null,
    "phone": "5188310722",
    "website_url": "http://www.stumpcitybrewing.com",
    "state": "New York",
    "street": "521 W Fulton Street Ext"
  },
  {
    "id": "24bea67c-fd27-4e48-968e-14e46f842203",
    "name": "Stumptown Ales",
    "brewery_type": "micro",
    "address_1": "390 William Ave",
    "address_2": null,
    "address_3": null,
    "city": "Davis",
    "state_province": "West Virginia",
    "postal_code": "26260",
    "country": "United States",
    "longitude": -79.4646754,
    "latitude": 39.12899878,
    "phone": "3042595570",
    "website_url": "http://www.stumptownales.com",
    "state": "West Virginia",
    "street": "390 William Ave"
  },
  {
    "id": "b78739c5-4815-42ad-8161-9e5d52a975ce",
    "name": "Stumptown Brewery",
    "brewery_type": "brewpub",
    "address_1": "15045 River Rd",
    "address_2": null,
    "address_3": null,
    "city": "Guerneville",
    "state_province": "California",
    "postal_code": "95446-8043",
    "country": "United States",
    "longitude": -122.9838017,
    "latitude": 38.51320677,
    "phone": "7078690705",
    "website_url": null,
    "state": "California",
    "street": "15045 River Rd"
  },
  {
    "id": "0301809c-bbd8-48c4-99c8-515de50999fd",
    "name": "Suarez Family Brewery",
    "brewery_type": "micro",
    "address_1": "2278 RT. 9",
    "address_2": null,
    "address_3": null,
    "city": "Hudson",
    "state_province": "New York",
    "postal_code": "12534-4701",
    "country": "United States",
    "longitude": null,
    "latitude": null,
    "phone": "5185376464",
    "website_url": "http://www.suarezfamilybrewery.com",
    "state": "New York",
    "street": "2278 RT. 9"
  },
  {
    "id": "ed99535c-e134-4d94-8962-f04aad4386c6",
    "name": "Sub Noir Brewing Company",
    "brewery_type": "micro",
    "address_1": "2039 Progress Ct",
    "address_2": null,
    "address_3": null,
    "city": "Raleigh",
    "state_province": "North Carolina",
    "postal_code": "27608-2761",
    "country": "United States",
    "longitude": -78.6231748,
    "latitude": 35.8091103,
    "phone": "9194802337",
    "website_url": "http://www.subnoir.net",
    "state": "North Carolina",
    "street": "2039 Progress Ct"
  },
  {
    "id": "4c11ca9f-c49a-40ba-92e4-219ff029bfce",
    "name": "Subbe Bryggeri",
    "brewery_type": "micro",
    "address_1": "Johnssons G\u00e5rd",
    "address_2": "Strax s\u00f6der om staden",
    "address_3": null,
    "city": "Varberg",
    "state_province": "Halland",
    "postal_code": "432 91",
    "country": "Sweden",
    "longitude": null,
    "latitude": null,
    "phone": null,
    "website_url": "https://subbebryggeri.se/",
    "state": "Halland",
    "street": "Johnssons G\u00e5rd"
  },
  {
    "id": "e4bb4eb0-1d37-488b-b2d0-ced76345059d",
    "name": "Sublime Brewing Company",
    "brewery_type": "closed",
    "address_1": "5 Route 25",
    "address_2": null,
    "address_3": null,
    "city": "Plymouth",
    "state_province": "New Hampshire",
    "postal_code": "03264-3141",
    "country": "United States",
    "longitude": -71.776669,
    "latitude": 43.781015,
    "phone": "6032366850",
    "website_url": null,
    "state": "New Hampshire",
    "street": "5 Route 25"
  },
  {
    "id": "81dbf6d0-af4c-4848-8dc3-a2e505352f63",
    "name": "Suds Brothers Brewing Co",
    "brewery_type": "brewpub",
    "address_1": "1012 Main St",
    "address_2": null,
    "address_3": null,
    "city": "Evanston",
    "state_province": "Wyoming",
    "postal_code": "82930-3443",
    "country": "United States",
    "longitude": -110.9660936,
    "latitude": 41.26798687,
    "phone": "3074447837",
    "website_url": "http://www.sudsbrothersbrewery.com",
    "state": "Wyoming",
    "street": "1012 Main St"
  },
  {
    "id": "8f532649-1d2e-4711-9177-28ffed122dac",
    "name": "Suds Brothers Brewing Co #2",
    "brewery_type": "brewpub",
    "address_1": "127 E Aspen Ave",
    "address_2": null,
    "address_3": null,
    "city": "Fruita",
    "state_province": "Colorado",
    "postal_code": "81521-2543",
    "country": "United States",
    "longitude": -108.7326881,
    "latitude": 39.1591622,
    "phone": "9708581571",
    "website_url": "http://www.sudsbrothers2fruita.com",
    "state": "Colorado",
    "street": "127 E Aspen Ave"
  },
  {
    "id": "2c32c721-36b2-4610-b315-17d328a75cdd",
    "name": "Suds Monkey Brewing",
    "brewery_type": "micro",
    "address_1": "1032 Canyon Bend Dr Suite A",
    "address_2": null,
    "address_3": null,
    "city": "Dripping Springs",
    "state_province": "Texas",
    "postal_code": "78620-5355",
    "country": "United States",
    "longitude": null,
    "latitude": null,
    "phone": "5122223893",
    "website_url": "http://www.sudsmonkeybrew.com",
    "state": "Texas",
    "street": "1032 Canyon Bend Dr Suite A"
  },
  {
    "id": "41b6b89d-0a76-4a46-8091-e3632ec527f5",
    "name": "Sudwerk Brewing Co",
    "brewery_type": "micro",
    "address_1": "2001 2nd St",
    "address_2": null,
    "address_3": null,
    "city": "Davis",
    "state_province": "California",
    "postal_code": "95618-5474",
    "country": "United States",
    "longitude": -121.726084,
    "latitude": 38.546614,
    "phone": "5307562739",
    "website_url": "http://www.sudwerkbrew.com",
    "state": "California",
    "street": "2001 2nd St"
  },
  {
    "id": "b725651d-1d0c-4d4f-94f2-0b1be19ce2b7",
    "name": "Sufferfest Beer Company",
    "brewery_type": "proprietor",
    "address_1": "1770 UNION STREET",
    "address_2": null,
    "address_3": null,
    "city": "San Francisco",
    "state_province": "California",
    "postal_code": "94123-3404",
    "country": "United States",
    "longitude": -122.4283947,
    "latitude": 37.79807486,
    "phone": "4152386431",
    "website_url": "http://www.sufferfestbeer.com",
    "state": "California",
    "street": "1770 UNION STREET"
  }
]