[
  {
    "id": "dc26c773-cddd-48f4-9440-39d5a3f46cc9",
    "name": "Counterbalance Brewing Company",
    "brewery_type": "closed",
    "address_1": "503 S Michigan St Ste B",
    "address_2": null,
    "address_3": null,
    "city": "Seattle",
    "state_province": "Washington",
    "postal_code": "98108-3305",
    "country": "United States",
    "longitude": -122.3279252,
    "latitude": 47.54555555,
    "phone": "2064533615",
    "website_url": "http://www.counterbalancebeer.com",
    "state": "Washington",
    "street": "503 S Michigan St Ste B"
  },
  {
    "id": "4c0b81d7-1000-4ca1-b3cf-b6ccbd609113",
    "name": "Counterweight Brewing Company",
    "brewery_type": "micro",
    "address_1": "23 Raccio Park Rd",
    "address_2": null,
    "address_3": null,
    "city": "Hamden",
    "state_province": "Connecticut",
    "postal_code": "06514-1331",
    "country": "United States",
    "longitude": -72.91955341,
    "latitude": 41.39321167,
    "phone": "2038217333",
    "website_url": "http://www.Counterweightbrewing.com",
    "state": "Connecticut",
    "street": "23 Raccio Park Rd"
  },
  {
    "id": "228fc595-71eb-495b-96a8-5a7acb17af38",
    "name": "Country Boy Brewing",
    "brewery_type": "micro",
    "address_1": "436 Chair Ave",
    "address_2": null,
    "address_3": null,
    "city": "Lexington",
    "state_province": "Kentucky",
    "postal_code": "40508-3106",
    "country": "United States",
    "longitude": -84.50925267,
    "latitude": 38.0439487,
    "phone": null,
    "website_url": "http://www.countryboybrewing.com",
    "state": "Kentucky",
    "street": "436 Chair Ave"
  },
  {
    "id": "d840dd52-0f36-461f-ab74-95e588f9a02f",
    "name": "Country Boy Brewing - Georgetown",
    "brewery_type": "micro",
    "address_1": "108 Corporate Dr",
    "address_2": null,
    "address_3": null,
    "city": "Georgetown",
    "state_province": "Kentucky",
    "postal_code": "40324-0000",
    "country": "United States",
    "longitude": null,
    "latitude": null,
    "phone": "8595882118",
    "website_url": null,
    "state": "Kentucky",
    "street": "108 Corporate Dr"
  },
  {
    "id": "0a7c8d20-eaa1-4141-8edf-bb597c195aa5",
    "name": "Country Town Farm Brewery",
    "brewery_type": "planning",
    "address_1": null,
    "address_2": null,
    "address_3": null,
    "city": "Friendship",
    "state_province": "New York",
    "postal_code": "14739",
    "country": "United States",
    "longitude": null,
    "latitude": null,
    "phone": "5858088995",
    "website_url": null,
    "state": "New York",
    "street": null
  },
  {
    "id": "40450ecb-b207-4de1-9c51-2d7a3f435d6d",
    "name": "County Line Brewing",
    "brewery_type": "micro",
    "address_1": "9115 W Chinden Blvd Ste 107",
    "address_2": null,
    "address_3": null,
    "city": "Garden City",
    "state_province": "Idaho",
    "postal_code": "83714-1903",
    "country": "United States",
    "longitude": -116.295667,
    "latitude": 43.655342,
    "phone": "2088302456",
    "website_url": "http://www.countylinebrewing.com",
    "state": "Idaho",
    "street": "9115 W Chinden Blvd Ste 107"
  },
  {
    "id": "7b07c312-aee4-4132-a4ac-12953862f003",
    "name": "Court Avenue Brewing Co",
    "brewery_type": "brewpub",
    "address_1": "309 Court Ave Ste 100",
    "address_2": null,
    "address_3": null,
    "city": "Des Moines",
    "state_province": "Iowa",
    "postal_code": "50309-2230",
    "country": "United States",
    "longitude": -93.620995,
    "latitude": 41.585503,
    "phone": "5152822739",
    "website_url": "http://www.courtavebrew.com",
    "state": "Iowa",
    "street": "309 Court Ave Ste 100"
  },
  {
    "id": "68920a21-7bf7-4655-a5d3-824df9feec4d",
    "name": "Courthouse Pub",
    "brewery_type": "brewpub",
    "address_1": "1001 S 8th St",
    "address_2": null,
    "address_3": null,
    "city": "Manitowoc",
    "state_province": "Wisconsin",
    "postal_code": "54220-5307",
    "country": "United States",
    "longitude": -87.65789588,
    "latitude": 44.08950638,
    "phone": "9206861166",
    "website_url": "http://www.courthousepub.com",
    "state": "Wisconsin",
    "street": "1001 S 8th St"
  },
  {
    "id": "d03076eb-f3a5-433b-b279-858f86c5a8cf",
    "name": "Cousins Revolution Ale Works",
    "brewery_type": "micro",
    "address_1": "1582 US 9",
    "address_2": null,
    "address_3": null,
    "city": "Wappingers Falls",
    "state_province": "New York",
    "postal_code": "12590",
    "country": "United States",
    "longitude": -73.91146279,
    "latitude": 41.59803345,
    "phone": "8452932739",
    "website_url": "http://www.cousinsrevolution.com",
    "state": "New York",
    "street": "1582 US 9"
  },
  {
    "id": "2176565e-02ee-4977-bcc4-b460b3388ec0",
    "name": "Covered Bridge Brewhaus Taproom",
    "brewery_type": "micro",
    "address_1": "506 N 8th St",
    "address_2": null,
    "address_3": null,
    "city": "Shamokin",
    "state_province": "Pennsylvania",
    "postal_code": "17872-5302",
    "country": "United States",
    "longitude": -76.55682084,
    "latitude": 40.79076037,
    "phone": "5702054867",
    "website_url": "http://squareup.com/store/covered-bridge-brewhaus",
    "state": "Pennsylvania",
    "street": "506 N 8th St"
  },
  {
    "id": "5598d62b-3e30-487b-b3b6-a7c6044f69ef",
    "name": "Covert Artisan Ales & Cellars",
    "brewery_type": "micro",
    "address_1": "434 East 8th Street",
    "address_2": null,
    "address_3": null,
    "city": "Sioux Falls",
    "state_province": "South Dakota",
    "postal_code": "57103-7025",
    "country": "United States",
    "longitude": -96.72165409,
    "latitude": 43.54942193,
    "phone": "6053895954",
    "website_url": "http://www.covertartisanales.com",
    "state": "South Dakota",
    "street": "434 East 8th Street"
  },
  {
    "id": "11ca4b21-c34e-4857-9434-b1f264140524",
    "name": "Covington Brewhouse",
    "brewery_type": "closed",
    "address_1": "226 E Lockwood St",
    "address_2": null,
    "address_3": null,
    "city": "Covington",
    "state_province": "Louisiana",
    "postal_code": "70433-2828",
    "country": "United States",
    "longitude": -90.0970557,
    "latitude": 30.47766326,
    "phone": "9858932884",
    "website_url": "http://www.covingtonbrewhouse.com",
    "state": "Louisiana",
    "street": "226 E Lockwood St"
  },
  {
    "id": "516bd83f-0eea-42c2-9ba7-30f987fabd39",
    "name": "Cowboy State Brewing",
    "brewery_type": "micro",
    "address_1": "316 S Birch St",
    "address_2": null,
    "address_3": null,
    "city": "Glenrock",
    "state_province": "Wyoming",
    "postal_code": "82637",
    "country": "United States",
    "longitude": -105.87157095793,
    "latitude": 42.861818347965,
    "phone": "3077971224",
    "website_url": "https://www.facebook.com/CSBwyo",
    "state": "Wyoming",
    "street": "316 S Birch St"
  },
  {
    "id": "92e68f4e-6f53-436e-85e6-1a323133a8b2",
    "name": "Cowiche Creek Brewing Company",
    "brewery_type": "micro",
    "address_1": "514 Thompson Rd BLDG #2",
    "address_2": null,
    "address_3": null,
    "city": "Cowiche",
    "state_province": "Washington",
    "postal_code": "98923-9734",
    "country": "United States",
    "longitude": -120.6861127,
    "latitude": 46.65677362,
    "phone": "5096780324",
    "website_url": "http://www.cowichecreekbrewing.com",
    "state": "Washington",
    "street": "514 Thompson Rd BLDG #2"
  },
  {
    "id": "7a0c3abf-985d-4803-abdb-bc6130e9328a",
    "name": "Cowtown Brewing Company",
    "brewery_type": "planning",
    "address_1": null,
    "address_2": null,
    "address_3": null,
    "city": "Fort Worth",
    "state_province": "Texas",
    "postal_code": "76102-2408",
    "country": "United States",
    "longitude": null,
    "latitude": null,
    "phone": null,
    "website_url": "http://www.cowtownbrewco.com",
    "state": "Texas",
    "street": null
  },
  {
    "id": "03299f31-afc3-43e4-b7be-0270a0fe0bc8",
    "name": "CR Brewing Company",
    "brewery_type": "brewpub",
    "address_1": "3009 Wilmington Rd",
    "address_2": null,
    "address_3": null,
    "city": "New Castle",
    "state_province": "Pennsylvania",
    "postal_code": "16105",
    "country": "United States",
    "longitude": -80.3493196,
    "latitude": 41.0103937,
    "phone": "4122987053",
    "website_url": "http://www.crbrewingcompany.com",
    "state": "Pennsylvania",
    "street": "3009 Wilmington Rd"
  },
  {
    "id": "759b1509-489e-46d1-a91c-d61401cc7888",
    "name": "Crabtree Brewing",
    "brewery_type": "micro",
    "address_1": "2961 W 29th St",
    "address_2": null,
    "address_3": null,
    "city": "Greeley",
    "state_province": "Colorado",
    "postal_code": "80631-8538",
    "country": "United States",
    "longitude": -104.7875038,
    "latitude": 40.3899004,
    "phone": "9703560516",
    "website_url": "http://www.crabtreebrewing.com",
    "state": "Colorado",
    "street": "2961 W 29th St"
  },
  {
    "id": "728019cb-061f-45e9-b3af-6b8ea811258d",
    "name": "CRAFT 64",
    "brewery_type": "contract",
    "address_1": "6922 E Main St",
    "address_2": null,
    "address_3": null,
    "city": "Scottsdale",
    "state_province": "Arizona",
    "postal_code": "85251-4312",
    "country": "United States",
    "longitude": -111.9319271,
    "latitude": 33.493153,
    "phone": "4809460542",
    "website_url": "http://www.craft64.com",
    "state": "Arizona",
    "street": "6922 E Main St"
  },
  {
    "id": "f1ad22f6-3935-4c9c-8bc5-25352671145a",
    "name": "Craft Artisan Ales",
    "brewery_type": "contract",
    "address_1": null,
    "address_2": null,
    "address_3": null,
    "city": "Pacific Grove",
    "state_province": "California",
    "postal_code": "93950-7093",
    "country": "United States",
    "longitude": -121.9155906,
    "latitude": 36.6174432,
    "phone": "8317177543",
    "website_url": null,
    "state": "California",
    "street": null
  },
  {
    "id": "74716bad-707a-449f-b278-c48148587be2",
    "name": "CRAFT BEER BASE MOTHER TREE",
    "brewery_type": "brewpub",
    "address_1": "1-13-13 Oyodonaka",
    "address_2": null,
    "address_3": null,
    "city": "Osaka",
    "state_province": "Osaka",
    "postal_code": "531-0076",
    "country": "Japan",
    "longitude": 135.4887076,
    "latitude": 34.70512865,
    "phone": "81675039795",
    "website_url": "https://craftbeerbase.com/shops/mothertree",
    "state": "Osaka",
    "street": "1-13-13 Oyodonaka"
  },
  {
    "id": "312232fc-cbec-44aa-bc5b-85cac76e3c43",
    "name": "Craft Brewing Company",
    "brewery_type": "micro",
    "address_1": "530 Crane St",
    "address_2": null,
    "address_3": null,
    "city": "Lake Elsinore",
    "state_province": "California",
    "postal_code": "92530-2779",
    "country": "United States",
    "longitude": -117.3402489,
    "latitude": 33.68673832,
    "phone": "9516742562",
    "website_url": "http://www.craftbrewibgcompany.com",
    "state": "California",
    "street": "530 Crane St"
  },
  {
    "id": "4a093277-4333-401e-b484-b231145a0d26",
    "name": "Craft Kitchen and Brewery",
    "brewery_type": "brewpub",
    "address_1": "62988 Layton Ave Ste 103",
    "address_2": null,
    "address_3": null,
    "city": "Bend",
    "state_province": "Oregon",
    "postal_code": "97701-6692",
    "country": "United States",
    "longitude": -121.2903651,
    "latitude": 44.08719318,
    "phone": "5416681766",
    "website_url": "http://www.craftkitchenandbrewery.com",
    "state": "Oregon",
    "street": "62988 Layton Ave Ste 103"
  },
  {
    "id": "52048a4e-8f81-4515-bc5e-9289da7fcead",
    "name": "Craft Life Brewing",
    "brewery_type": "micro",
    "address_1": "2624 Land O Lakes Blvd",
    "address_2": null,
    "address_3": null,
    "city": "Land O Lakes",
    "state_province": "Florida",
    "postal_code": "34639-4910",
    "country": "United States",
    "longitude": -82.46477873,
    "latitude": 28.19614552,
    "phone": "8135758440",
    "website_url": null,
    "state": "Florida",
    "street": "2624 Land O Lakes Blvd"
  },
  {
    "id": "c98eac57-3377-45db-aadb-1abe12395e10",
    "name": "CraftHaus Brewery",
    "brewery_type": "micro",
    "address_1": "7350 Eastgate Rd Ste 110",
    "address_2": null,
    "address_3": null,
    "city": "Henderson",
    "state_province": "Nevada",
    "postal_code": "89011-4071",
    "country": "United States",
    "longitude": null,
    "latitude": null,
    "phone": "7024159184",
    "website_url": "http://www.crafthausbrewery.com",
    "state": "Nevada",
    "street": "7350 Eastgate Rd Ste 110"
  },
  {
    "id": "200b3434-8f97-4a9d-a072-fcb7379b31d5",
    "name": "CRAFTROOT",
    "brewery_type": "brewpub",
    "address_1": "418,Gwangwang-ro",
    "address_2": null,
    "address_3": null,
    "city": "Sokcho-si",
    "state_province": "Gangwondo",
    "postal_code": "24859",
    "country": "South Korea",
    "longitude": 128.5377122,
    "latitude": 38.19724237,
    "phone": "070-8872-1001",
    "website_url": "https://craftroot.co.kr/",
    "state": "Gangwondo",
    "street": "418,Gwangwang-ro"
  },
  {
    "id": "26292d30-c367-4055-937b-c5c56aa6e170",
    "name": "CraftRoots Brewing, LLC.",
    "brewery_type": "micro",
    "address_1": "4 Industrial Rd Ste 8",
    "address_2": null,
    "address_3": null,
    "city": "Milford",
    "state_province": "Massachusetts",
    "postal_code": "01757-3589",
    "country": "United States",
    "longitude": null,
    "latitude": null,
    "phone": "5083811920",
    "website_url": "http://www.craftrootsbrewing.com",
    "state": "Massachusetts",
    "street": "4 Industrial Rd Ste 8"
  },
  {
    "id": "de955cfc-52a1-41d5-97ad-04a85688e434",
    "name": "Craftsman Brewing Co",
    "brewery_type": "micro",
    "address_1": "1260 Lincoln Ave Ste 100",
    "address_2": null,
    "address_3": null,
    "city": "Pasadena",
    "state_province": "California",
    "postal_code": "91103-2465",
    "country": "United States",
    "longitude": -118.1595567,
    "latitude": 34.1674435,
    "phone": "6262962537",
    "website_url": "http://www.craftsmanbrewing.com",
    "state": "California",
    "street": "1260 Lincoln Ave Ste 100"
  },
  {
    "id": "e2c9b160-77d6-428d-ae99-4351cb2b3405",
    "name": "Craftwerk Orange Brewing Company",
    "brewery_type": "planning",
    "address_1": null,
    "address_2": null,
    "address_3": null,
    "city": "West Orange",
    "state_province": "New Jersey",
    "postal_code": "07052-2513",
    "country": "United States",
    "longitude": null,
    "latitude": null,
    "phone": "2012482021",
    "website_url": "http://www.craftwerkorange.com",
    "state": "New Jersey",
    "street": null
  },
  {
    "id": "07e53361-7ae0-4101-a7e9-20e19f0583c5",
    "name": "Crafty Ales and Lagers",
    "brewery_type": "micro",
    "address_1": "2 Exchange St",
    "address_2": null,
    "address_3": null,
    "city": "Phelps",
    "state_province": "New York",
    "postal_code": "14532-1010",
    "country": "United States",
    "longitude": -77.056976,
    "latitude": 42.9579011,
    "phone": "3153321606",
    "website_url": "http://www.drinkcraftyales.com",
    "state": "New York",
    "street": "2 Exchange St"
  },
  {
    "id": "fb02d8d4-a2ef-4056-b04a-375abc215382",
    "name": "Crafty Bastard Brewery",
    "brewery_type": "micro",
    "address_1": "6 Emory Pl",
    "address_2": null,
    "address_3": null,
    "city": "Knoxville",
    "state_province": "Tennessee",
    "postal_code": "37917-7317",
    "country": "United States",
    "longitude": null,
    "latitude": null,
    "phone": "8657552358",
    "website_url": "http://www.craftybastardbrewery.com",
    "state": "Tennessee",
    "street": "6 Emory Pl"
  },
  {
    "id": "579a7124-2729-4320-97d4-7ae1e3405562",
    "name": "Crane Brewing Company",
    "brewery_type": "micro",
    "address_1": "6515 Railroad St",
    "address_2": null,
    "address_3": null,
    "city": "Raytown",
    "state_province": "Missouri",
    "postal_code": "64133-5210",
    "country": "United States",
    "longitude": -94.46290138,
    "latitude": 39.00524272,
    "phone": "8167434132",
    "website_url": "http://www.cranebrewing.com",
    "state": "Missouri",
    "street": "6515 Railroad St"
  },
  {
    "id": "b7776714-4506-42c0-8400-2fc05a1d86e6",
    "name": "Crane's Castle Brewing",
    "brewery_type": "micro",
    "address_1": "1550 NE Riddell Rd #180",
    "address_2": null,
    "address_3": null,
    "city": "Bremerton",
    "state_province": "Washington",
    "postal_code": "98310-3059",
    "country": "United States",
    "longitude": -122.6298609,
    "latitude": 47.60799154,
    "phone": "3607282926",
    "website_url": "https://cranescastlebeer.com/",
    "state": "Washington",
    "street": "1550 NE Riddell Rd #180"
  },
  {
    "id": "8d3a51f6-de81-4434-a662-9e7f7f7390bf",
    "name": "Crank Arm Brewing Co",
    "brewery_type": "micro",
    "address_1": "319 W Davie St",
    "address_2": null,
    "address_3": null,
    "city": "Raleigh",
    "state_province": "North Carolina",
    "postal_code": "27601-1718",
    "country": "United States",
    "longitude": -78.64405,
    "latitude": 35.7756043,
    "phone": null,
    "website_url": "http://www.crankarmbrewing.com",
    "state": "North Carolina",
    "street": "319 W Davie St"
  },
  {
    "id": "7925a3a2-254e-4112-b9d8-0ab1af31664c",
    "name": "Cranker's Brewery",
    "brewery_type": "brewpub",
    "address_1": "213 S State St",
    "address_2": null,
    "address_3": null,
    "city": "Big Rapids",
    "state_province": "Michigan",
    "postal_code": "49307-1758",
    "country": "United States",
    "longitude": -85.483723,
    "latitude": 43.688013,
    "phone": "2317961919",
    "website_url": null,
    "state": "Michigan",
    "street": "213 S State St"
  },
  {
    "id": "6fd44e32-4616-4f8d-9925-85a724dc188c",
    "name": "Cranker's Restaurant & Brewery",
    "brewery_type": "brewpub",
    "address_1": "454 68th St SW",
    "address_2": null,
    "address_3": null,
    "city": "Grand Rapids",
    "state_province": "Michigan",
    "postal_code": "49548-7115",
    "country": "United States",
    "longitude": null,
    "latitude": null,
    "phone": "6168271919",
    "website_url": "http://www.crankersbrewery.com",
    "state": "Michigan",
    "street": "454 68th St SW"
  },
  {
    "id": "d89a9d3f-30ff-45ff-9ae7-ca09c96d0484",
    "name": "Cranker's Restaurant & Brewery",
    "brewery_type": "brewpub",
    "address_1": "1207 E Pickard St",
    "address_2": null,
    "address_3": null,
    "city": "Mount Pleasant",
    "state_province": "Michigan",
    "postal_code": "48858-1901",
    "country": "United States",
    "longitude": -84.76071102,
    "latitude": 43.61176916,
    "phone": "9897791919",
    "website_url": "http://www.crankersbrewery.com",
    "state": "Michigan",
    "street": "1207 E Pickard St"
  },
  {
    "id": "241d6bd0-f1c6-482b-8419-f48db87cc119",
    "name": "Crasian Brewing Co",
    "brewery_type": "micro",
    "address_1": "207 S Railroad St Ste B",
    "address_2": null,
    "address_3": null,
    "city": "Brookston",
    "state_province": "Indiana",
    "postal_code": "47923-8137",
    "country": "United States",
    "longitude": null,
    "latitude": null,
    "phone": "7655638339",
    "website_url": "http://www.crasianbrewing.com",
    "state": "Indiana",
    "street": "207 S Railroad St Ste B"
  },
  {
    "id": "15453364-b83a-45cf-9aa9-e6ff5997fb45",
    "name": "Cravings Bistro & Pub",
    "brewery_type": "brewpub",
    "address_1": "1599 Mall Dr Ste B",
    "address_2": null,
    "address_3": null,
    "city": "Benton Harbor",
    "state_province": "Michigan",
    "postal_code": "49022-2330",
    "country": "United States",
    "longitude": null,
    "latitude": null,
    "phone": "2699349700",
    "website_url": null,
    "state": "Michigan",
    "street": "1599 Mall Dr Ste B"
  },
  {
    "id": "7b60c65d-c7a2-474b-8d5b-83dc4744b4c9",
    "name": "Crawford Brew Works",
    "brewery_type": "micro",
    "address_1": "3659 Devils Glen Rd",
    "address_2": null,
    "address_3": null,
    "city": "Bettendorf",
    "state_province": "Iowa",
    "postal_code": "52722",
    "country": "United States",
    "longitude": -90.48344378,
    "latitude": 41.55924419,
    "phone": null,
    "website_url": null,
    "state": "Iowa",
    "street": "3659 Devils Glen Rd"
  },
  {
    "id": "ca8bfb14-81cf-4c1c-8cd6-78b99cf7b1bd",
    "name": "Crazy Mountain Brewing Co",
    "brewery_type": "regional",
    "address_1": "471 Kalamath St",
    "address_2": null,
    "address_3": null,
    "city": "Denver",
    "state_province": "Colorado",
    "postal_code": "80204-5019",
    "country": "United States",
    "longitude": -105.0002926,
    "latitude": 39.72361171,
    "phone": "9709263009",
    "website_url": "http://www.crazymountainbrewery.com",
    "state": "Colorado",
    "street": "471 Kalamath St"
  },
  {
    "id": "8e1f3d7d-6e4a-433d-bdd8-4528d1613f26",
    "name": "Crazy Williez Brewery",
    "brewery_type": "contract",
    "address_1": "546 Silver St",
    "address_2": null,
    "address_3": null,
    "city": "Ilion",
    "state_province": "New York",
    "postal_code": "13357",
    "country": "United States",
    "longitude": null,
    "latitude": null,
    "phone": null,
    "website_url": null,
    "state": "New York",
    "street": "546 Silver St"
  },
  {
    "id": "9ff5bda3-04ed-48cc-8d63-9c2799a12a42",
    "name": "Creature Comforts Brewing Co.",
    "brewery_type": "regional",
    "address_1": "271 W Hancock Ave",
    "address_2": null,
    "address_3": null,
    "city": "Athens",
    "state_province": "Georgia",
    "postal_code": "30601-2727",
    "country": "United States",
    "longitude": -83.380087,
    "latitude": 33.95919871,
    "phone": "7064101043",
    "website_url": "http://www.creaturecomfortsbeer.com",
    "state": "Georgia",
    "street": "271 W Hancock Ave"
  },
  {
    "id": "f4512d6a-51fd-4e2d-b601-f4666490f0a0",
    "name": "Creature Comforts Production Facility At Southern Mill",
    "brewery_type": "regional",
    "address_1": "355 Oneta St Bldg A100",
    "address_2": null,
    "address_3": null,
    "city": "Athens",
    "state_province": "Georgia",
    "postal_code": "30601",
    "country": "United States",
    "longitude": null,
    "latitude": null,
    "phone": null,
    "website_url": null,
    "state": "Georgia",
    "street": "355 Oneta St Bldg A100"
  },
  {
    "id": "e176038a-98ce-45f7-844a-e3489e34dbb1",
    "name": "Creatures Of Habit Brewing Co",
    "brewery_type": "planning",
    "address_1": null,
    "address_2": null,
    "address_3": null,
    "city": "Anderson",
    "state_province": "Indiana",
    "postal_code": "46016-1749",
    "country": "United States",
    "longitude": null,
    "latitude": null,
    "phone": "7654000116",
    "website_url": "http://facebook.com/CreaturesBrew/",
    "state": "Indiana",
    "street": null
  },
  {
    "id": "21cd8238-f678-4a95-9cf3-75b34f58d7fa",
    "name": "Creek Bottom Brew LLC",
    "brewery_type": "planning",
    "address_1": null,
    "address_2": null,
    "address_3": null,
    "city": "Oldenburg",
    "state_province": "Indiana",
    "postal_code": "47036-9765",
    "country": "United States",
    "longitude": null,
    "latitude": null,
    "phone": "8122124817",
    "website_url": "http://www.creekbottombrew.com",
    "state": "Indiana",
    "street": null
  },
  {
    "id": "9cb116be-fc14-4540-9c17-4507cb5595e4",
    "name": "Creek Bottom Brewing",
    "brewery_type": "brewpub",
    "address_1": "307 N Meadow St",
    "address_2": null,
    "address_3": null,
    "city": "Galax",
    "state_province": "Virginia",
    "postal_code": "24333-3019",
    "country": "United States",
    "longitude": -80.92094471,
    "latitude": 36.66708636,
    "phone": "2762362337",
    "website_url": "http://www.creekbottombrewing.com",
    "state": "Virginia",
    "street": "307 N Meadow St"
  },
  {
    "id": "6fc2720b-7757-4e50-82cf-6e27c285c590",
    "name": "Crescent Brewery",
    "brewery_type": "micro",
    "address_1": "1521 Front St",
    "address_2": null,
    "address_3": null,
    "city": "Nampa",
    "state_province": "Idaho",
    "postal_code": "83651-4331",
    "country": "United States",
    "longitude": -116.5550949,
    "latitude": 43.57676253,
    "phone": "2089681034",
    "website_url": "http://www.crescentbeer.com",
    "state": "Idaho",
    "street": "1521 Front St"
  },
  {
    "id": "f7de41dc-b46c-4ab5-82bd-c437e685b48f",
    "name": "Crescent City Brewhouse",
    "brewery_type": "brewpub",
    "address_1": "527 Decatur St",
    "address_2": null,
    "address_3": null,
    "city": "New Orleans",
    "state_province": "Louisiana",
    "postal_code": "70130-1027",
    "country": "United States",
    "longitude": -90.0639242,
    "latitude": 29.9557185,
    "phone": "5045220571",
    "website_url": "http://www.crescentcitybrewhouse.com",
    "state": "Louisiana",
    "street": "527 Decatur St"
  },
  {
    "id": "0e1b23f1-d957-4890-a38c-c21f687b5e96",
    "name": "Creston Brewery",
    "brewery_type": "brewpub",
    "address_1": "1504 Plainfield Ave NE",
    "address_2": null,
    "address_3": null,
    "city": "Grand Rapids",
    "state_province": "Michigan",
    "postal_code": "49505-4923",
    "country": "United States",
    "longitude": -85.66252661,
    "latitude": 42.99120192,
    "phone": "6168054523",
    "website_url": "http://www.crestonbrewery.com",
    "state": "Michigan",
    "street": "1504 Plainfield Ave NE"
  },
  {
    "id": "4c16f1b4-9cea-44a9-9ddb-73b8feaa1a5c",
    "name": "Crestone Brewing Company",
    "brewery_type": "brewpub",
    "address_1": "187 West Silver Ave.",
    "address_2": null,
    "address_3": null,
    "city": "Crestone",
    "state_province": "Colorado",
    "postal_code": "81131",
    "country": "United States",
    "longitude": null,
    "latitude": null,
    "phone": "7192566400",
    "website_url": "http://www.crestonebrewingco.com",
    "state": "Colorado",
    "street": "187 West Silver Ave."
  }
]