[
  {
    "id": "a2738df3-5b54-4a76-80ee-1e799bc9f9cb",
    "name": "Twin Peaks Brewery",
    "brewery_type": "micro",
    "address_1": "1500 Market Place Blvd",
    "address_2": null,
    "address_3": null,
    "city": "Irving",
    "state_province": "Texas",
    "postal_code": "75063",
    "country": "United States",
    "longitude": -96.96767266,
    "latitude": 32.91862635,
    "phone": "4699642921",
    "website_url": "http://twinpeaksrestaurants.com/brewery",
    "state": "Texas",
    "street": "1500 Market Place Blvd"
  },
  {
    "id": "6a8fdfd9-8419-4e4a-828e-0dea8bcf5bcb",
    "name": "TWIN SISTERS",
    "brewery_type": "planning",
    "address_1": null,
    "address_2": null,
    "address_3": null,
    "city": "San Antonio",
    "state_province": "Texas",
    "postal_code": "78210",
    "country": "United States",
    "longitude": null,
    "latitude": null,
    "phone": "2108186515",
    "website_url": null,
    "state": "Texas",
    "street": null
  },
  {
    "id": "4917afcb-f644-48c9-81f2-a57c232e6052",
    "name": "Twin Sisters Brewing Company",
    "brewery_type": "brewpub",
    "address_1": "500 Carolina St",
    "address_2": null,
    "address_3": null,
    "city": "Bellingham",
    "state_province": "Washington",
    "postal_code": "98225-4106",
    "country": "United States",
    "longitude": -122.468971,
    "latitude": 48.760265,
    "phone": "3609226700",
    "website_url": "https://www.twinsistersbrewing.com",
    "state": "Washington",
    "street": "500 Carolina St"
  },
  {
    "id": "cf19b93c-f80d-4c5b-80b5-70cf6cdb0e3f",
    "name": "Twinpanzee Brewing Company",
    "brewery_type": "micro",
    "address_1": "101 Executive Dr Ste D",
    "address_2": null,
    "address_3": null,
    "city": "Sterling",
    "state_province": "Virginia",
    "postal_code": "20166-9557",
    "country": "United States",
    "longitude": null,
    "latitude": null,
    "phone": "7037919363",
    "website_url": "http://www.twinpanzee.com",
    "state": "Virginia",
    "street": "101 Executive Dr Ste D"
  },
  {
    "id": "78da44c9-24f2-47f1-8dfb-e9e38b213fe5",
    "name": "Twisted Ales Craft Brewing Co.",
    "brewery_type": "micro",
    "address_1": "212 W 6th St",
    "address_2": null,
    "address_3": null,
    "city": "Richmond",
    "state_province": "Virginia",
    "postal_code": "23224-2349",
    "country": "United States",
    "longitude": -77.4420409,
    "latitude": 37.5259842,
    "phone": "8042309439",
    "website_url": "http://www.twistedales.com",
    "state": "Virginia",
    "street": "212 W 6th St"
  },
  {
    "id": "d54e5f65-dc4f-4db3-8b21-0cbde3d83680",
    "name": "Twisted Barley Brewing Company",
    "brewery_type": "micro",
    "address_1": "520 19th St W",
    "address_2": null,
    "address_3": null,
    "city": "Jasper",
    "state_province": "Alabama",
    "postal_code": "35501-5351",
    "country": "United States",
    "longitude": -87.28338,
    "latitude": 33.832359,
    "phone": "2052653253",
    "website_url": null,
    "state": "Alabama",
    "street": "520 19th St W"
  },
  {
    "id": "29d82828-d18f-4ad7-9e7c-88bd7a652a7b",
    "name": "Twisted Bine Beer Co.",
    "brewery_type": "planning",
    "address_1": null,
    "address_2": null,
    "address_3": null,
    "city": "Mount Joy",
    "state_province": "Pennsylvania",
    "postal_code": "17552-1424",
    "country": "United States",
    "longitude": null,
    "latitude": null,
    "phone": "7179178577",
    "website_url": null,
    "state": "Pennsylvania",
    "street": null
  },
  {
    "id": "a063bcc2-6017-4131-b6b5-e34ddedf077a",
    "name": "Twisted Cypress Brewing Company",
    "brewery_type": "closed",
    "address_1": "1897 Sam Rittenberg Blvd",
    "address_2": null,
    "address_3": null,
    "city": "Charleston",
    "state_province": "South Carolina",
    "postal_code": "29407-4870",
    "country": "United States",
    "longitude": -80.0219063,
    "latitude": 32.79905412,
    "phone": "8436081899",
    "website_url": "http://www.twistedcypressbrewingco.com",
    "state": "South Carolina",
    "street": "1897 Sam Rittenberg Blvd"
  },
  {
    "id": "f16ee8bc-0ac3-4403-b7a8-4c4bc0582938",
    "name": "Twisted Hippo",
    "brewery_type": "contract",
    "address_1": "2925 W Montrose Ave",
    "address_2": null,
    "address_3": null,
    "city": "Chicago",
    "state_province": "Illinois",
    "postal_code": "60618-1403",
    "country": "United States",
    "longitude": -87.7019463,
    "latitude": 41.961125,
    "phone": "7088447768",
    "website_url": "http://Www.twistedhippo.com",
    "state": "Illinois",
    "street": "2925 W Montrose Ave"
  },
  {
    "id": "35d329e7-2608-44c0-b328-c3d54dd764cf",
    "name": "Twisted Pine Brewing Co",
    "brewery_type": "brewpub",
    "address_1": "3201 Walnut St Ste A",
    "address_2": null,
    "address_3": null,
    "city": "Boulder",
    "state_province": "Colorado",
    "postal_code": "80301-2645",
    "country": "United States",
    "longitude": null,
    "latitude": null,
    "phone": "3037869270",
    "website_url": "http://www.twistedpinebrewing.com",
    "state": "Colorado",
    "street": "3201 Walnut St Ste A"
  },
  {
    "id": "6151ad7d-80a5-457a-9b2d-138e3a6ae77a",
    "name": "Twisted Rail Brewing Company",
    "brewery_type": "micro",
    "address_1": "169 Lakeshore Dr",
    "address_2": null,
    "address_3": null,
    "city": "Canandaigua",
    "state_province": "New York",
    "postal_code": "14424-2309",
    "country": "United States",
    "longitude": -77.262436,
    "latitude": 42.87507,
    "phone": "5853960683",
    "website_url": "http://www.twistedrailbrewing.com",
    "state": "New York",
    "street": "169 Lakeshore Dr"
  },
  {
    "id": "218d3127-127b-4e78-a192-db5617c2f6fa",
    "name": "Twisted Roots Brewing",
    "brewery_type": "micro",
    "address_1": "3690 Forest Park Ave",
    "address_2": null,
    "address_3": null,
    "city": "Saint Louis",
    "state_province": "Missouri",
    "postal_code": "63108",
    "country": "United States",
    "longitude": -90.238117,
    "latitude": 38.637188,
    "phone": "3144496363",
    "website_url": "http://www.twistedrootsbrewing.com",
    "state": "Missouri",
    "street": "3690 Forest Park Ave"
  },
  {
    "id": "f4954559-b115-469a-824e-afa6e37cd9a3",
    "name": "Twisted Spike Brewing Company",
    "brewery_type": "micro",
    "address_1": "1 NW 10th St",
    "address_2": null,
    "address_3": null,
    "city": "Oklahoma City",
    "state_province": "Oklahoma",
    "postal_code": "73103-4901",
    "country": "United States",
    "longitude": -97.6785729,
    "latitude": 35.4787783,
    "phone": "4052979961",
    "website_url": "http://twistedspike.com",
    "state": "Oklahoma",
    "street": "1 NW 10th St"
  },
  {
    "id": "e6f28e79-056e-4995-9e6e-9747c06ae023",
    "name": "Twisted Spur Brewing",
    "brewery_type": "brewpub",
    "address_1": "705 Gervais St Ste A",
    "address_2": null,
    "address_3": null,
    "city": "Columbia",
    "state_province": "South Carolina",
    "postal_code": "29201-6012",
    "country": "United States",
    "longitude": null,
    "latitude": null,
    "phone": "8037640203",
    "website_url": null,
    "state": "South Carolina",
    "street": "705 Gervais St Ste A"
  },
  {
    "id": "7570bfc2-7a5e-444e-bbb4-995703ea572b",
    "name": "Twisted Trunk Brewing Company",
    "brewery_type": "micro",
    "address_1": "2000 Pga Blvd Ste 5506",
    "address_2": null,
    "address_3": null,
    "city": "North Palm Beach",
    "state_province": "Florida",
    "postal_code": "33408-2726",
    "country": "United States",
    "longitude": null,
    "latitude": null,
    "phone": "5616712337",
    "website_url": "http://www.twistedtrunkbrewing.com",
    "state": "Florida",
    "street": "2000 Pga Blvd Ste 5506"
  },
  {
    "id": "cee9d52e-b11f-489e-ace5-d67641dbd713",
    "name": "Twisted Vine Brewery",
    "brewery_type": "micro",
    "address_1": "3320 Westown Pkwy",
    "address_2": null,
    "address_3": null,
    "city": "West Des Moines",
    "state_province": "Iowa",
    "postal_code": "50266-1111",
    "country": "United States",
    "longitude": -93.7489517,
    "latitude": 41.5936597,
    "phone": "5157202940",
    "website_url": "http://www.twistedvinebrewery.com",
    "state": "Iowa",
    "street": "3320 Westown Pkwy"
  },
  {
    "id": "90131c8a-a9c4-4c9f-86ea-08d631535a56",
    "name": "Twisted X Brewing Co",
    "brewery_type": "micro",
    "address_1": "23455 West RR 150",
    "address_2": null,
    "address_3": null,
    "city": "Dripping Springs",
    "state_province": "Texas",
    "postal_code": "78620",
    "country": "United States",
    "longitude": null,
    "latitude": null,
    "phone": "5128295323",
    "website_url": "http://www.twistedxbrewing.com",
    "state": "Texas",
    "street": "23455 West RR 150"
  },
  {
    "id": "56959793-d728-4902-809a-5d075c5b2836",
    "name": "Two Bald Guys Beverage Co",
    "brewery_type": "contract",
    "address_1": "18090 Hazelnut Dr",
    "address_2": null,
    "address_3": null,
    "city": "Reno",
    "state_province": "Nevada",
    "postal_code": "89508-6898",
    "country": "United States",
    "longitude": null,
    "latitude": null,
    "phone": null,
    "website_url": "http://www.drinktwobaldguys.com",
    "state": "Nevada",
    "street": "18090 Hazelnut Dr"
  },
  {
    "id": "183f1e6c-ef70-449f-a77b-de8913b19e2b",
    "name": "Two Bandits Brewing Company",
    "brewery_type": "brewpub",
    "address_1": "106 E High St",
    "address_2": null,
    "address_3": null,
    "city": "Hicksville",
    "state_province": "Ohio",
    "postal_code": "43526",
    "country": "United States",
    "longitude": -84.76170108,
    "latitude": 41.29361163,
    "phone": "4195421087",
    "website_url": null,
    "state": "Ohio",
    "street": "106 E High St"
  },
  {
    "id": "1bc963a8-bc05-4e51-ad51-79bf80e8e426",
    "name": "Two Beagles Brewpub",
    "brewery_type": "brewpub",
    "address_1": "910 2nd Ave N",
    "address_2": null,
    "address_3": null,
    "city": "Onalaska",
    "state_province": "Wisconsin",
    "postal_code": "54650-2277",
    "country": "United States",
    "longitude": null,
    "latitude": null,
    "phone": "6085191921",
    "website_url": "http://www.twobeaglesbrewpub.com",
    "state": "Wisconsin",
    "street": "910 2nd Ave N"
  },
  {
    "id": "b658090d-6800-432d-9825-2988f375bc13",
    "name": "Two Blokes Brewing Co.",
    "brewery_type": "micro",
    "address_1": "547 Long Point Rd Ste 101",
    "address_2": null,
    "address_3": null,
    "city": "Mount Pleasant",
    "state_province": "South Carolina",
    "postal_code": "29464-8337",
    "country": "United States",
    "longitude": null,
    "latitude": null,
    "phone": "8436544564",
    "website_url": "http://www.twoblokesbrewing.com",
    "state": "South Carolina",
    "street": "547 Long Point Rd Ste 101"
  },
  {
    "id": "5c8ee4a7-a254-4325-9715-1110c71753d3",
    "name": "Two Brothers Brewing Co",
    "brewery_type": "regional",
    "address_1": "30W315 Calumet Ave W",
    "address_2": null,
    "address_3": null,
    "city": "Warrenville",
    "state_province": "Illinois",
    "postal_code": "60555-1565",
    "country": "United States",
    "longitude": null,
    "latitude": null,
    "phone": "6303934800",
    "website_url": "http://www.TwoBrothersBrewing.com",
    "state": "Illinois",
    "street": "30W315 Calumet Ave W"
  },
  {
    "id": "287e8cd1-bfb6-4c9c-b38f-bcde56ccb472",
    "name": "Two Brothers Scottsdale Tap House and Brewery",
    "brewery_type": "brewpub",
    "address_1": "4321 N Scottsdale Rd",
    "address_2": null,
    "address_3": null,
    "city": "Scottsdale",
    "state_province": "Arizona",
    "postal_code": "85251-3329",
    "country": "United States",
    "longitude": -111.9254955,
    "latitude": 33.658427,
    "phone": "4803783001",
    "website_url": null,
    "state": "Arizona",
    "street": "4321 N Scottsdale Rd"
  },
  {
    "id": "353afc36-cb18-4de5-a77f-1a065ab1d6d1",
    "name": "Two Coast Brewing Co.",
    "brewery_type": "micro",
    "address_1": "14928 S Figueroa St",
    "address_2": null,
    "address_3": null,
    "city": "Gardena",
    "state_province": "California",
    "postal_code": "90248",
    "country": "United States",
    "longitude": -118.2819715,
    "latitude": 33.89680488,
    "phone": "3107300055",
    "website_url": "http://www.twocoastbrewing.com",
    "state": "California",
    "street": "14928 S Figueroa St"
  },
  {
    "id": "e151bd5e-806b-44d0-aa9e-c321f7a566b9",
    "name": "Two Docs Brewing Co.",
    "brewery_type": "planning",
    "address_1": null,
    "address_2": null,
    "address_3": null,
    "city": "Lubbock",
    "state_province": "Texas",
    "postal_code": "79401",
    "country": "United States",
    "longitude": null,
    "latitude": null,
    "phone": null,
    "website_url": "http://twodocsbrewing.com",
    "state": "Texas",
    "street": null
  },
  {
    "id": "5cccb3f6-eb09-4a57-9709-d6ea09547e9c",
    "name": "Two Dude Brew",
    "brewery_type": "planning",
    "address_1": null,
    "address_2": null,
    "address_3": null,
    "city": "Clearlake",
    "state_province": "California",
    "postal_code": "95422-8159",
    "country": "United States",
    "longitude": -122.6263728,
    "latitude": 38.9582307,
    "phone": "7075337600",
    "website_url": null,
    "state": "California",
    "street": null
  },
  {
    "id": "1b2e6967-a506-4e9e-9a34-470ae9101074",
    "name": "Two Fathers Beer Co",
    "brewery_type": "contract",
    "address_1": "2016 Belvidere Rd",
    "address_2": null,
    "address_3": null,
    "city": "Virginia Beach",
    "state_province": "Virginia",
    "postal_code": "23454-2233",
    "country": "United States",
    "longitude": -76.0389065,
    "latitude": 36.86874825,
    "phone": "7573092518",
    "website_url": "http://www.twofathersbeer.com",
    "state": "Virginia",
    "street": "2016 Belvidere Rd"
  },
  {
    "id": "fa21605f-18f8-48da-9302-97dcf2d3ac64",
    "name": "Two Frogs Brewing Company",
    "brewery_type": "micro",
    "address_1": "151 E Tarpon Ave",
    "address_2": null,
    "address_3": null,
    "city": "Tarpon Springs",
    "state_province": "Florida",
    "postal_code": "34689-3451",
    "country": "United States",
    "longitude": -82.75503088,
    "latitude": 28.14632482,
    "phone": "7279406077",
    "website_url": null,
    "state": "Florida",
    "street": "151 E Tarpon Ave"
  },
  {
    "id": "b30278b8-ab10-4bc3-b983-2203008e7b12",
    "name": "Two Goats Brewing",
    "brewery_type": "brewpub",
    "address_1": "5027 State Route 414",
    "address_2": null,
    "address_3": null,
    "city": "Burdett",
    "state_province": "New York",
    "postal_code": "14818-9816",
    "country": "United States",
    "longitude": null,
    "latitude": null,
    "phone": "607546",
    "website_url": "http://www.twogoatsbrewing.com",
    "state": "New York",
    "street": "5027 State Route 414"
  },
  {
    "id": "36b75972-6f6a-4e3e-b1ac-0b137f9c6410",
    "name": "Two Gramps Brewing",
    "brewery_type": "brewpub",
    "address_1": "266 Water St",
    "address_2": null,
    "address_3": null,
    "city": "Gardiner",
    "state_province": "Maine",
    "postal_code": "04345",
    "country": "United States",
    "longitude": -69.77292634,
    "latitude": 44.22957832,
    "phone": "2075920776",
    "website_url": "http://www.twogrampsbrewing.com",
    "state": "Maine",
    "street": "266 Water St"
  },
  {
    "id": "02c2b09f-d059-4888-9164-e7d963c709e5",
    "name": "Two Henrys Brewing Company",
    "brewery_type": "micro",
    "address_1": "5210 Thonotosassa Rd",
    "address_2": null,
    "address_3": null,
    "city": "Plant City",
    "state_province": "Florida",
    "postal_code": "33565-5700",
    "country": "United States",
    "longitude": -82.1366836,
    "latitude": 28.0158875,
    "phone": "8137529100",
    "website_url": null,
    "state": "Florida",
    "street": "5210 Thonotosassa Rd"
  },
  {
    "id": "f5723c43-2256-4abb-9d9e-66d388050870",
    "name": "Two Kilts Brewing",
    "brewery_type": "micro",
    "address_1": "14841 SW Tualatin Sherwood Rd Ste 501",
    "address_2": null,
    "address_3": null,
    "city": "Sherwood",
    "state_province": "Oregon",
    "postal_code": "97140-7127",
    "country": "United States",
    "longitude": -122.8308802,
    "latitude": 45.36773305,
    "phone": "5036251700",
    "website_url": "http://www.twokiltsbrewing.com",
    "state": "Oregon",
    "street": "14841 SW Tualatin Sherwood Rd Ste 501"
  },
  {
    "id": "8b8dec5f-62d9-4970-8425-446c9f72026f",
    "name": "Two Knights Brewing",
    "brewery_type": "planning",
    "address_1": null,
    "address_2": null,
    "address_3": null,
    "city": "Austin",
    "state_province": "Texas",
    "postal_code": "78701-3720",
    "country": "United States",
    "longitude": null,
    "latitude": null,
    "phone": "5124176561",
    "website_url": null,
    "state": "Texas",
    "street": null
  },
  {
    "id": "5edd07f2-5db8-4527-b234-227b23129c43",
    "name": "Two Monks Brewing Company",
    "brewery_type": "micro",
    "address_1": "352 Massillon Rd",
    "address_2": null,
    "address_3": null,
    "city": "Akron",
    "state_province": "Ohio",
    "postal_code": "44312-2021",
    "country": "United States",
    "longitude": -81.46292368,
    "latitude": 41.05205025,
    "phone": "2347382337",
    "website_url": "http://www.2monksbru.com",
    "state": "Ohio",
    "street": "352 Massillon Rd"
  },
  {
    "id": "a893c395-8dab-41a1-9b57-eee9e396ecb9",
    "name": "Two Plumbers Brewery and Arcade",
    "brewery_type": "micro",
    "address_1": "2236 1st Capitol Dr",
    "address_2": null,
    "address_3": null,
    "city": "Saint Charles",
    "state_province": "Missouri",
    "postal_code": "63301",
    "country": "United States",
    "longitude": -90.511795,
    "latitude": 38.791625,
    "phone": "6362248626",
    "website_url": "http://www.twoplumbers.com",
    "state": "Missouri",
    "street": "2236 1st Capitol Dr"
  },
  {
    "id": "1f1af7ee-3a2a-4c3e-ae68-584d60381d80",
    "name": "Two Rascals Brewing Co",
    "brewery_type": "micro",
    "address_1": "147 N 1st St",
    "address_2": null,
    "address_3": null,
    "city": "Montrose",
    "state_province": "Colorado",
    "postal_code": "81401-3601",
    "country": "United States",
    "longitude": -107.8800003,
    "latitude": 38.4788199,
    "phone": "9702498689",
    "website_url": "http://www.tworascalsbrewing.com",
    "state": "Colorado",
    "street": "147 N 1st St"
  },
  {
    "id": "1d4b058c-f5ac-4884-9ab5-d0d0d5cbf11c",
    "name": "Two Rivers Brewing Co",
    "brewery_type": "brewpub",
    "address_1": "542 Northampton St",
    "address_2": null,
    "address_3": null,
    "city": "Easton",
    "state_province": "Pennsylvania",
    "postal_code": "18042-3517",
    "country": "United States",
    "longitude": -75.214292,
    "latitude": 40.69072655,
    "phone": "6108291131",
    "website_url": "http://www.tworiversbrewing.com",
    "state": "Pennsylvania",
    "street": "542 Northampton St"
  },
  {
    "id": "0c45746b-fe2f-4171-b1e7-181027857e22",
    "name": "Two Roads Brewing Co",
    "brewery_type": "regional",
    "address_1": "1700 Stratford Ave",
    "address_2": null,
    "address_3": null,
    "city": "Stratford",
    "state_province": "Connecticut",
    "postal_code": "06615-6419",
    "country": "United States",
    "longitude": -73.151247,
    "latitude": 41.184374,
    "phone": "2033352010",
    "website_url": "http://www.tworoadsbrewing.com",
    "state": "Connecticut",
    "street": "1700 Stratford Ave"
  },
  {
    "id": "3c6ba9ee-3f7e-475f-a3d5-76d9924068ad",
    "name": "Two Rows Restaurant and Brewery - Allen",
    "brewery_type": "contract",
    "address_1": "711 Central Expy S",
    "address_2": null,
    "address_3": null,
    "city": "Allen",
    "state_province": "Texas",
    "postal_code": "75013-8012",
    "country": "United States",
    "longitude": -96.67987289,
    "latitude": 33.0921542,
    "phone": "9723968670",
    "website_url": "http://www.tworows.com/",
    "state": "Texas",
    "street": "711 Central Expy S"
  },
  {
    "id": "ec650c63-7266-4177-abe7-9eabdc5a6c73",
    "name": "Two Tides Brewing Company",
    "brewery_type": "micro",
    "address_1": "12 West 41st St",
    "address_2": null,
    "address_3": null,
    "city": "Savannah",
    "state_province": "Georgia",
    "postal_code": "31401",
    "country": "United States",
    "longitude": -81.10216092,
    "latitude": 32.054127,
    "phone": "9126670706",
    "website_url": "http://www.twotidesbrewing.com",
    "state": "Georgia",
    "street": "12 West 41st St"
  },
  {
    "id": "ad179174-6550-4b63-8055-301c822af22b",
    "name": "Two Ton Brewing",
    "brewery_type": "micro",
    "address_1": "730 Federal Ave",
    "address_2": null,
    "address_3": null,
    "city": "Kenilworth",
    "state_province": "New Jersey",
    "postal_code": "07033",
    "country": "United States",
    "longitude": -74.28663992,
    "latitude": 40.67871822,
    "phone": null,
    "website_url": "http://www.twotonbrewing.com",
    "state": "New Jersey",
    "street": "730 Federal Ave"
  },
  {
    "id": "7712331d-cff9-48e9-a76a-da423aadc841",
    "name": "Two Wheel Brewing Company",
    "brewery_type": "micro",
    "address_1": "535 S Loop 4",
    "address_2": null,
    "address_3": null,
    "city": "Buda",
    "state_province": "Texas",
    "postal_code": "78610-9388",
    "country": "United States",
    "longitude": null,
    "latitude": null,
    "phone": "5123613401",
    "website_url": "http://www.twowheelbrewing.com",
    "state": "Texas",
    "street": "535 S Loop 4"
  },
  {
    "id": "64d344a6-fdd2-4e92-9838-2c360f783fd5",
    "name": "Two-Shy Brewing",
    "brewery_type": "micro",
    "address_1": "1308 NW Park St Ste 100",
    "address_2": null,
    "address_3": null,
    "city": "Roseburg",
    "state_province": "Oregon",
    "postal_code": "97470-2058",
    "country": "United States",
    "longitude": -123.3553263,
    "latitude": 43.22538387,
    "phone": "5412362055",
    "website_url": "http://www.twoshybrewing.com",
    "state": "Oregon",
    "street": "1308 NW Park St Ste 100"
  },
  {
    "id": "91673432-855c-469a-a703-18f8451b6365",
    "name": "Two22 Brew",
    "brewery_type": "micro",
    "address_1": "4550 S Reservoir Rd",
    "address_2": null,
    "address_3": null,
    "city": "Centennial",
    "state_province": "Colorado",
    "postal_code": "80015-2878",
    "country": "United States",
    "longitude": -104.7601698,
    "latitude": 39.63429093,
    "phone": "7203289038",
    "website_url": "http://www.two22brew.com",
    "state": "Colorado",
    "street": "4550 S Reservoir Rd"
  },
  {
    "id": "179899fd-256c-42c1-8fc5-7b68c340320b",
    "name": "TwoDEEP Brewing",
    "brewery_type": "brewpub",
    "address_1": "714 N Capitol Ave",
    "address_2": null,
    "address_3": null,
    "city": "Indianapolis",
    "state_province": "Indiana",
    "postal_code": "46204-1114",
    "country": "United States",
    "longitude": -86.161428,
    "latitude": 39.777426,
    "phone": "3176531884",
    "website_url": "http://www.twodeepbrewing.com",
    "state": "Indiana",
    "street": "714 N Capitol Ave"
  },
  {
    "id": "de49adbf-37b7-4f7f-8ae1-58210e67f073",
    "name": "TwoGuys Brewing",
    "brewery_type": "brewpub",
    "address_1": "2356 Porter St SW",
    "address_2": null,
    "address_3": null,
    "city": "Wyoming",
    "state_province": "Michigan",
    "postal_code": "49519",
    "country": "United States",
    "longitude": -85.72355013,
    "latitude": 42.92114925,
    "phone": "6165529690",
    "website_url": "http://www.twoguysbrewing.beer",
    "state": "Michigan",
    "street": "2356 Porter St SW"
  },
  {
    "id": "33178929-9e93-4e46-ab90-72c5a91a128f",
    "name": "Tyranena Brewing Co",
    "brewery_type": "micro",
    "address_1": "1025 Owen St",
    "address_2": null,
    "address_3": null,
    "city": "Lake Mills",
    "state_province": "Wisconsin",
    "postal_code": "53551-0736",
    "country": "United States",
    "longitude": -88.8965312,
    "latitude": 43.0861774,
    "phone": "9206488699",
    "website_url": "http://www.tyranena.com",
    "state": "Wisconsin",
    "street": "1025 Owen St"
  },
  {
    "id": "f997d03c-9301-4ce2-b71c-ac67dca594bd",
    "name": "U4ic Brewing, Inc.",
    "brewery_type": "micro",
    "address_1": "23436 Union Trl Ste 1",
    "address_2": null,
    "address_3": null,
    "city": "Belle Plaine",
    "state_province": "Minnesota",
    "postal_code": "56011-9008",
    "country": "United States",
    "longitude": -93.8017001,
    "latitude": 44.6232246,
    "phone": "9528733303",
    "website_url": "http://www.u4icbrewing.com",
    "state": "Minnesota",
    "street": "23436 Union Trl Ste 1"
  },
  {
    "id": "2f4e3d86-1b06-4a0e-9335-acfb6abfed37",
    "name": "Uberbrew",
    "brewery_type": "brewpub",
    "address_1": "2305 Montana Ave",
    "address_2": null,
    "address_3": null,
    "city": "Billings",
    "state_province": "Montana",
    "postal_code": "59101-2421",
    "country": "United States",
    "longitude": -108.4990456,
    "latitude": 45.78417106,
    "phone": "4065346960",
    "website_url": "http://uberbrewmt.com",
    "state": "Montana",
    "street": "2305 Montana Ave"
  },
  {
    "id": "a14412d4-f656-45df-a0ea-453201dc5f31",
    "name": "UBrew Nanobrewery",
    "brewery_type": "micro",
    "address_1": "3054 Cass Rd Unit F",
    "address_2": null,
    "address_3": null,
    "city": "Traverse City",
    "state_province": "Michigan",
    "postal_code": "49684-8800",
    "country": "United States",
    "longitude": null,
    "latitude": null,
    "phone": "2319432016",
    "website_url": "http://www.ubrewtc.com",
    "state": "Michigan",
    "street": "3054 Cass Rd Unit F"
  }
]