[
  {
    "id": "f065cdd4-4548-4d3f-9f63-de811f696110",
    "name": "Gordon Biersch Brewery Restaurant - Glendale",
    "brewery_type": "brewpub",
    "address_1": "6915 N 95th Ave",
    "address_2": null,
    "address_3": null,
    "city": "Glendale",
    "state_province": "Arizona",
    "postal_code": "85305-2488",
    "country": "United States",
    "longitude": -112.2638679,
    "latitude": 33.5050851,
    "phone": "6238774300",
    "website_url": "http://www.craftworksrestaurants.com",
    "state": "Arizona",
    "street": "6915 N 95th Ave"
  },
  {
    "id": "abba7334-109f-4923-89de-c3ba7d83aad1",
    "name": "Gordon Biersch Brewery Restaurant - Honolulu",
    "brewery_type": "closed",
    "address_1": "1 Aloha Tower Dr Ste 1123",
    "address_2": null,
    "address_3": null,
    "city": "Honolulu",
    "state_province": "Hawaii",
    "postal_code": "96813-4815",
    "country": "United States",
    "longitude": -157.86622,
    "latitude": 21.306704,
    "phone": "8085994877",
    "website_url": "http://www.gordonbiersch.com/restaurant",
    "state": "Hawaii",
    "street": "1 Aloha Tower Dr Ste 1123"
  },
  {
    "id": "cd6ae440-1121-4bc1-9b2f-7afd11e8b57c",
    "name": "Gordon Biersch Brewery Restaurant - Las Vegas",
    "brewery_type": "brewpub",
    "address_1": "3987 Paradise Rd",
    "address_2": null,
    "address_3": null,
    "city": "Las Vegas",
    "state_province": "Nevada",
    "postal_code": "89169-4607",
    "country": "United States",
    "longitude": -115.1545679,
    "latitude": 36.1442243,
    "phone": "7023125247",
    "website_url": "http://www.craftworksrestaurants.com",
    "state": "Nevada",
    "street": "3987 Paradise Rd"
  },
  {
    "id": "c8e4496a-ab97-491c-81bf-45be3411d3ae",
    "name": "Gordon Biersch Brewery Restaurant - Louisville",
    "brewery_type": "brewpub",
    "address_1": "400 S 4th St",
    "address_2": null,
    "address_3": null,
    "city": "Louisville",
    "state_province": "Kentucky",
    "postal_code": "40202-3418",
    "country": "United States",
    "longitude": -85.7574044,
    "latitude": 38.2528789,
    "phone": "5025898935",
    "website_url": "http://www.gordonbiersch.com/restaurant",
    "state": "Kentucky",
    "street": "400 S 4th St"
  },
  {
    "id": "67e5a01d-01cd-46b0-a54c-d0222d988689",
    "name": "Gordon Biersch Brewery Restaurant - Myrtle Beach",
    "brewery_type": "brewpub",
    "address_1": "3060 Howard Ave",
    "address_2": null,
    "address_3": null,
    "city": "Myrtle Beach",
    "state_province": "South Carolina",
    "postal_code": "29577-1643",
    "country": "United States",
    "longitude": -78.939092,
    "latitude": 33.668327,
    "phone": "8438390249",
    "website_url": "http://www.craftworksrestaurants.com",
    "state": "South Carolina",
    "street": "3060 Howard Ave"
  },
  {
    "id": "63b91345-1bf4-420d-8f66-206d18476eb9",
    "name": "Gordon Biersch Brewery Restaurant - Navy  Yard",
    "brewery_type": "brewpub",
    "address_1": "100 M St SE",
    "address_2": null,
    "address_3": null,
    "city": "Washington",
    "state_province": "District of Columbia",
    "postal_code": "20003-3519",
    "country": "United States",
    "longitude": -77.0052971,
    "latitude": 38.8766834,
    "phone": "2024842739",
    "website_url": "http://www.gordonbiersch.com/locations/navy-yard?action=view",
    "state": "District of Columbia",
    "street": "100 M St SE"
  },
  {
    "id": "a2735f3a-dfe8-4c31-86df-9e1b19734faf",
    "name": "Gordon Biersch Brewery Restaurant - New Orleans",
    "brewery_type": "brewpub",
    "address_1": "200 Poydras St",
    "address_2": null,
    "address_3": null,
    "city": "New Orleans",
    "state_province": "Louisiana",
    "postal_code": "70130-1641",
    "country": "United States",
    "longitude": -90.0651027,
    "latitude": 29.9481058,
    "phone": "5045522739",
    "website_url": "http://www.craftworksrestaurants.com",
    "state": "Louisiana",
    "street": "200 Poydras St"
  },
  {
    "id": "1100c128-6ea6-4594-9df7-24b01dca1d77",
    "name": "Gordon Biersch Brewery Restaurant - Plano",
    "brewery_type": "brewpub",
    "address_1": "7401 Lone Star Dr Ste B120",
    "address_2": null,
    "address_3": null,
    "city": "Plano",
    "state_province": "Texas",
    "postal_code": "75024-5646",
    "country": "United States",
    "longitude": null,
    "latitude": null,
    "phone": "4694670464",
    "website_url": "http://www.craftworksrestaurants.com",
    "state": "Texas",
    "street": "7401 Lone Star Dr Ste B120"
  },
  {
    "id": "9448e983-7a49-499e-854b-9b2008fe58b2",
    "name": "Gordon Biersch Brewery Restaurant - Rockville",
    "brewery_type": "brewpub",
    "address_1": "200 E Middle Ln Unit A",
    "address_2": null,
    "address_3": null,
    "city": "Rockville",
    "state_province": "Maryland",
    "postal_code": "20850-2206",
    "country": "United States",
    "longitude": null,
    "latitude": null,
    "phone": "3013407159",
    "website_url": "http://www.craftworksrestaurants.com",
    "state": "Maryland",
    "street": "200 E Middle Ln Unit A"
  },
  {
    "id": "28945428-2326-41b3-b2d9-97f6e8154783",
    "name": "Gordon Biersch Brewery Restaurant - San Diego",
    "brewery_type": "brewpub",
    "address_1": "5010 Mission Center Rd",
    "address_2": null,
    "address_3": null,
    "city": "San Diego",
    "state_province": "California",
    "postal_code": "92108-3211",
    "country": "United States",
    "longitude": -117.1539235,
    "latitude": 32.7740128,
    "phone": "6196881120",
    "website_url": "http://www.craftworksrestaurants.com",
    "state": "California",
    "street": "5010 Mission Center Rd"
  },
  {
    "id": "c24f54a0-dbde-40c1-8e15-c78dffb5e2c2",
    "name": "Gordon Biersch Brewery Restaurant - Seattle",
    "brewery_type": "closed",
    "address_1": "600 Pine St Ste 401",
    "address_2": null,
    "address_3": null,
    "city": "Seattle",
    "state_province": "Washington",
    "postal_code": "98101-3709",
    "country": "United States",
    "longitude": null,
    "latitude": null,
    "phone": "2064054205",
    "website_url": "http://www.craftworksrestaurants.com",
    "state": "Washington",
    "street": "600 Pine St Ste 401"
  },
  {
    "id": "43873862-faa8-4ee2-b191-e56745c8fe57",
    "name": "Gordon Biersch Brewery Restaurant - Syracuse",
    "brewery_type": "brewpub",
    "address_1": "304 Hiawatha Blvd West #J-101",
    "address_2": null,
    "address_3": null,
    "city": "Syracuse",
    "state_province": "New York",
    "postal_code": "13290",
    "country": "United States",
    "longitude": null,
    "latitude": null,
    "phone": "3154780990",
    "website_url": "http://www.craftworksrestaurants.com",
    "state": "New York",
    "street": "304 Hiawatha Blvd West #J-101"
  },
  {
    "id": "12bbf8b5-aa4a-412b-be50-be1375bf618f",
    "name": "Gordon Biersch Brewery Restaurant - Tempe",
    "brewery_type": "brewpub",
    "address_1": "420 S Mill Ave Ste 201",
    "address_2": null,
    "address_3": null,
    "city": "Tempe",
    "state_province": "Arizona",
    "postal_code": "85281-2870",
    "country": "United States",
    "longitude": null,
    "latitude": null,
    "phone": "4807360033",
    "website_url": "http://www.craftworksrestaurants.com",
    "state": "Arizona",
    "street": "420 S Mill Ave Ste 201"
  },
  {
    "id": "ca6efbc1-a838-4db2-b023-c88635530939",
    "name": "Gordon Biersch Brewery Restaurant - Tysons Corner",
    "brewery_type": "brewpub",
    "address_1": "7861 Tysons Corner Center",
    "address_2": null,
    "address_3": null,
    "city": "Mc Lean",
    "state_province": "Virginia",
    "postal_code": "22102-4515",
    "country": "United States",
    "longitude": null,
    "latitude": null,
    "phone": "7033885454",
    "website_url": "http://www.craftworksrestaurants.com",
    "state": "Virginia",
    "street": "7861 Tysons Corner Center"
  },
  {
    "id": "f2dab499-6c5f-41d1-b425-0ef5311ef8d6",
    "name": "Gordon Biersch Brewery Restaurant - Virginia Beach",
    "brewery_type": "brewpub",
    "address_1": "4561 Virginia Beach Blvd",
    "address_2": null,
    "address_3": null,
    "city": "Virginia Beach",
    "state_province": "Virginia",
    "postal_code": "23462-3015",
    "country": "United States",
    "longitude": -76.1345641,
    "latitude": 36.8432205,
    "phone": "7574902739",
    "website_url": "http://www.craftworksrestaurants.com",
    "state": "Virginia",
    "street": "4561 Virginia Beach Blvd"
  },
  {
    "id": "cb2ba6de-fc98-4ae0-83a4-b775bda03f2c",
    "name": "Gordon Biersch Brewery Restaurant - Washington",
    "brewery_type": "brewpub",
    "address_1": "900 F St NW",
    "address_2": null,
    "address_3": null,
    "city": "Washington",
    "state_province": "District of Columbia",
    "postal_code": "20004-1404",
    "country": "United States",
    "longitude": -77.0243479,
    "latitude": 38.8971375,
    "phone": "2027835454",
    "website_url": "http://www.gordonbiersch.com/locations/washington-dc?action=view",
    "state": "District of Columbia",
    "street": "900 F St NW"
  },
  {
    "id": "4aa4af0b-4ec9-4681-b671-a7f231e27e14",
    "name": "Gordon Biersch Brewing Co",
    "brewery_type": "regional",
    "address_1": "357 E Taylor St",
    "address_2": null,
    "address_3": null,
    "city": "San Jose",
    "state_province": "California",
    "postal_code": "95112-3105",
    "country": "United States",
    "longitude": -121.8841169,
    "latitude": 37.3567304,
    "phone": "4082781008",
    "website_url": "http://www.gordonbiersch.com",
    "state": "California",
    "street": "357 E Taylor St"
  },
  {
    "id": "8d5259ff-4a8e-486f-8d9a-371b4f2ce224",
    "name": "Gordon Street Tavern",
    "brewery_type": "brewpub",
    "address_1": "114 N Gordon St",
    "address_2": null,
    "address_3": null,
    "city": "Alvin",
    "state_province": "Texas",
    "postal_code": "77511-2331",
    "country": "United States",
    "longitude": -95.24398685,
    "latitude": 29.42403097,
    "phone": "2819687402",
    "website_url": "http://www.gordonstreettavern.com",
    "state": "Texas",
    "street": "114 N Gordon St"
  },
  {
    "id": "e88af73d-d2a2-43b1-8bf2-b4b668998400",
    "name": "Gore Range Brewery",
    "brewery_type": "brewpub",
    "address_1": "105 Edwards Village Blvd",
    "address_2": null,
    "address_3": null,
    "city": "Edwards",
    "state_province": "Colorado",
    "postal_code": "81632-2970",
    "country": "United States",
    "longitude": -106.5953228,
    "latitude": 39.64367461,
    "phone": "9709262739",
    "website_url": "http://www.gorerangebrewery.com",
    "state": "Colorado",
    "street": "105 Edwards Village Blvd"
  },
  {
    "id": "df4c24b4-1f52-436f-b804-b920bfe6b47a",
    "name": "Goshen Brewing Company",
    "brewery_type": "brewpub",
    "address_1": "315 W Washington St",
    "address_2": null,
    "address_3": null,
    "city": "Goshen",
    "state_province": "Indiana",
    "postal_code": "46526-3732",
    "country": "United States",
    "longitude": -85.8386783,
    "latitude": 41.585178,
    "phone": "5749715324",
    "website_url": "http://www.goshenbrewing.com",
    "state": "Indiana",
    "street": "315 W Washington St"
  },
  {
    "id": "fcd9312c-7531-4801-b481-52f4267cf628",
    "name": "G\u00f6sser Brauerei (Heineken)",
    "brewery_type": "large",
    "address_1": "Brauhausgasse 1",
    "address_2": null,
    "address_3": null,
    "city": "Leoben",
    "state_province": "Steiermark",
    "postal_code": "8700",
    "country": "Austria",
    "longitude": 15.093344205825,
    "latitude": 47.362557227479,
    "phone": "+438102069791",
    "website_url": "https://www.goesser.at",
    "state": "Steiermark",
    "street": "Brauhausgasse 1"
  },
  {
    "id": "cbbf76ad-da0e-49b4-935f-6589eba11b2d",
    "name": "Gotahold Brewing Company",
    "brewery_type": "planning",
    "address_1": null,
    "address_2": null,
    "address_3": null,
    "city": "Eureka Springs",
    "state_province": "Arkansas",
    "postal_code": "72632",
    "country": "United States",
    "longitude": -93.7392419,
    "latitude": 36.4000796,
    "phone": "8023569163",
    "website_url": null,
    "state": "Arkansas",
    "street": null
  },
  {
    "id": "6a35d8fa-40c8-4f62-82d1-90273dfd5b41",
    "name": "GOTL Brewing Co",
    "brewery_type": "brewpub",
    "address_1": "5243 Lake Rd E",
    "address_2": null,
    "address_3": null,
    "city": "Geneva",
    "state_province": "Ohio",
    "postal_code": "44041-9433",
    "country": "United States",
    "longitude": -80.94434114,
    "latitude": 41.86120536,
    "phone": "4403614864",
    "website_url": "http://www.gotlbrewing.com",
    "state": "Ohio",
    "street": "5243 Lake Rd E"
  },
  {
    "id": "c8289fce-485f-454c-9065-c699a7eeb6e3",
    "name": "Gottberg Brew Pub",
    "brewery_type": "brewpub",
    "address_1": "2804 13th St",
    "address_2": null,
    "address_3": null,
    "city": "Columbus",
    "state_province": "Nebraska",
    "postal_code": "68601-4919",
    "country": "United States",
    "longitude": -97.3621271,
    "latitude": 41.42940061,
    "phone": "4025626488",
    "website_url": "http://www.dustersrestaurant.com",
    "state": "Nebraska",
    "street": "2804 13th St"
  },
  {
    "id": "c833789a-356a-4f78-8c97-61deb25d5c1b",
    "name": "Grace Ridge Brewing",
    "brewery_type": "micro",
    "address_1": "3388 B St Suite 2",
    "address_2": null,
    "address_3": null,
    "city": "Homer",
    "state_province": "Alaska",
    "postal_code": "99603-7905",
    "country": "United States",
    "longitude": -151.504362,
    "latitude": 59.639728,
    "phone": "9074350601",
    "website_url": "https://www.graceridgebrewing.com",
    "state": "Alaska",
    "street": "3388 B St Suite 2"
  },
  {
    "id": "a5dfda47-d7a5-47b5-8bb2-b12b2c867525",
    "name": "Grafton Winery & Brewhaus",
    "brewery_type": "micro",
    "address_1": "300 W Main St",
    "address_2": null,
    "address_3": null,
    "city": "Grafton",
    "state_province": "Illinois",
    "postal_code": "62037-1124",
    "country": "United States",
    "longitude": -90.439045,
    "latitude": 38.969851,
    "phone": "6187863001",
    "website_url": "http://www.thegraftonwinery.com",
    "state": "Illinois",
    "street": "300 W Main St"
  },
  {
    "id": "e355ff68-d879-48f6-bda8-1b68ecc68096",
    "name": "Grail Point Brewery",
    "brewery_type": "proprietor",
    "address_1": null,
    "address_2": null,
    "address_3": null,
    "city": "Emmitsburg",
    "state_province": "Maryland",
    "postal_code": "21727-0702",
    "country": "United States",
    "longitude": null,
    "latitude": null,
    "phone": "2408442379",
    "website_url": "http://www.grailpointbeer.co",
    "state": "Maryland",
    "street": null
  },
  {
    "id": "bd14f283-c7e6-469b-9fa6-bc6887148b1a",
    "name": "Grain Station Brew Works",
    "brewery_type": "brewpub",
    "address_1": "755 NE Alpine Ave Ste 200",
    "address_2": null,
    "address_3": null,
    "city": "McMinnville",
    "state_province": "Oregon",
    "postal_code": "97128-4102",
    "country": "United States",
    "longitude": -123.1894465,
    "latitude": 45.21286658,
    "phone": "5036872739",
    "website_url": "http://www.grainstation.com",
    "state": "Oregon",
    "street": "755 NE Alpine Ave Ste 200"
  },
  {
    "id": "4ea74fb1-ba73-4a89-948a-20c2cabc86f0",
    "name": "Grain Theory Brewing Company",
    "brewery_type": "planning",
    "address_1": null,
    "address_2": null,
    "address_3": null,
    "city": "Abilene",
    "state_province": "Texas",
    "postal_code": "79601",
    "country": "United States",
    "longitude": null,
    "latitude": null,
    "phone": "2142260915",
    "website_url": "http://www.graintheorybrewing.com",
    "state": "Texas",
    "street": null
  },
  {
    "id": "d06a2b64-5a7c-4dda-8ee3-404473ca3e5c",
    "name": "Grains and Taps Brewery and Taproom",
    "brewery_type": "micro",
    "address_1": "10 SW 3rd St",
    "address_2": null,
    "address_3": null,
    "city": "Lees Summit",
    "state_province": "Missouri",
    "postal_code": "64063",
    "country": "United States",
    "longitude": -94.383478,
    "latitude": 38.91366,
    "phone": "8168665827",
    "website_url": "http://www.grainsandtaps.com",
    "state": "Missouri",
    "street": "10 SW 3rd St"
  },
  {
    "id": "d1248bce-f8fd-4070-b8c8-714565fa0cbb",
    "name": "Grains of Wrath Brewing",
    "brewery_type": "brewpub",
    "address_1": "230 NE 5th Ave",
    "address_2": null,
    "address_3": null,
    "city": "Camas",
    "state_province": "Washington",
    "postal_code": "98607",
    "country": "United States",
    "longitude": -122.4056003,
    "latitude": 45.5857341,
    "phone": "3602105717",
    "website_url": "http://www.gowbeer.com",
    "state": "Washington",
    "street": "230 NE 5th Ave"
  },
  {
    "id": "a455bc2a-9c25-40d1-acc1-9e446c40554a",
    "name": "Grainworks Brewing Company",
    "brewery_type": "micro",
    "address_1": "7790 Service Center Dr",
    "address_2": null,
    "address_3": null,
    "city": "West Chester",
    "state_province": "Ohio",
    "postal_code": "45069-2442",
    "country": "United States",
    "longitude": null,
    "latitude": null,
    "phone": "5134802337",
    "website_url": null,
    "state": "Ohio",
    "street": "7790 Service Center Dr"
  },
  {
    "id": "73f4533a-d1cc-4d4b-b82f-6a76b348f147",
    "name": "Granary 'Cue and Brew",
    "brewery_type": "closed",
    "address_1": "602 Avenue A",
    "address_2": null,
    "address_3": null,
    "city": "San Antonio",
    "state_province": "Texas",
    "postal_code": "78215-1222",
    "country": "United States",
    "longitude": -98.47916983,
    "latitude": 29.44143325,
    "phone": "2102280124",
    "website_url": "http://www.thegranarysa.com",
    "state": "Texas",
    "street": "602 Avenue A"
  },
  {
    "id": "1eff5213-e6d2-4182-b367-8bda55edc37f",
    "name": "Grand Adventure Brewing Company",
    "brewery_type": "brewpub",
    "address_1": "207 Central Ave",
    "address_2": null,
    "address_3": null,
    "city": "Kremmling",
    "state_province": "Colorado",
    "postal_code": "80459",
    "country": "United States",
    "longitude": -106.3925656,
    "latitude": 40.0599844,
    "phone": "9707249219",
    "website_url": "http://www.grandadventure.us",
    "state": "Colorado",
    "street": "207 Central Ave"
  },
  {
    "id": "078de717-a4b4-459a-adb9-192533be58d9",
    "name": "Grand Armory Brewing Co",
    "brewery_type": "micro",
    "address_1": "17 S 2nd St",
    "address_2": null,
    "address_3": null,
    "city": "Grand Haven",
    "state_province": "Michigan",
    "postal_code": "49417-3328",
    "country": "United States",
    "longitude": -86.2312558,
    "latitude": 43.06378759,
    "phone": "6164147822",
    "website_url": "http://www.grandarmorybrewing.com",
    "state": "Michigan",
    "street": "17 S 2nd St"
  },
  {
    "id": "37250bc7-8131-4fa7-a203-51297a45dd20",
    "name": "Grand Armory Brewing Production Facility",
    "brewery_type": "micro",
    "address_1": "1734 Airpark Dr",
    "address_2": null,
    "address_3": null,
    "city": "Grand Haven",
    "state_province": "Michigan",
    "postal_code": "49417-8943",
    "country": "United States",
    "longitude": -86.19774282,
    "latitude": 43.03862147,
    "phone": "3106978958",
    "website_url": null,
    "state": "Michigan",
    "street": "1734 Airpark Dr"
  },
  {
    "id": "a48bf221-575d-4581-96cc-9239aeefa100",
    "name": "Grand Canyon Brewing",
    "brewery_type": "brewpub",
    "address_1": "301 N 7th St Ste 101",
    "address_2": null,
    "address_3": null,
    "city": "Williams",
    "state_province": "Arizona",
    "postal_code": "86046",
    "country": "United States",
    "longitude": null,
    "latitude": null,
    "phone": null,
    "website_url": null,
    "state": "Arizona",
    "street": "301 N 7th St Ste 101"
  },
  {
    "id": "64d350e2-cf89-4b54-bc58-95bbedc251c4",
    "name": "Grand Canyon Brewing Company",
    "brewery_type": "micro",
    "address_1": "233 W Route 66",
    "address_2": null,
    "address_3": null,
    "city": "Williams",
    "state_province": "Arizona",
    "postal_code": "86046-2530",
    "country": "United States",
    "longitude": -112.1892168,
    "latitude": 35.2500282,
    "phone": "8005132072",
    "website_url": "http://www.grandcanyonbrewingco.com",
    "state": "Arizona",
    "street": "233 W Route 66"
  },
  {
    "id": "5f02c62f-dd0c-44a1-ae48-4b0937073129",
    "name": "Grand Junction Brewing Co",
    "brewery_type": "brewpub",
    "address_1": "110 S Union St",
    "address_2": null,
    "address_3": null,
    "city": "Westfield",
    "state_province": "Indiana",
    "postal_code": "46074-9458",
    "country": "United States",
    "longitude": -86.1275556,
    "latitude": 40.0424222,
    "phone": "3178045168",
    "website_url": "http://www.grandjunctionbrewing.com",
    "state": "Indiana",
    "street": "110 S Union St"
  },
  {
    "id": "7de3ba0f-e2fa-413a-95e0-1e28bca4b04a",
    "name": "Grand Lake Brewing Co, The",
    "brewery_type": "brewpub",
    "address_1": "5610 Yukon St",
    "address_2": null,
    "address_3": null,
    "city": "Arvada",
    "state_province": "Colorado",
    "postal_code": "80002-2446",
    "country": "United States",
    "longitude": -105.082456,
    "latitude": 39.79927412,
    "phone": "3039081677",
    "website_url": "http://www.grandlakebrewing.com",
    "state": "Colorado",
    "street": "5610 Yukon St"
  },
  {
    "id": "6f3036b7-a9a3-491f-891a-d937c05e5d79",
    "name": "Grand Rapids Brewing Company",
    "brewery_type": "brewpub",
    "address_1": "1 Ionia Ave SW Ste 100",
    "address_2": null,
    "address_3": null,
    "city": "Grand Rapids",
    "state_province": "Michigan",
    "postal_code": "49503-5122",
    "country": "United States",
    "longitude": null,
    "latitude": null,
    "phone": "6164587000",
    "website_url": "http://www.grbrewingcompany.com",
    "state": "Michigan",
    "street": "1 Ionia Ave SW Ste 100"
  },
  {
    "id": "6be94240-b669-4729-839a-6828321f7566",
    "name": "Grand River Brewery",
    "brewery_type": "brewpub",
    "address_1": "117 W Louis Glick Hwy",
    "address_2": null,
    "address_3": null,
    "city": "Jackson",
    "state_province": "Michigan",
    "postal_code": "49201-1327",
    "country": "United States",
    "longitude": -84.406597,
    "latitude": 42.249334,
    "phone": "5179622427",
    "website_url": "http://www.grandrivermarketplace.com",
    "state": "Michigan",
    "street": "117 W Louis Glick Hwy"
  },
  {
    "id": "edc4a449-22c1-46c0-a70a-31b347140ed6",
    "name": "Grand River Brewery",
    "brewery_type": "planning",
    "address_1": null,
    "address_2": null,
    "address_3": null,
    "city": "Marshall",
    "state_province": "Michigan",
    "postal_code": "49068-1521",
    "country": "United States",
    "longitude": null,
    "latitude": null,
    "phone": null,
    "website_url": null,
    "state": "Michigan",
    "street": null
  },
  {
    "id": "0a5882a8-ba47-43a1-b5f5-804fa1ea8f2a",
    "name": "Grand Rounds Brewing Company",
    "brewery_type": "brewpub",
    "address_1": "4 3rd St SW",
    "address_2": null,
    "address_3": null,
    "city": "Rochester",
    "state_province": "Minnesota",
    "postal_code": "55902-3019",
    "country": "United States",
    "longitude": -92.46339522,
    "latitude": 44.0202771,
    "phone": "5072921628",
    "website_url": "http://www.grandroundsbrewing.com",
    "state": "Minnesota",
    "street": "4 3rd St SW"
  },
  {
    "id": "34038638-e24e-425e-b7b3-fcaeaa4e088d",
    "name": "Grand Teton Brewing Co",
    "brewery_type": "micro",
    "address_1": "430 Old Jackson Hwy",
    "address_2": null,
    "address_3": null,
    "city": "Victor",
    "state_province": "Idaho",
    "postal_code": "83455-5500",
    "country": "United States",
    "longitude": -111.10507,
    "latitude": 43.593522,
    "phone": "8888991656",
    "website_url": "http://grandtetonbrewing.com",
    "state": "Idaho",
    "street": "430 Old Jackson Hwy"
  },
  {
    "id": "75074a28-7aff-4047-bebc-b93e2cf17ffd",
    "name": "Grande Mere Inn / Cranberry Bog Bar",
    "brewery_type": "brewpub",
    "address_1": "5800 Red Arrow Hwy",
    "address_2": null,
    "address_3": null,
    "city": "Stevensville",
    "state_province": "Michigan",
    "postal_code": "49127-1118",
    "country": "United States",
    "longitude": -86.5287857,
    "latitude": 42.01274111,
    "phone": "2694293591",
    "website_url": "http://www.grandemereinn.com",
    "state": "Michigan",
    "street": "5800 Red Arrow Hwy"
  },
  {
    "id": "d9992b88-eaa2-4566-8b0e-51c34f7c477a",
    "name": "Grandma's House",
    "brewery_type": "micro",
    "address_1": "1710 S Broadway",
    "address_2": null,
    "address_3": null,
    "city": "Denver",
    "state_province": "Colorado",
    "postal_code": "80210-3102",
    "country": "United States",
    "longitude": -104.9872737,
    "latitude": 39.74350567,
    "phone": "3035786754",
    "website_url": "http://www.grandmasbeer.com",
    "state": "Colorado",
    "street": "1710 S Broadway"
  },
  {
    "id": "d3bdee03-95c7-4b39-a912-2196cda56d8c",
    "name": "Granger City Brewing Company",
    "brewery_type": "brewpub",
    "address_1": "109 W Davilla St",
    "address_2": null,
    "address_3": null,
    "city": "Granger",
    "state_province": "Texas",
    "postal_code": "76530",
    "country": "United States",
    "longitude": null,
    "latitude": null,
    "phone": "5127171859",
    "website_url": "http://www.grangercitybrewingcompany.com",
    "state": "Texas",
    "street": "109 W Davilla St"
  },
  {
    "id": "d1313b43-41ef-4489-8838-24599726cf92",
    "name": "Granite City Food & Brewery",
    "brewery_type": "brewpub",
    "address_1": "1864 W McEwen Dr",
    "address_2": null,
    "address_3": null,
    "city": "Franklin",
    "state_province": "Tennessee",
    "postal_code": "37067-1782",
    "country": "United States",
    "longitude": -86.8271308,
    "latitude": 35.9361408,
    "phone": null,
    "website_url": null,
    "state": "Tennessee",
    "street": "1864 W McEwen Dr"
  },
  {
    "id": "75bac68b-5b63-4dc2-a3b8-05dd0737af92",
    "name": "Granite City Food & Brewery",
    "brewery_type": "brewpub",
    "address_1": "24519 Cedar Rd",
    "address_2": null,
    "address_3": null,
    "city": "Cleveland",
    "state_province": "Ohio",
    "postal_code": "44124-3780",
    "country": "United States",
    "longitude": -81.5040318,
    "latitude": 41.5033931,
    "phone": null,
    "website_url": null,
    "state": "Ohio",
    "street": "24519 Cedar Rd"
  }
]