[
  {
    "id": "a2fd5880-bb20-447c-8676-06d5c3204bb2",
    "name": "Small Batch Beer Co",
    "brewery_type": "brewpub",
    "address_1": "241 W 5th St",
    "address_2": null,
    "address_3": null,
    "city": "Winston Salem",
    "state_province": "North Carolina",
    "postal_code": "27101-2825",
    "country": "United States",
    "longitude": -80.24656194,
    "latitude": 36.09984057,
    "phone": "3368936395",
    "website_url": "http://www.smallbatchws.com",
    "state": "North Carolina",
    "street": "241 W 5th St"
  },
  {
    "id": "221f2f9d-0a0d-4a0e-812d-52a323b9b0b6",
    "name": "Small Brewpub",
    "brewery_type": "brewpub",
    "address_1": "333 W Jefferson Blvd",
    "address_2": null,
    "address_3": null,
    "city": "Dallas",
    "state_province": "Texas",
    "postal_code": "75208-4602",
    "country": "United States",
    "longitude": -96.924553,
    "latitude": 32.747739,
    "phone": "9728631594",
    "website_url": "http://www.smallbrewpub.com",
    "state": "Texas",
    "street": "333 W Jefferson Blvd"
  },
  {
    "id": "ad153816-87b7-4426-8962-a885e286c116",
    "name": "Small Craft Brewing Co",
    "brewery_type": "micro",
    "address_1": "66 Merrick Rd",
    "address_2": null,
    "address_3": null,
    "city": "Amityville",
    "state_province": "New York",
    "postal_code": "11701-3463",
    "country": "United States",
    "longitude": -73.42019,
    "latitude": 40.67158556,
    "phone": "6314640186",
    "website_url": "http://www.smallcraftbrewing.com",
    "state": "New York",
    "street": "66 Merrick Rd"
  },
  {
    "id": "88e5f229-e9d3-43b2-9a45-2b4939c5d292",
    "name": "Small Town Brewery",
    "brewery_type": "large",
    "address_1": "1000 N Rand Rd Ste 204",
    "address_2": null,
    "address_3": null,
    "city": "Wauconda",
    "state_province": "Illinois",
    "postal_code": "60084-1182",
    "country": "United States",
    "longitude": null,
    "latitude": null,
    "phone": "3142768277",
    "website_url": null,
    "state": "Illinois",
    "street": "1000 N Rand Rd Ste 204"
  },
  {
    "id": "5fb3457a-9cea-4b46-a7a7-c78cedf557a3",
    "name": "Smart Beer Company",
    "brewery_type": "contract",
    "address_1": null,
    "address_2": null,
    "address_3": null,
    "city": "New Paltz",
    "state_province": "New York",
    "postal_code": "12561-0430",
    "country": "United States",
    "longitude": null,
    "latitude": null,
    "phone": null,
    "website_url": "http://www.smartbeercompany.com",
    "state": "New York",
    "street": null
  },
  {
    "id": "2e7b8b79-621e-4681-8f53-0c24fedfc09d",
    "name": "Smartmouth Brewing Co",
    "brewery_type": "micro",
    "address_1": "1309 Raleigh Ave Ste A",
    "address_2": null,
    "address_3": null,
    "city": "Norfolk",
    "state_province": "Virginia",
    "postal_code": "23507-1367",
    "country": "United States",
    "longitude": null,
    "latitude": null,
    "phone": "7576243939",
    "website_url": "http://www.smartmouthbrewing.com",
    "state": "Virginia",
    "street": "1309 Raleigh Ave Ste A"
  },
  {
    "id": "74cef93d-22b5-418a-a84f-e996784e17d7",
    "name": "Smartmouth Brewing Pilot House",
    "brewery_type": "micro",
    "address_1": "313 32nd St",
    "address_2": null,
    "address_3": null,
    "city": "Virginia Beach",
    "state_province": "Virginia",
    "postal_code": "23451-2950",
    "country": "United States",
    "longitude": -75.98078847,
    "latitude": 36.86023395,
    "phone": null,
    "website_url": null,
    "state": "Virginia",
    "street": "313 32nd St"
  },
  {
    "id": "8a7b82c3-9385-4588-a98a-35fc895e4a7a",
    "name": "Smelter City Brewing",
    "brewery_type": "micro",
    "address_1": "101 E Commercial Ave",
    "address_2": null,
    "address_3": null,
    "city": "Anaconda",
    "state_province": "Montana",
    "postal_code": "59711-2289",
    "country": "United States",
    "longitude": -112.95216,
    "latitude": 46.130107,
    "phone": "4065630344",
    "website_url": "http://www.smeltercitybrewing.com",
    "state": "Montana",
    "street": "101 E Commercial Ave"
  },
  {
    "id": "9692085e-0a88-418f-bae2-8ac272043c22",
    "name": "Smiling Toad Brewery",
    "brewery_type": "micro",
    "address_1": "1757 S 8th St Ste 100",
    "address_2": null,
    "address_3": null,
    "city": "Colorado Springs",
    "state_province": "Colorado",
    "postal_code": "80905-1926",
    "country": "United States",
    "longitude": null,
    "latitude": null,
    "phone": "7194182936",
    "website_url": "http://www.smilingtoadbrewery.com",
    "state": "Colorado",
    "street": "1757 S 8th St Ste 100"
  },
  {
    "id": "6cd2665b-5ea4-4d78-a955-4054b95cbdee",
    "name": "Smith & Lentz Brewing",
    "brewery_type": "micro",
    "address_1": "903 Main St",
    "address_2": null,
    "address_3": null,
    "city": "Nashville",
    "state_province": "Tennessee",
    "postal_code": "37206-3609",
    "country": "United States",
    "longitude": -86.75651722,
    "latitude": 36.17632511,
    "phone": null,
    "website_url": "http://www.smithandlentz.com",
    "state": "Tennessee",
    "street": "903 Main St"
  },
  {
    "id": "57c23721-9ab0-4718-b171-a6a1da98d5a0",
    "name": "Smith Alley Brewing Company",
    "brewery_type": "micro",
    "address_1": "150 N Wolcott St",
    "address_2": null,
    "address_3": null,
    "city": "Casper",
    "state_province": "Wyoming",
    "postal_code": "82601-2529",
    "country": "United States",
    "longitude": -106.95608972899,
    "latitude": 44.799078333975,
    "phone": "3076751934",
    "website_url": "http://www.smithalleybrewing.com",
    "state": "Wyoming",
    "street": "150 N Wolcott St"
  },
  {
    "id": "6a6ff43f-647e-4943-8cb5-85d6258598b6",
    "name": "Smith Rock Brewing",
    "brewery_type": "brewpub",
    "address_1": "546 NW 7th St",
    "address_2": null,
    "address_3": null,
    "city": "Redmond",
    "state_province": "Oregon",
    "postal_code": "97756-1628",
    "country": "United States",
    "longitude": -121.175239,
    "latitude": 44.28056302,
    "phone": "5412797005",
    "website_url": "http://www.smithrockbrewing.com",
    "state": "Oregon",
    "street": "546 NW 7th St"
  },
  {
    "id": "338a035d-fe33-4406-8d9b-0acb0eb96f41",
    "name": "Smithwick's (Diageo)",
    "brewery_type": "regional",
    "address_1": "44 Parliament St",
    "address_2": "Gardens",
    "address_3": null,
    "city": "Kilkenny",
    "state_province": "Kilkenny",
    "postal_code": "R95 VK54",
    "country": "Ireland",
    "longitude": -7.2562989,
    "latitude": 52.6543719,
    "phone": "353567786377",
    "website_url": "https://www.smithwicksexperience.com/",
    "state": "Kilkenny",
    "street": "44 Parliament St"
  },
  {
    "id": "64348b73-e8b5-4bc3-8148-9630d2e347c3",
    "name": "Smitty's Brewing",
    "brewery_type": "micro",
    "address_1": null,
    "address_2": null,
    "address_3": null,
    "city": "Bremerton",
    "state_province": "Washington",
    "postal_code": "98312-9132",
    "country": "United States",
    "longitude": null,
    "latitude": null,
    "phone": "3607108921",
    "website_url": "http://smittysbrewing.com",
    "state": "Washington",
    "street": null
  },
  {
    "id": "130b023b-c130-4325-8df2-2a52a62aaf21",
    "name": "Smockville Brewhouse",
    "brewery_type": "brewpub",
    "address_1": "22793 SW Pine St",
    "address_2": null,
    "address_3": null,
    "city": "Sherwood",
    "state_province": "Oregon",
    "postal_code": "97140-9303",
    "country": "United States",
    "longitude": -122.8406694,
    "latitude": 45.3566248,
    "phone": "5036101506",
    "website_url": "http://www.smockvillebrewhouse.com",
    "state": "Oregon",
    "street": "22793 SW Pine St"
  },
  {
    "id": "c267ba5a-d0dc-4725-85fd-18659fe5a006",
    "name": "Smog City Brewing",
    "brewery_type": "micro",
    "address_1": "1901 Del Amo Blvd Ste B",
    "address_2": null,
    "address_3": null,
    "city": "Torrance",
    "state_province": "California",
    "postal_code": "90501-1350",
    "country": "United States",
    "longitude": -118.313547,
    "latitude": 33.8472774,
    "phone": "3103207664",
    "website_url": "http://www.smogcitybrewing.com",
    "state": "California",
    "street": "1901 Del Amo Blvd Ste B"
  },
  {
    "id": "6fc07a95-1af8-4e00-bfd6-3841016cf901",
    "name": "Smog City Brewing Wood Cellar",
    "brewery_type": "micro",
    "address_1": "1879 Del Amo Blvd",
    "address_2": null,
    "address_3": null,
    "city": "Torrance",
    "state_province": "California",
    "postal_code": "90501",
    "country": "United States",
    "longitude": -118.3180205,
    "latitude": 33.8467722,
    "phone": "3103207664",
    "website_url": "http://www.smogcitybrewing.com",
    "state": "California",
    "street": "1879 Del Amo Blvd"
  },
  {
    "id": "b2c68158-4806-47ed-8150-a45d1661c2b9",
    "name": "Smoke Brewing Company",
    "brewery_type": "brewpub",
    "address_1": "209 SE Main St",
    "address_2": null,
    "address_3": null,
    "city": "Lees Summit",
    "state_province": "Missouri",
    "postal_code": "64063",
    "country": "United States",
    "longitude": -94.37807739,
    "latitude": 38.91334904,
    "phone": "8165252337",
    "website_url": "http://www.smokebrewingcompany.com",
    "state": "Missouri",
    "street": "209 SE Main St"
  },
  {
    "id": "30ea1448-f80e-4674-9a8a-4ab5fe6ac550",
    "name": "Smoke Mountain Brewery",
    "brewery_type": "micro",
    "address_1": "6520 Casitas Pass Rd",
    "address_2": null,
    "address_3": null,
    "city": "Ventura",
    "state_province": "California",
    "postal_code": "93001-9794",
    "country": "United States",
    "longitude": -119.4438779,
    "latitude": 34.39420959,
    "phone": "8058047954",
    "website_url": "http://www.smokemtn.com",
    "state": "California",
    "street": "6520 Casitas Pass Rd"
  },
  {
    "id": "61f48b53-84df-41ce-8dac-170b22a19caf",
    "name": "Smokehouse Brewing",
    "brewery_type": "brewpub",
    "address_1": "1130 Dublin Rd",
    "address_2": null,
    "address_3": null,
    "city": "Columbus",
    "state_province": "Ohio",
    "postal_code": "43215-1039",
    "country": "United States",
    "longitude": -83.047935,
    "latitude": 39.973715,
    "phone": "6144850227",
    "website_url": "http://www.smokehousebrewing.com",
    "state": "Ohio",
    "street": "1130 Dublin Rd"
  },
  {
    "id": "7d0390dd-7798-4be0-8df3-9dab9fb59ae2",
    "name": "Smoketown Brewing Station",
    "brewery_type": "micro",
    "address_1": "223 W Potomac St",
    "address_2": null,
    "address_3": null,
    "city": "Brunswick",
    "state_province": "Maryland",
    "postal_code": "21716-1117",
    "country": "United States",
    "longitude": -77.6302935,
    "latitude": 39.3136514,
    "phone": "3018344828",
    "website_url": "http://www.smoketownbrewing.com",
    "state": "Maryland",
    "street": "223 W Potomac St"
  },
  {
    "id": "bee91126-b9e1-4bb0-b7b1-dd746886e199",
    "name": "Smoking Cannon Brewery",
    "brewery_type": "micro",
    "address_1": "780 Main St Ste I",
    "address_2": null,
    "address_3": null,
    "city": "Ramona",
    "state_province": "California",
    "postal_code": "92065-2079",
    "country": "United States",
    "longitude": -116.8651486,
    "latitude": 33.04359813,
    "phone": "7604077557",
    "website_url": "http://www.smokingcannonbrewery.com",
    "state": "California",
    "street": "780 Main St Ste I"
  },
  {
    "id": "6c4840de-a3b0-4fd6-bd09-5044c906aaa5",
    "name": "Smoky Mountain Brewery (#1)",
    "brewery_type": "brewpub",
    "address_1": "6515 Kingston Pike",
    "address_2": null,
    "address_3": null,
    "city": "Knoxville",
    "state_province": "Tennessee",
    "postal_code": "37919-4826",
    "country": "United States",
    "longitude": -84.00966312,
    "latitude": 35.93189033,
    "phone": "8656733377",
    "website_url": "http://www.smoky-mtn-brewery.com",
    "state": "Tennessee",
    "street": "6515 Kingston Pike"
  },
  {
    "id": "b17bcb8a-14d5-45ba-951e-0f3ea50fa470",
    "name": "Smoky Mountain Brewery (#2) - Gatlinburg",
    "brewery_type": "brewpub",
    "address_1": "1004 Parkway Ste 501",
    "address_2": null,
    "address_3": null,
    "city": "Gatlinburg",
    "state_province": "Tennessee",
    "postal_code": "37738-3172",
    "country": "United States",
    "longitude": -83.52053504,
    "latitude": 35.70901801,
    "phone": "8654364200",
    "website_url": "http://www.smoky-mtn-brewery.com",
    "state": "Tennessee",
    "street": "1004 Parkway Ste 501"
  },
  {
    "id": "33d7fe5d-3e85-4c20-8f32-a2541d223bed",
    "name": "Smoky Mountain Brewery (#3) - Pigeon Forge",
    "brewery_type": "brewpub",
    "address_1": "2530 Parkway Ste 15",
    "address_2": null,
    "address_3": null,
    "city": "Pigeon Forge",
    "state_province": "Tennessee",
    "postal_code": "37863-7006",
    "country": "United States",
    "longitude": null,
    "latitude": null,
    "phone": null,
    "website_url": "http://www.smoky-mtn-brewery.com",
    "state": "Tennessee",
    "street": "2530 Parkway Ste 15"
  },
  {
    "id": "1e9730a4-0830-4062-bfb4-f368a39dd72e",
    "name": "Smoky Mountain Brewery (#4) - Turkey Creek",
    "brewery_type": "brewpub",
    "address_1": "11308 Parkside Dr",
    "address_2": null,
    "address_3": null,
    "city": "Knoxville",
    "state_province": "Tennessee",
    "postal_code": "37934-1971",
    "country": "United States",
    "longitude": -84.15846424,
    "latitude": 35.90006382,
    "phone": "8652885500",
    "website_url": "http://www.smoky-mtn-brewery.com",
    "state": "Tennessee",
    "street": "11308 Parkside Dr"
  },
  {
    "id": "879d1388-aaf4-43be-b148-c768b7bf7b08",
    "name": "Smug Brewing Company",
    "brewery_type": "micro",
    "address_1": "100 Carver St",
    "address_2": null,
    "address_3": null,
    "city": "Pawtucket",
    "state_province": "Rhode Island",
    "postal_code": "02860",
    "country": "United States",
    "longitude": -71.3987677,
    "latitude": 41.8598033,
    "phone": "4016425701",
    "website_url": "https://smugbrewing.com",
    "state": "Rhode Island",
    "street": "100 Carver St"
  },
  {
    "id": "36082801-cacf-4a86-8c76-30dcb6779c63",
    "name": "Smuggler's Brewpub",
    "brewery_type": "brewpub",
    "address_1": "225 South Pine St",
    "address_2": null,
    "address_3": null,
    "city": "Telluride",
    "state_province": "Colorado",
    "postal_code": "81435",
    "country": "United States",
    "longitude": -107.8114274,
    "latitude": 37.9358018,
    "phone": "9707285620",
    "website_url": "http://www.smugglersbrewpub.com",
    "state": "Colorado",
    "street": "225 South Pine St"
  },
  {
    "id": "34475681-5cf6-41d4-9fb2-89be9c894fa4",
    "name": "Smuttynose Brewing Co",
    "brewery_type": "regional",
    "address_1": "105 Towle Farm Rd",
    "address_2": null,
    "address_3": null,
    "city": "Hampton",
    "state_province": "New Hampshire",
    "postal_code": "03842-1806",
    "country": "United States",
    "longitude": -70.85354155,
    "latitude": 42.94551535,
    "phone": "6034364026",
    "website_url": "http://www.smuttynose.com",
    "state": "New Hampshire",
    "street": "105 Towle Farm Rd"
  },
  {
    "id": "524c21c1-3dc5-4e41-9e97-5ff34578e071",
    "name": "Smylie Brothers Brewing Co",
    "brewery_type": "brewpub",
    "address_1": "1615 Oak Ave",
    "address_2": null,
    "address_3": null,
    "city": "Evanston",
    "state_province": "Illinois",
    "postal_code": "60201-3611",
    "country": "United States",
    "longitude": -87.6864692,
    "latitude": 42.0476547,
    "phone": "2249997320",
    "website_url": "http://www.smyliebros.com",
    "state": "Illinois",
    "street": "1615 Oak Ave"
  },
  {
    "id": "c20499a8-0cd9-4fc4-878d-78067362cafb",
    "name": "Snafu Brewing Company",
    "brewery_type": "micro",
    "address_1": "3280 Industry Dr",
    "address_2": null,
    "address_3": null,
    "city": "Charleston",
    "state_province": "South Carolina",
    "postal_code": "29418-8452",
    "country": "United States",
    "longitude": -80.0664232,
    "latitude": 32.9255082,
    "phone": "8437674121",
    "website_url": "http://www.snafubrewingcompany.com",
    "state": "South Carolina",
    "street": "3280 Industry Dr"
  },
  {
    "id": "5a2b53e3-a513-4466-bdec-b3705517710f",
    "name": "Snake River Brewing Co",
    "brewery_type": "micro",
    "address_1": "265 S Millward St PO Box 3317",
    "address_2": null,
    "address_3": null,
    "city": "Jackson",
    "state_province": "Wyoming",
    "postal_code": "83001-8582",
    "country": "United States",
    "longitude": -110.79995450526,
    "latitude": 43.539472908519,
    "phone": "3077392337",
    "website_url": "http://www.snakeriverbrewing.com",
    "state": "Wyoming",
    "street": "265 S Millward St PO Box 3317"
  },
  {
    "id": "66c2e46d-acf3-4edf-90a4-8acbcea6586e",
    "name": "Snipes Mountain Brewing Co",
    "brewery_type": "micro",
    "address_1": "905 Yakima Valley Hwy",
    "address_2": null,
    "address_3": null,
    "city": "Sunnyside",
    "state_province": "Washington",
    "postal_code": "98944-1334",
    "country": "United States",
    "longitude": -120.0114902,
    "latitude": 46.32921174,
    "phone": "5098372739",
    "website_url": "http://www.snipesmountain.com",
    "state": "Washington",
    "street": "905 Yakima Valley Hwy"
  },
  {
    "id": "f520b880-2360-4cb9-88fb-a15f03c01fc0",
    "name": "Snitz Creek Brewery",
    "brewery_type": "brewpub",
    "address_1": "7 N 9th St",
    "address_2": null,
    "address_3": null,
    "city": "Lebanon",
    "state_province": "Pennsylvania",
    "postal_code": "17046-4902",
    "country": "United States",
    "longitude": -76.42637732,
    "latitude": 40.33937728,
    "phone": "7174504467",
    "website_url": "http://www.snitzcreekbrewery.com",
    "state": "Pennsylvania",
    "street": "7 N 9th St"
  },
  {
    "id": "9f37b457-f853-47c4-9fb1-95fa1287b095",
    "name": "Snoqualmie Falls Brewing Co",
    "brewery_type": "brewpub",
    "address_1": "8032 Falls Ave SE",
    "address_2": null,
    "address_3": null,
    "city": "Snoqualmie",
    "state_province": "Washington",
    "postal_code": "98065-0924",
    "country": "United States",
    "longitude": -121.8240977,
    "latitude": 47.5286214,
    "phone": null,
    "website_url": null,
    "state": "Washington",
    "street": "8032 Falls Ave SE"
  },
  {
    "id": "299a779f-c294-460e-97b1-fdc002e7d033",
    "name": "SnoTown Brewery",
    "brewery_type": "micro",
    "address_1": "511 2nd St",
    "address_2": null,
    "address_3": null,
    "city": "Snohomish",
    "state_province": "Washington",
    "postal_code": "98290-3009",
    "country": "United States",
    "longitude": -122.088761,
    "latitude": 47.912652,
    "phone": "4252318113",
    "website_url": "http://www.facebook.com/SnoTownBrewery/",
    "state": "Washington",
    "street": "511 2nd St"
  },
  {
    "id": "645db033-5fd1-47f2-aa98-8d996d148669",
    "name": "Snow Belt Brew",
    "brewery_type": "micro",
    "address_1": "9511 Kile Rd",
    "address_2": null,
    "address_3": null,
    "city": "Chardon",
    "state_province": "Ohio",
    "postal_code": "44024",
    "country": "United States",
    "longitude": null,
    "latitude": null,
    "phone": null,
    "website_url": null,
    "state": "Ohio",
    "street": "9511 Kile Rd"
  },
  {
    "id": "a346740b-449c-486b-84b9-c6bcc88d423f",
    "name": "Snow Eagle Brewing",
    "brewery_type": "brewpub",
    "address_1": "455 River Pkwy",
    "address_2": null,
    "address_3": null,
    "city": "Idaho Falls",
    "state_province": "Idaho",
    "postal_code": "83402-3314",
    "country": "United States",
    "longitude": -112.0452184,
    "latitude": 43.4950536,
    "phone": "2085570455",
    "website_url": "http://www.snoweaglebrewing.com",
    "state": "Idaho",
    "street": "455 River Pkwy"
  },
  {
    "id": "dcf64959-67a8-4af7-8cbf-ddeb3b645883",
    "name": "Snow Hop Brewery",
    "brewery_type": "micro",
    "address_1": "685 Barney St Ste A",
    "address_2": null,
    "address_3": null,
    "city": "Helena",
    "state_province": "Montana",
    "postal_code": "59602",
    "country": "United States",
    "longitude": null,
    "latitude": null,
    "phone": "4064225026",
    "website_url": null,
    "state": "Montana",
    "street": "685 Barney St Ste A"
  },
  {
    "id": "4e7d4dcd-13cd-4b18-acd3-7a690ba97aa0",
    "name": "Snowbank Brewing",
    "brewery_type": "micro",
    "address_1": "225 N Lemay Ave Ste 1",
    "address_2": null,
    "address_3": null,
    "city": "Fort Collins",
    "state_province": "Colorado",
    "postal_code": "80524-2555",
    "country": "United States",
    "longitude": null,
    "latitude": null,
    "phone": "9709995658",
    "website_url": "http://www.snowbank.beer",
    "state": "Colorado",
    "street": "225 N Lemay Ave Ste 1"
  },
  {
    "id": "3467fc4d-c507-46c1-a962-31d470bb204c",
    "name": "Snowbelt Brewing Company",
    "brewery_type": "brewpub",
    "address_1": "132 W Main St Unit 1",
    "address_2": null,
    "address_3": null,
    "city": "Gaylord",
    "state_province": "Michigan",
    "postal_code": "49735-2304",
    "country": "United States",
    "longitude": null,
    "latitude": null,
    "phone": "9894487077",
    "website_url": null,
    "state": "Michigan",
    "street": "132 W Main St Unit 1"
  },
  {
    "id": "6e862799-cb99-4d59-9eed-7255e4a44851",
    "name": "Snowshoe Brewing Co",
    "brewery_type": "brewpub",
    "address_1": "2050 Hwy 4",
    "address_2": null,
    "address_3": null,
    "city": "Arnold",
    "state_province": "California",
    "postal_code": "95223",
    "country": "United States",
    "longitude": -120.3617024,
    "latitude": 38.2423881,
    "phone": "2097952272",
    "website_url": "http://www.snowshoebrewing.com",
    "state": "California",
    "street": "2050 Hwy 4"
  },
  {
    "id": "70ae45d2-2998-4e2b-a88f-519ad2bee814",
    "name": "Snowy Mountain Brewery",
    "brewery_type": "brewpub",
    "address_1": "601 E Pic Pike Rd",
    "address_2": null,
    "address_3": null,
    "city": "Saratoga",
    "state_province": "Wyoming",
    "postal_code": "82331",
    "country": "United States",
    "longitude": -106.80129947327,
    "latitude": 41.452893296794,
    "phone": "8005940178",
    "website_url": "https://snowymountainbrewery.com",
    "state": "Wyoming",
    "street": "601 E Pic Pike Rd"
  },
  {
    "id": "c97e04f0-8d82-4730-a622-028f71756b5d",
    "name": "Soaring Ridge Craft Brewers",
    "brewery_type": "micro",
    "address_1": "523 Shenandoah Ave NW",
    "address_2": null,
    "address_3": null,
    "city": "Roanoke",
    "state_province": "Virginia",
    "postal_code": "24016-2318",
    "country": "United States",
    "longitude": -79.94962582,
    "latitude": 37.27473423,
    "phone": "5405292140",
    "website_url": "http://www.soaringridge.com",
    "state": "Virginia",
    "street": "523 Shenandoah Ave NW"
  },
  {
    "id": "30827634-ef1e-4c6e-b5a2-5fa202a5edd0",
    "name": "Soaring Wings Brewing",
    "brewery_type": "micro",
    "address_1": "17111 S 138th St",
    "address_2": null,
    "address_3": null,
    "city": "Springfield",
    "state_province": "Nebraska",
    "postal_code": "68059-4810",
    "country": "United States",
    "longitude": -96.125404,
    "latitude": 41.06572,
    "phone": "4022532479",
    "website_url": "http://www.soaringwingswine.com",
    "state": "Nebraska",
    "street": "17111 S 138th St"
  },
  {
    "id": "8301bc1c-4f4b-46c7-8217-fecb090a2d7c",
    "name": "Sobel's Obscure Brewery, LLC",
    "brewery_type": "contract",
    "address_1": "954 Arona Rd",
    "address_2": null,
    "address_3": null,
    "city": "New Stanton",
    "state_province": "Pennsylvania",
    "postal_code": "15672-1109",
    "country": "United States",
    "longitude": null,
    "latitude": null,
    "phone": "4125251553",
    "website_url": "http://www.Sobbrews.com",
    "state": "Pennsylvania",
    "street": "954 Arona Rd"
  },
  {
    "id": "b6a17419-65d8-4d92-a996-bf26330e9f0a",
    "name": "Sociable Cider Werks",
    "brewery_type": "micro",
    "address_1": "1500 Fillmore St NE",
    "address_2": null,
    "address_3": null,
    "city": "Minneapolis",
    "state_province": "Minnesota",
    "postal_code": "55413-1657",
    "country": "United States",
    "longitude": -93.2422388,
    "latitude": 45.0239772,
    "phone": "6127580105",
    "website_url": "http://www.sociablecider.com",
    "state": "Minnesota",
    "street": "1500 Fillmore St NE"
  },
  {
    "id": "bcf8b5aa-57c0-4f94-8809-c419091badc2",
    "name": "Social Kitchen & Brewery",
    "brewery_type": "brewpub",
    "address_1": "1326 9th Ave",
    "address_2": null,
    "address_3": null,
    "city": "San Francisco",
    "state_province": "California",
    "postal_code": "94122-2309",
    "country": "United States",
    "longitude": -122.4660662,
    "latitude": 37.7635041,
    "phone": "4156810330",
    "website_url": "http://www.socialkitchenandbrewery.com",
    "state": "California",
    "street": "1326 9th Ave"
  },
  {
    "id": "cdab7b3e-8fbe-430f-9303-5399b1fc15df",
    "name": "Societe Brewing Company",
    "brewery_type": "micro",
    "address_1": "Societe Brewing Company 8262 Clairemont Mesa Blvd",
    "address_2": null,
    "address_3": null,
    "city": "San Diego",
    "state_province": "California",
    "postal_code": "92111-1702",
    "country": "United States",
    "longitude": -117.1463568,
    "latitude": 32.8338146,
    "phone": "7138161157",
    "website_url": null,
    "state": "California",
    "street": "Societe Brewing Company 8262 Clairemont Mesa Blvd"
  },
  {
    "id": "dc097df0-f535-4aba-9a70-f3dfbccb1b1c",
    "name": "Sockdolager Brewing Company",
    "brewery_type": "micro",
    "address_1": "720 China St",
    "address_2": null,
    "address_3": null,
    "city": "Abilene",
    "state_province": "Texas",
    "postal_code": "79602-2722",
    "country": "United States",
    "longitude": -99.7270701,
    "latitude": 32.44139071,
    "phone": "3257211718",
    "website_url": "http://www.sockdolagerbrewery.com",
    "state": "Texas",
    "street": "720 China St"
  }
]