[
  {
    "id": "5895ab5b-ba99-44f5-b9f1-48e332e7f20e",
    "name": "Modern Brewery",
    "brewery_type": "micro",
    "address_1": "5231 Manchester Ave # E",
    "address_2": null,
    "address_3": null,
    "city": "Saint Louis",
    "state_province": "Missouri",
    "postal_code": "63110-2092",
    "country": "United States",
    "longitude": -90.273784,
    "latitude": 38.625149,
    "phone": null,
    "website_url": "http://www.mb314.com",
    "state": "Missouri",
    "street": "5231 Manchester Ave # E"
  },
  {
    "id": "ce39bb88-81c5-4d53-b95c-da6ffaa25c3c",
    "name": "Modern Methods Brewing Company",
    "brewery_type": "micro",
    "address_1": "125 David Grohl Alley",
    "address_2": null,
    "address_3": null,
    "city": "Warren",
    "state_province": "Ohio",
    "postal_code": "44481",
    "country": "United States",
    "longitude": null,
    "latitude": null,
    "phone": "3303331594",
    "website_url": "http://www.modernmethodsbrew.com",
    "state": "Ohio",
    "street": "125 David Grohl Alley"
  },
  {
    "id": "0203914c-a149-405a-8138-084ec3e5c1e4",
    "name": "Modern Romance Brewery",
    "brewery_type": "planning",
    "address_1": null,
    "address_2": null,
    "address_3": null,
    "city": "Durham",
    "state_province": "North Carolina",
    "postal_code": "27703-5133",
    "country": "United States",
    "longitude": null,
    "latitude": null,
    "phone": "9192594469",
    "website_url": "http://www.drinkmodern.com",
    "state": "North Carolina",
    "street": null
  },
  {
    "id": "6794eb82-4607-4730-bd12-4d164deb365f",
    "name": "Modern Times - The Belmont Fermentorium",
    "brewery_type": "brewpub",
    "address_1": "630 SE Belmont St",
    "address_2": null,
    "address_3": null,
    "city": "Portland",
    "state_province": "Oregon",
    "postal_code": "97214-2372",
    "country": "United States",
    "longitude": -122.6590469,
    "latitude": 45.516294,
    "phone": null,
    "website_url": null,
    "state": "Oregon",
    "street": "630 SE Belmont St"
  },
  {
    "id": "1f33d1c9-74e4-46bb-822e-aebfa1d180b9",
    "name": "Modern Times - The Dankness Dojo",
    "brewery_type": "brewpub",
    "address_1": "3725 Greenwood St",
    "address_2": null,
    "address_3": null,
    "city": "San Diego",
    "state_province": "California",
    "postal_code": "92110-4441",
    "country": "United States",
    "longitude": -117.206153,
    "latitude": 32.754233,
    "phone": "6195469694",
    "website_url": null,
    "state": "California",
    "street": "3725 Greenwood St"
  },
  {
    "id": "ab1d0e1c-87ce-4556-98af-8922c0d380ad",
    "name": "Modern Times Barrel House",
    "brewery_type": "micro",
    "address_1": "3486 Kurtz St # 102",
    "address_2": null,
    "address_3": null,
    "city": "San Diego",
    "state_province": "California",
    "postal_code": "92110-4429",
    "country": "United States",
    "longitude": -117.208725,
    "latitude": 32.75539325,
    "phone": null,
    "website_url": null,
    "state": "California",
    "street": "3486 Kurtz St # 102"
  },
  {
    "id": "579aa3fb-9386-4a0e-b617-8b4d72cd5075",
    "name": "Modern Times Beer",
    "brewery_type": "regional",
    "address_1": "3725 Greenwood St",
    "address_2": null,
    "address_3": null,
    "city": "San Diego",
    "state_province": "California",
    "postal_code": "92110-4441",
    "country": "United States",
    "longitude": -117.206153,
    "latitude": 32.754233,
    "phone": "6195469694",
    "website_url": "http://www.moderntimesbeer.com",
    "state": "California",
    "street": "3725 Greenwood St"
  },
  {
    "id": "b07ee09f-2060-4238-8d2e-b9dbba17da2f",
    "name": "Modestman Brewing",
    "brewery_type": "micro",
    "address_1": "100 Main St",
    "address_2": null,
    "address_3": null,
    "city": "Keene",
    "state_province": "New Hampshire",
    "postal_code": "03431-3736",
    "country": "United States",
    "longitude": -72.27818311,
    "latitude": 42.93427008,
    "phone": "6033527695",
    "website_url": "http://modestmanbrewing.com/",
    "state": "New Hampshire",
    "street": "100 Main St"
  },
  {
    "id": "da2e1ebe-3db9-4d34-8db5-70e12becbd60",
    "name": "Modicum Brewing",
    "brewery_type": "micro",
    "address_1": "3732 Spooner Ave Ste A",
    "address_2": null,
    "address_3": null,
    "city": "Altoona",
    "state_province": "Wisconsin",
    "postal_code": "54720-1097",
    "country": "United States",
    "longitude": null,
    "latitude": null,
    "phone": "7158958585",
    "website_url": "http://www.modicumbrewing.com",
    "state": "Wisconsin",
    "street": "3732 Spooner Ave Ste A"
  },
  {
    "id": "f5d9e0de-18c9-4763-aef9-36d71d6b1bce",
    "name": "Modist Brewing Company",
    "brewery_type": "micro",
    "address_1": "505 N 3rd St",
    "address_2": null,
    "address_3": null,
    "city": "Minneapolis",
    "state_province": "Minnesota",
    "postal_code": "55401-1201",
    "country": "United States",
    "longitude": -93.2708126,
    "latitude": 44.9816901,
    "phone": "6124540258",
    "website_url": "http://www.modistbrewing.com",
    "state": "Minnesota",
    "street": "505 N 3rd St"
  },
  {
    "id": "bbd537a3-ccad-4284-88a1-914527d8ed6e",
    "name": "Moeller Brew Barn",
    "brewery_type": "micro",
    "address_1": "8016 Marion Dr",
    "address_2": null,
    "address_3": null,
    "city": "Maria Stein",
    "state_province": "Ohio",
    "postal_code": "45860-8706",
    "country": "United States",
    "longitude": -84.49312675,
    "latitude": 40.42144783,
    "phone": "4199253005",
    "website_url": "http://www.moellerbrewbarn.com",
    "state": "Ohio",
    "street": "8016 Marion Dr"
  },
  {
    "id": "916efcdf-12c7-4c76-9a22-1312ad526e34",
    "name": "Moerlein Lager House",
    "brewery_type": "brewpub",
    "address_1": "115 Joe Nuxhall Way",
    "address_2": null,
    "address_3": null,
    "city": "Cincinnati",
    "state_province": "Ohio",
    "postal_code": "45202-4143",
    "country": "United States",
    "longitude": -84.50871677,
    "latitude": 39.09630095,
    "phone": "5134212337",
    "website_url": "http://www.moerleinlagerhouse.com",
    "state": "Ohio",
    "street": "115 Joe Nuxhall Way"
  },
  {
    "id": "87ed7ff9-556b-4b20-aa67-282b4db14fd6",
    "name": "Mohegan Cafe and Brewery",
    "brewery_type": "brewpub",
    "address_1": "213 Water St",
    "address_2": null,
    "address_3": null,
    "city": "Block Island",
    "state_province": "Rhode Island",
    "postal_code": "02807",
    "country": "United States",
    "longitude": -69.32038438,
    "latitude": 43.7594709,
    "phone": "4014665911",
    "website_url": "https://monheganbrewing.com",
    "state": "Rhode Island",
    "street": "213 Water St"
  },
  {
    "id": "a1eaf419-9ea7-4962-bc8a-bd958d2474a0",
    "name": "Moksa Brewing Co",
    "brewery_type": "micro",
    "address_1": "5860 Pacific St",
    "address_2": null,
    "address_3": null,
    "city": "Rocklin",
    "state_province": "California",
    "postal_code": "95677-3738",
    "country": "United States",
    "longitude": -121.2418299,
    "latitude": 38.78184183,
    "phone": "9168241366",
    "website_url": "http://www.moksabrewing.com",
    "state": "California",
    "street": "5860 Pacific St"
  },
  {
    "id": "72e9790d-9d53-4cfd-84a4-9e856ba4f8f2",
    "name": "Moksha Beer",
    "brewery_type": "contract",
    "address_1": null,
    "address_2": null,
    "address_3": null,
    "city": "San Jose",
    "state_province": "California",
    "postal_code": "95154-0279",
    "country": "United States",
    "longitude": -121.8905833,
    "latitude": 37.3361905,
    "phone": "4157295796",
    "website_url": "http://www.mokshabeer.com",
    "state": "California",
    "street": null
  },
  {
    "id": "40f60211-0a54-4c69-947e-5e88e928e5a4",
    "name": "Mollusk Brewing",
    "brewery_type": "brewpub",
    "address_1": "803 Dexter Ave N",
    "address_2": null,
    "address_3": null,
    "city": "Seattle",
    "state_province": "Washington",
    "postal_code": "98109-4320",
    "country": "United States",
    "longitude": -122.3425442,
    "latitude": 47.6269357,
    "phone": "2064031228",
    "website_url": "http://www.molluskseattle.com",
    "state": "Washington",
    "street": "803 Dexter Ave N"
  },
  {
    "id": "93795384-e211-40b3-aa93-7be4d0c83965",
    "name": "Molly Pitcher Brewing Co",
    "brewery_type": "micro",
    "address_1": "10 E South St",
    "address_2": null,
    "address_3": null,
    "city": "Carlisle",
    "state_province": "Pennsylvania",
    "postal_code": "17013-3426",
    "country": "United States",
    "longitude": -77.1890465,
    "latitude": 40.1982144,
    "phone": "7176090969",
    "website_url": "http://www.mollypitcher.com",
    "state": "Pennsylvania",
    "street": "10 E South St"
  },
  {
    "id": "0877aaf4-72b4-4efa-b354-19560ae7c9f2",
    "name": "MoMac Brewing Company",
    "brewery_type": "micro",
    "address_1": "3228 Academy Ave",
    "address_2": null,
    "address_3": null,
    "city": "Portsmouth",
    "state_province": "Virginia",
    "postal_code": "23703-3203",
    "country": "United States",
    "longitude": -76.39759141,
    "latitude": 36.86257934,
    "phone": "7573839572",
    "website_url": "http://www.momacbrewing.com",
    "state": "Virginia",
    "street": "3228 Academy Ave"
  },
  {
    "id": "a2c6c2f2-7f07-4130-a7e3-19dd8e504134",
    "name": "Momentum Brewhouse",
    "brewery_type": "micro",
    "address_1": "9786 Bonita Beach Rd SE Ste 1",
    "address_2": null,
    "address_3": null,
    "city": "Bonita Springs",
    "state_province": "Florida",
    "postal_code": "34135-4666",
    "country": "United States",
    "longitude": null,
    "latitude": null,
    "phone": "2399499945",
    "website_url": "http://www.momentumbrewhouse.com",
    "state": "Florida",
    "street": "9786 Bonita Beach Rd SE Ste 1"
  },
  {
    "id": "11c1cf1f-22e3-429d-8cfb-ebb84b90b6f9",
    "name": "Monadnock Brewing Company LLC",
    "brewery_type": "closed",
    "address_1": null,
    "address_2": null,
    "address_3": null,
    "city": "Langdon",
    "state_province": "New Hampshire",
    "postal_code": "03602-8604",
    "country": "United States",
    "longitude": null,
    "latitude": null,
    "phone": "6033136317",
    "website_url": "http://www.monadnockbrewing.com",
    "state": "New Hampshire",
    "street": null
  },
  {
    "id": "bb5d13ac-8842-48f3-961a-f57413264a55",
    "name": "Monday Night Brewing",
    "brewery_type": "micro",
    "address_1": "670 Trabert Ave NW",
    "address_2": null,
    "address_3": null,
    "city": "Atlanta",
    "state_province": "Georgia",
    "postal_code": "30318-4230",
    "country": "United States",
    "longitude": -84.40989212,
    "latitude": 33.79480405,
    "phone": "4043527703",
    "website_url": "http://www.mondaynightbrewing.com",
    "state": "Georgia",
    "street": "670 Trabert Ave NW"
  },
  {
    "id": "cddb19b7-b910-48b5-a64f-d3924eaec4e4",
    "name": "Monday Night Brewing - Garage",
    "brewery_type": "micro",
    "address_1": "933 Lee St SW",
    "address_2": null,
    "address_3": null,
    "city": "Atlanta",
    "state_province": "Georgia",
    "postal_code": "30310",
    "country": "United States",
    "longitude": -84.41617724,
    "latitude": 33.72906429,
    "phone": null,
    "website_url": null,
    "state": "Georgia",
    "street": "933 Lee St SW"
  },
  {
    "id": "94e299ad-65d5-422a-a3ec-e26e2354765e",
    "name": "Monhegan Brewing Co.",
    "brewery_type": "micro",
    "address_1": "1 Boody Lane",
    "address_2": null,
    "address_3": null,
    "city": "Monhegan",
    "state_province": "Maine",
    "postal_code": "04852",
    "country": "United States",
    "longitude": -69.320989,
    "latitude": 43.758828,
    "phone": "2079753958",
    "website_url": "http://www.monheganbrewing.com",
    "state": "Maine",
    "street": "1 Boody Lane"
  },
  {
    "id": "62009eb2-a83b-4535-8205-1b5a9ed86aef",
    "name": "Moniker Brewery",
    "brewery_type": "micro",
    "address_1": "432 W Fountain St",
    "address_2": null,
    "address_3": null,
    "city": "Providence",
    "state_province": "Rhode Island",
    "postal_code": "02903-3516",
    "country": "United States",
    "longitude": -71.4239298,
    "latitude": 41.8183971,
    "phone": "4016480150",
    "website_url": "http://www.monikerbrewery.com",
    "state": "Rhode Island",
    "street": "432 W Fountain St"
  },
  {
    "id": "45f21aa8-4f34-49e1-80a2-be7c155ac474",
    "name": "Monk's Ale House",
    "brewery_type": "brewpub",
    "address_1": "420 E 8th St",
    "address_2": null,
    "address_3": null,
    "city": "Sioux Falls",
    "state_province": "South Dakota",
    "postal_code": "57103-7025",
    "country": "United States",
    "longitude": -96.7218594,
    "latitude": 43.5488749,
    "phone": "6053382328",
    "website_url": "http://www.monkshouseofalerepute.com",
    "state": "South Dakota",
    "street": "420 E 8th St"
  },
  {
    "id": "9c9bcbad-da63-4d7d-9729-1f1e7793b65b",
    "name": "Monk's Cellar",
    "brewery_type": "brewpub",
    "address_1": "240 Vernon St",
    "address_2": null,
    "address_3": null,
    "city": "Roseville",
    "state_province": "California",
    "postal_code": "95678-2633",
    "country": "United States",
    "longitude": -121.2833983,
    "latitude": 38.74958737,
    "phone": "9167866665",
    "website_url": "http://monkscellar.com",
    "state": "California",
    "street": "240 Vernon St"
  },
  {
    "id": "7b95f031-e380-4eef-96c1-6c9d2b4f6ae1",
    "name": "Monka Brewing Co",
    "brewery_type": "brewpub",
    "address_1": "17211 15th Ave NE",
    "address_2": null,
    "address_3": null,
    "city": "Shoreline",
    "state_province": "Washington",
    "postal_code": "98155",
    "country": "United States",
    "longitude": -122.3138346,
    "latitude": 47.75506305,
    "phone": null,
    "website_url": "http://www.monkabeer.com",
    "state": "Washington",
    "street": "17211 15th Ave NE"
  },
  {
    "id": "bf0d31c6-6080-478a-9caf-164e6545931d",
    "name": "Monkey Paw Brewing",
    "brewery_type": "micro",
    "address_1": "807 16th St",
    "address_2": null,
    "address_3": null,
    "city": "San Diego",
    "state_province": "California",
    "postal_code": "92101-6610",
    "country": "United States",
    "longitude": -117.149375,
    "latitude": 32.71384441,
    "phone": "6198672226",
    "website_url": "http://www.monkeypawbrewing.com",
    "state": "California",
    "street": "807 16th St"
  },
  {
    "id": "5d486fcd-c217-4540-8cfb-4f3ed6a3c467",
    "name": "Monkey Town Brewing Company",
    "brewery_type": "brewpub",
    "address_1": "287 1st Ave",
    "address_2": null,
    "address_3": null,
    "city": "Dayton",
    "state_province": "Tennessee",
    "postal_code": "37321-1248",
    "country": "United States",
    "longitude": -85.01275238,
    "latitude": 35.49313804,
    "phone": "4237751800",
    "website_url": "http://www.monkeytownbrewing.com",
    "state": "Tennessee",
    "street": "287 1st Ave"
  },
  {
    "id": "f663c1cc-0fca-4d22-9d98-5e36d10e9cb4",
    "name": "Monkey Wrench Brewing Company LLC",
    "brewery_type": "planning",
    "address_1": null,
    "address_2": null,
    "address_3": null,
    "city": "Snellville",
    "state_province": "Georgia",
    "postal_code": "30078-6503",
    "country": "United States",
    "longitude": null,
    "latitude": null,
    "phone": "6785212142",
    "website_url": "http://www.monkeywrenchbrewing.com",
    "state": "Georgia",
    "street": null
  },
  {
    "id": "3f894bab-a549-4431-898b-7408fbdf766d",
    "name": "Monkish Brewing Co",
    "brewery_type": "micro",
    "address_1": "20311 S Western Ave",
    "address_2": null,
    "address_3": null,
    "city": "Torrance",
    "state_province": "California",
    "postal_code": "90501-1504",
    "country": "United States",
    "longitude": -118.3101863,
    "latitude": 33.8465751,
    "phone": "3102952157",
    "website_url": "http://www.monkishbrewing.com",
    "state": "California",
    "street": "20311 S Western Ave"
  },
  {
    "id": "08c0b79e-eca7-4f93-9da7-7af413c7e184",
    "name": "Monkless Belgian Ales",
    "brewery_type": "micro",
    "address_1": "20750 High Desert Ln Suite 107",
    "address_2": null,
    "address_3": null,
    "city": "Bend",
    "state_province": "Oregon",
    "postal_code": "97701",
    "country": "United States",
    "longitude": -121.3179164,
    "latitude": 44.0502063,
    "phone": "5416105492",
    "website_url": "http://www.monkless.com",
    "state": "Oregon",
    "street": "20750 High Desert Ln Suite 107"
  },
  {
    "id": "7db027c1-8845-4f46-ba38-fddfa4b2e4c2",
    "name": "Monks Brew Club",
    "brewery_type": "brewpub",
    "address_1": "57 East Coast Road",
    "address_2": null,
    "address_3": null,
    "city": "Singapore",
    "state_province": "Singapore",
    "postal_code": "428773",
    "country": "Singapore",
    "longitude": 1.3052288634216,
    "latitude": 103.9034599,
    "phone": "+65 8606 5690",
    "website_url": "https://monksbrew.club/",
    "state": "Singapore",
    "street": "57 East Coast Road"
  },
  {
    "id": "01d5e4da-2af7-4046-aa73-5dc4a1d5249f",
    "name": "Monnik Beer Company",
    "brewery_type": "brewpub",
    "address_1": "1036 E Burnett Ave",
    "address_2": null,
    "address_3": null,
    "city": "Louisville",
    "state_province": "Kentucky",
    "postal_code": "40217-1206",
    "country": "United States",
    "longitude": -85.739379,
    "latitude": 38.2225607,
    "phone": "5027426564",
    "website_url": null,
    "state": "Kentucky",
    "street": "1036 E Burnett Ave"
  },
  {
    "id": "adfe0535-71ce-4c68-859d-ffdf7a96883b",
    "name": "Monocacy Brewing Co",
    "brewery_type": "micro",
    "address_1": "1781 N Market St",
    "address_2": null,
    "address_3": null,
    "city": "Frederick",
    "state_province": "Maryland",
    "postal_code": "21701-4305",
    "country": "United States",
    "longitude": -77.3989904,
    "latitude": 39.4403205,
    "phone": "3016310671",
    "website_url": null,
    "state": "Maryland",
    "street": "1781 N Market St"
  },
  {
    "id": "5279fe01-5f9f-41d2-b21d-e0c64d12f682",
    "name": "Monolithic Brewing Company",
    "brewery_type": "micro",
    "address_1": "4915 N 120th St",
    "address_2": null,
    "address_3": null,
    "city": "Omaha",
    "state_province": "Nebraska",
    "postal_code": "68164-2004",
    "country": "United States",
    "longitude": -96.105270415289,
    "latitude": 41.349903236482,
    "phone": "4025024477",
    "website_url": "http://monolithicbrewing.com",
    "state": "Nebraska",
    "street": "4915 N 120th St"
  },
  {
    "id": "0218dd8a-e129-4fef-b2a8-9654d0f58621",
    "name": "Montana Brewing Co",
    "brewery_type": "brewpub",
    "address_1": "113 N Broadway",
    "address_2": null,
    "address_3": null,
    "city": "Billings",
    "state_province": "Montana",
    "postal_code": "59101-2043",
    "country": "United States",
    "longitude": null,
    "latitude": null,
    "phone": "4062529200",
    "website_url": "http://www.montanabrewingcompany.com",
    "state": "Montana",
    "street": "113 N Broadway"
  },
  {
    "id": "e5fbd122-91d8-46bf-8b3a-02b8cd4541ad",
    "name": "Montauk Brewing Co",
    "brewery_type": "micro",
    "address_1": "62 S Erie Ave",
    "address_2": null,
    "address_3": null,
    "city": "Montauk",
    "state_province": "New York",
    "postal_code": "11954-5370",
    "country": "United States",
    "longitude": -71.9440878,
    "latitude": 41.0366959,
    "phone": "6316688471",
    "website_url": "http://www.montaukbrewingco.com",
    "state": "New York",
    "street": "62 S Erie Ave"
  },
  {
    "id": "25f4c3e0-6925-4d69-b79f-3318762466cc",
    "name": "Montavilla Brew Works",
    "brewery_type": "micro",
    "address_1": "7805 SE Stark St",
    "address_2": null,
    "address_3": null,
    "city": "Portland",
    "state_province": "Oregon",
    "postal_code": "97215-2339",
    "country": "United States",
    "longitude": -122.5833557,
    "latitude": 45.5193212,
    "phone": "5039543440",
    "website_url": "http://www.montavillabrew.com",
    "state": "Oregon",
    "street": "7805 SE Stark St"
  },
  {
    "id": "f92345b4-2f02-4cb6-b66f-66c1c460ac2a",
    "name": "Montclair Brewery",
    "brewery_type": "planning",
    "address_1": null,
    "address_2": null,
    "address_3": null,
    "city": "Montclair",
    "state_province": "New Jersey",
    "postal_code": "07042-4038",
    "country": "United States",
    "longitude": null,
    "latitude": null,
    "phone": "9737807513",
    "website_url": "http://www.montclairbrewery.com",
    "state": "New Jersey",
    "street": null
  },
  {
    "id": "716d2b8a-7d4c-413d-8ae3-ec76851eadd8",
    "name": "Monterey Coast Brewing",
    "brewery_type": "brewpub",
    "address_1": "165 Main Street",
    "address_2": null,
    "address_3": null,
    "city": "Salinas",
    "state_province": "California",
    "postal_code": "93901",
    "country": "United States",
    "longitude": -121.6551251,
    "latitude": 36.67613608,
    "phone": "8317582337",
    "website_url": "http://www.montereycoastbrewing.com",
    "state": "California",
    "street": "165 Main Street"
  },
  {
    "id": "fb2cd2d3-8368-455c-97f4-81376d06e4fe",
    "name": "Montgomery Brewing Company",
    "brewery_type": "micro",
    "address_1": "306 2nd St NW",
    "address_2": null,
    "address_3": null,
    "city": "Montgomery",
    "state_province": "Minnesota",
    "postal_code": "56069-1011",
    "country": "United States",
    "longitude": -93.58265606,
    "latitude": 44.44107361,
    "phone": null,
    "website_url": "http://www.montgomerybrewing.com",
    "state": "Minnesota",
    "street": "306 2nd St NW"
  },
  {
    "id": "eb91ff82-129b-4177-82f9-7646a4a1bb33",
    "name": "Montross Brewery",
    "brewery_type": "micro",
    "address_1": "15381 Kings Hwy",
    "address_2": null,
    "address_3": null,
    "city": "Montross",
    "state_province": "Virginia",
    "postal_code": "22520-2746",
    "country": "United States",
    "longitude": -76.83216539,
    "latitude": 38.09269187,
    "phone": "8044527394",
    "website_url": "http://www.montrossbrewery.com",
    "state": "Virginia",
    "street": "15381 Kings Hwy"
  },
  {
    "id": "f5873cbb-e231-4a70-8ed5-0bfd9f2beca5",
    "name": "Montucky Cold Snacks",
    "brewery_type": "contract",
    "address_1": "123 W Lewis St",
    "address_2": null,
    "address_3": null,
    "city": "Livingston",
    "state_province": "Montana",
    "postal_code": "59047-3010",
    "country": "United States",
    "longitude": null,
    "latitude": null,
    "phone": "4068718886",
    "website_url": "http://www.montuckycoldsnacks.com",
    "state": "Montana",
    "street": "123 W Lewis St"
  },
  {
    "id": "578c6794-5cf7-492d-93ea-650309b74025",
    "name": "Monument City Brewing Co",
    "brewery_type": "micro",
    "address_1": "1 N Haven St Ste A",
    "address_2": null,
    "address_3": null,
    "city": "Baltimore",
    "state_province": "Maryland",
    "postal_code": "21224-1614",
    "country": "United States",
    "longitude": null,
    "latitude": null,
    "phone": "4105993008",
    "website_url": "http://www.monumentcitybrewing.com",
    "state": "Maryland",
    "street": "1 N Haven St Ste A"
  },
  {
    "id": "8a895c3b-63fc-4838-981a-627e366fcf2e",
    "name": "Monzula Farm Brewery / Vineyard 22",
    "brewery_type": "micro",
    "address_1": "83800 Monzula Rd",
    "address_2": null,
    "address_3": null,
    "city": "Cadiz",
    "state_province": "Ohio",
    "postal_code": "43907",
    "country": "United States",
    "longitude": null,
    "latitude": null,
    "phone": "7404917000",
    "website_url": "http://www.vineyard22winery.com",
    "state": "Ohio",
    "street": "83800 Monzula Rd"
  },
  {
    "id": "3aa48d79-7a78-493f-ba41-ca790a5aa3b2",
    "name": "Moo-Duck Brewery",
    "brewery_type": "brewpub",
    "address_1": "79 S Wilson Ave",
    "address_2": null,
    "address_3": null,
    "city": "Elizabethtown",
    "state_province": "Pennsylvania",
    "postal_code": "17022-2166",
    "country": "United States",
    "longitude": -76.61161117,
    "latitude": 40.1473526,
    "phone": null,
    "website_url": "http://www.mooduckbrewery.com",
    "state": "Pennsylvania",
    "street": "79 S Wilson Ave"
  },
  {
    "id": "f8b36211-efe3-4174-9de6-9b160719e6d6",
    "name": "Moody Tongue Brewing Company",
    "brewery_type": "micro",
    "address_1": "2136 S Peoria St",
    "address_2": null,
    "address_3": null,
    "city": "Chicago",
    "state_province": "Illinois",
    "postal_code": "60608-4526",
    "country": "United States",
    "longitude": -87.6483419,
    "latitude": 41.8532798,
    "phone": "3126005111",
    "website_url": "http://www.moodytongue.com",
    "state": "Illinois",
    "street": "2136 S Peoria St"
  },
  {
    "id": "d36e2c31-cee2-4199-ad4a-8cdf13cb4e51",
    "name": "Mooloolabar",
    "brewery_type": "bar",
    "address_1": "20 East Coast Road",
    "address_2": null,
    "address_3": null,
    "city": "Singapore",
    "state_province": "Singapore",
    "postal_code": "428747",
    "country": "Singapore",
    "longitude": 1.3043386240433,
    "latitude": 103.9025629,
    "phone": "+65 8500 4488",
    "website_url": null,
    "state": "Singapore",
    "street": "20 East Coast Road"
  },
  {
    "id": "ab554af2-05cd-43cf-865a-2e5442ff8f2a",
    "name": "Moon Hill Brewing Co., Inc.",
    "brewery_type": "brewpub",
    "address_1": "74 Parker St",
    "address_2": null,
    "address_3": null,
    "city": "Gardner",
    "state_province": "Massachusetts",
    "postal_code": "01440-3809",
    "country": "United States",
    "longitude": -71.997003,
    "latitude": 42.57590133,
    "phone": "9786690122",
    "website_url": "http://www.gardnerale.com",
    "state": "Massachusetts",
    "street": "74 Parker St"
  }
]