[
  {
    "id": "a817db45-c5c8-4b51-981d-e68a2795114f",
    "name": "Long Brewing LLC",
    "brewery_type": "micro",
    "address_1": "29380 NE Owls Ln",
    "address_2": null,
    "address_3": null,
    "city": "Newberg",
    "state_province": "Oregon",
    "postal_code": "97132-7217",
    "country": "United States",
    "longitude": -122.9354492,
    "latitude": 45.3262403,
    "phone": "5033498341",
    "website_url": "http://www.longbrewing.com",
    "state": "Oregon",
    "street": "29380 NE Owls Ln"
  },
  {
    "id": "2562ab61-f1f6-4fb2-bb84-896ea3eb3fbe",
    "name": "Long Ireland Brewing Co",
    "brewery_type": "micro",
    "address_1": "817 Pulaski St",
    "address_2": null,
    "address_3": null,
    "city": "Riverhead",
    "state_province": "New York",
    "postal_code": "11901-3039",
    "country": "United States",
    "longitude": -72.67411924,
    "latitude": 40.9199771,
    "phone": "6314034303",
    "website_url": null,
    "state": "New York",
    "street": "817 Pulaski St"
  },
  {
    "id": "47e1f46b-e172-4f32-882b-c7bdf619fffb",
    "name": "Long Live Beerworks",
    "brewery_type": "micro",
    "address_1": "40R Sprague St",
    "address_2": null,
    "address_3": null,
    "city": "Providence",
    "state_province": "Rhode Island",
    "postal_code": "02907-2578",
    "country": "United States",
    "longitude": -71.4260511,
    "latitude": 41.8093019,
    "phone": null,
    "website_url": "http://www.longlivebeerworks.com",
    "state": "Rhode Island",
    "street": "40R Sprague St"
  },
  {
    "id": "b7f2343d-7a88-4085-b2a2-9f66f7806d1b",
    "name": "Long Lot Farm Brewery",
    "brewery_type": "micro",
    "address_1": "153 Johnson Rd",
    "address_2": null,
    "address_3": null,
    "city": "Chester",
    "state_province": "New York",
    "postal_code": "10918",
    "country": "United States",
    "longitude": null,
    "latitude": null,
    "phone": "8453372940",
    "website_url": "http://www.longlotfarmbrewery.com",
    "state": "New York",
    "street": "153 Johnson Rd"
  },
  {
    "id": "fd13429b-1eee-45ae-818a-bd54b099f845",
    "name": "Long Table Brewing",
    "brewery_type": "micro",
    "address_1": "2895 Fairfax St",
    "address_2": null,
    "address_3": null,
    "city": "Denver",
    "state_province": "Colorado",
    "postal_code": "80207-2748",
    "country": "United States",
    "longitude": -104.928343,
    "latitude": 39.75818024,
    "phone": null,
    "website_url": null,
    "state": "Colorado",
    "street": "2895 Fairfax St"
  },
  {
    "id": "95fc1431-cef6-4551-b221-cc6fa0fedba4",
    "name": "Long Trail Brewing Co",
    "brewery_type": "regional",
    "address_1": "5520 US Route 4 Jct. Route 4 & 100A",
    "address_2": null,
    "address_3": null,
    "city": "Bridgewater Corners",
    "state_province": "Vermont",
    "postal_code": "05035",
    "country": "United States",
    "longitude": null,
    "latitude": null,
    "phone": "8026725011",
    "website_url": "http://www.longtrail.com",
    "state": "Vermont",
    "street": "5520 US Route 4 Jct. Route 4 & 100A"
  },
  {
    "id": "d49a21ea-2506-4bed-b997-531ebe34cb48",
    "name": "Long Valley Pub and Brewery",
    "brewery_type": "brewpub",
    "address_1": "1 Fairmount Rd",
    "address_2": null,
    "address_3": null,
    "city": "Long Valley",
    "state_province": "New Jersey",
    "postal_code": "07853",
    "country": "United States",
    "longitude": -74.780486,
    "latitude": 40.783908,
    "phone": "9088761122",
    "website_url": null,
    "state": "New Jersey",
    "street": "1 Fairmount Rd"
  },
  {
    "id": "d3b2774a-1d25-40a3-ba24-1bcecab3681e",
    "name": "Long Way Brewing",
    "brewery_type": "planning",
    "address_1": null,
    "address_2": null,
    "address_3": null,
    "city": "Radford",
    "state_province": "Virginia",
    "postal_code": "24141-1403",
    "country": "United States",
    "longitude": null,
    "latitude": null,
    "phone": null,
    "website_url": null,
    "state": "Virginia",
    "street": null
  },
  {
    "id": "fea6b287-57d9-4f14-8eb7-0b7b0813b2b2",
    "name": "Long Wooden Spoon Brewing",
    "brewery_type": "micro",
    "address_1": "4098 Business Park Dr",
    "address_2": null,
    "address_3": null,
    "city": "Amarillo",
    "state_province": "Texas",
    "postal_code": "79110-4233",
    "country": "United States",
    "longitude": -101.8832826,
    "latitude": 35.14284054,
    "phone": "8065530397",
    "website_url": "http://www.lwsbrewing.com",
    "state": "Texas",
    "street": "4098 Business Park Dr"
  },
  {
    "id": "20a3789b-132b-46ab-9333-76e40f489dd9",
    "name": "Longship Brewery",
    "brewery_type": "closed",
    "address_1": "10320 Camino Santa Fe Ste C",
    "address_2": null,
    "address_3": null,
    "city": "San Diego",
    "state_province": "California",
    "postal_code": "92121-3103",
    "country": "United States",
    "longitude": -117.1714305,
    "latitude": 32.90417278,
    "phone": "8582467875",
    "website_url": "http://www.LongshipBrewery.com",
    "state": "California",
    "street": "10320 Camino Santa Fe Ste C"
  },
  {
    "id": "3375a6e0-d081-4996-aa54-f8416ed7b76b",
    "name": "Longtab Brewing Company LLC",
    "brewery_type": "micro",
    "address_1": "4700 Timco W Suite 105",
    "address_2": null,
    "address_3": null,
    "city": "San Antonio",
    "state_province": "Texas",
    "postal_code": "78238-1920",
    "country": "United States",
    "longitude": -98.5972829,
    "latitude": 29.4783203,
    "phone": "2106024561",
    "website_url": "http://www.longtabbrewing.com",
    "state": "Texas",
    "street": "4700 Timco W Suite 105"
  },
  {
    "id": "f58ed632-1a57-4ffc-b2b1-d6a2374bc3a9",
    "name": "Look Long Brewing Company",
    "brewery_type": "micro",
    "address_1": "6550 N Interstate Ave",
    "address_2": null,
    "address_3": null,
    "city": "Portland",
    "state_province": "Oregon",
    "postal_code": "97217-4836",
    "country": "United States",
    "longitude": -122.6818062,
    "latitude": 45.57066185,
    "phone": "5032860343",
    "website_url": "http://www.looklongbrewingcompany.com",
    "state": "Oregon",
    "street": "6550 N Interstate Ave"
  },
  {
    "id": "ae2c76cc-3dd1-4e80-8b90-ebaa1bedec19",
    "name": "Looking Glass Brewing Company",
    "brewery_type": "brewpub",
    "address_1": "115 N Bridge St",
    "address_2": null,
    "address_3": null,
    "city": "Dewitt",
    "state_province": "Michigan",
    "postal_code": "48820-8901",
    "country": "United States",
    "longitude": -84.56922371,
    "latitude": 42.84243629,
    "phone": "5175827287",
    "website_url": "http://www.facebook.com/DeWittBreweryProject/",
    "state": "Michigan",
    "street": "115 N Bridge St"
  },
  {
    "id": "8d9a114b-9303-4544-9d96-7b8f218138f3",
    "name": "Lookingglass Brewery",
    "brewery_type": "micro",
    "address_1": "192 SE Main St",
    "address_2": null,
    "address_3": null,
    "city": "Winston",
    "state_province": "Oregon",
    "postal_code": "97496",
    "country": "United States",
    "longitude": -123.4131843,
    "latitude": 43.12022681,
    "phone": "5413788565",
    "website_url": "http://www.lookingglassbrewery.com",
    "state": "Oregon",
    "street": "192 SE Main St"
  },
  {
    "id": "8171a9b9-6476-4cb2-867c-1b25547c6360",
    "name": "Lookout Brewing Company",
    "brewery_type": "micro",
    "address_1": "103 S Ridgeway Ave",
    "address_2": null,
    "address_3": null,
    "city": "Black Mountain",
    "state_province": "North Carolina",
    "postal_code": "28711-3550",
    "country": "United States",
    "longitude": -82.31794593,
    "latitude": 35.619217,
    "phone": "8283575169",
    "website_url": "http://www.lookoutbrewing.com",
    "state": "North Carolina",
    "street": "103 S Ridgeway Ave"
  },
  {
    "id": "e7c13236-3cde-47c5-83e1-1698ce94e45e",
    "name": "Lookout Farm Brewing And Cider Co",
    "brewery_type": "micro",
    "address_1": "89 Pleasant St",
    "address_2": null,
    "address_3": null,
    "city": "Natick",
    "state_province": "Massachusetts",
    "postal_code": "01760-5669",
    "country": "United States",
    "longitude": -71.37096888,
    "latitude": 42.32235516,
    "phone": "5086511539",
    "website_url": "http://www.lookoutfarmbrewing.com",
    "state": "Massachusetts",
    "street": "89 Pleasant St"
  },
  {
    "id": "e6d58efd-749d-49f2-8430-71c834546227",
    "name": "Loomis Basin Brewing Co",
    "brewery_type": "micro",
    "address_1": "3277 Swetzer Rd",
    "address_2": null,
    "address_3": null,
    "city": "Loomis",
    "state_province": "California",
    "postal_code": "95650-7607",
    "country": "United States",
    "longitude": -121.1916448,
    "latitude": 38.83182018,
    "phone": "9162592739",
    "website_url": "http://www.loomisbasinbrewing.com",
    "state": "California",
    "street": "3277 Swetzer Rd"
  },
  {
    "id": "c652d2e4-4b4f-4e71-8aa7-806b68fa63ea",
    "name": "Loony's Brew",
    "brewery_type": "brewpub",
    "address_1": "3481 Main St",
    "address_2": null,
    "address_3": null,
    "city": "Ranier",
    "state_province": "Minnesota",
    "postal_code": "56668",
    "country": "United States",
    "longitude": -93.3474314,
    "latitude": 48.6152185,
    "phone": "2185401001",
    "website_url": "http://www.loonysbrew.com",
    "state": "Minnesota",
    "street": "3481 Main St"
  },
  {
    "id": "974f363a-db6a-47c7-bc83-da51bd13ddd3",
    "name": "Loop Brewing Co",
    "brewery_type": "brewpub",
    "address_1": "404 W A St",
    "address_2": null,
    "address_3": null,
    "city": "Mc Cook",
    "state_province": "Nebraska",
    "postal_code": "69001-3516",
    "country": "United States",
    "longitude": -100.6305293,
    "latitude": 40.1976921,
    "phone": "3083455198",
    "website_url": "http://www.loopbrewingcompany.com",
    "state": "Nebraska",
    "street": "404 W A St"
  },
  {
    "id": "90b0b966-bd3e-4c8d-b0b2-4d4c6c4355ca",
    "name": "Loose Ends Brewing Company",
    "brewery_type": "planning",
    "address_1": null,
    "address_2": null,
    "address_3": null,
    "city": "Knoxville",
    "state_province": "Tennessee",
    "postal_code": "37938-2162",
    "country": "United States",
    "longitude": null,
    "latitude": null,
    "phone": "9372860803",
    "website_url": null,
    "state": "Tennessee",
    "street": null
  },
  {
    "id": "7c56b27e-c6d8-4f39-844d-c663d31ab159",
    "name": "Loose Rail Brewing",
    "brewery_type": "micro",
    "address_1": "37 W Waterloo St",
    "address_2": null,
    "address_3": null,
    "city": "Canal Winchester",
    "state_province": "Ohio",
    "postal_code": "43110-1140",
    "country": "United States",
    "longitude": -82.8069082,
    "latitude": 39.84329,
    "phone": "6143216634",
    "website_url": "http://www.looserailbrewing.com",
    "state": "Ohio",
    "street": "37 W Waterloo St"
  },
  {
    "id": "a2001859-1c36-41d8-b849-c9c0878d11a8",
    "name": "Loose Screw Beer Co.",
    "brewery_type": "micro",
    "address_1": "1511 W McMillan Rd",
    "address_2": null,
    "address_3": null,
    "city": "Meridian",
    "state_province": "Idaho",
    "postal_code": "83646-5172",
    "country": "United States",
    "longitude": -116.4125959,
    "latitude": 43.6479858,
    "phone": "2086173078",
    "website_url": "https://www.loosescrew.beer",
    "state": "Idaho",
    "street": "1511 W McMillan Rd"
  },
  {
    "id": "9d809d42-f8f8-4521-a9ee-12771ea4f2b3",
    "name": "Loose Shoe Brewing Company, LLC",
    "brewery_type": "micro",
    "address_1": "198 Ambriar Plz",
    "address_2": null,
    "address_3": null,
    "city": "Amherst",
    "state_province": "Virginia",
    "postal_code": "24521-",
    "country": "United States",
    "longitude": null,
    "latitude": null,
    "phone": "434946",
    "website_url": "http://www.looseshoebrewing.com",
    "state": "Virginia",
    "street": "198 Ambriar Plz"
  },
  {
    "id": "09f3571c-2b2a-4ce0-9ab4-a65ff80ad968",
    "name": "Loowit Brewing",
    "brewery_type": "micro",
    "address_1": "507 Columbia St",
    "address_2": null,
    "address_3": null,
    "city": "Vancouver",
    "state_province": "Washington",
    "postal_code": "98660-3194",
    "country": "United States",
    "longitude": -122.6734331,
    "latitude": 45.6251071,
    "phone": "3605662323",
    "website_url": "http://www.loowitbrewing.com",
    "state": "Washington",
    "street": "507 Columbia St"
  },
  {
    "id": "0c3816c3-3b00-49af-bff5-67dac5faa3b1",
    "name": "Lopez Island Brewing Co",
    "brewery_type": "closed",
    "address_1": "4817 Center Rd",
    "address_2": null,
    "address_3": null,
    "city": "Lopez Island",
    "state_province": "Washington",
    "postal_code": "98261-8653",
    "country": "United States",
    "longitude": null,
    "latitude": null,
    "phone": "3604682646",
    "website_url": "http://www.lopezislandbrewingco.rocks",
    "state": "Washington",
    "street": "4817 Center Rd"
  },
  {
    "id": "8f160bf6-649a-4365-8703-372aed64eca3",
    "name": "Lord Hobo Brewing Co",
    "brewery_type": "regional",
    "address_1": "5 Draper St",
    "address_2": null,
    "address_3": null,
    "city": "Woburn",
    "state_province": "Massachusetts",
    "postal_code": "01801-4521",
    "country": "United States",
    "longitude": -71.12892319,
    "latitude": 42.47603755,
    "phone": "7812810809",
    "website_url": "http://lordhobobrewing.com",
    "state": "Massachusetts",
    "street": "5 Draper St"
  },
  {
    "id": "f026c03d-a77b-4af5-8b86-37ac7c7a6f65",
    "name": "Lorelei Brewing Co",
    "brewery_type": "micro",
    "address_1": "520 N A. S Dr",
    "address_2": null,
    "address_3": null,
    "city": "Corpus Christi",
    "state_province": "Texas",
    "postal_code": "78418-3254",
    "country": "United States",
    "longitude": null,
    "latitude": null,
    "phone": "3614458684",
    "website_url": "http://www.loreleibrewing.beer",
    "state": "Texas",
    "street": "520 N A. S Dr"
  },
  {
    "id": "c757354b-e5a2-403f-9e90-b8f8fc5ab229",
    "name": "Los Angeles Ale Works",
    "brewery_type": "micro",
    "address_1": "12918 Cerise Ave",
    "address_2": null,
    "address_3": null,
    "city": "Hawthorne",
    "state_province": "California",
    "postal_code": "90250-5521",
    "country": "United States",
    "longitude": -118.3322768,
    "latitude": 33.9149155,
    "phone": "4244564191",
    "website_url": "http://www.laaleworks.com",
    "state": "California",
    "street": "12918 Cerise Ave"
  },
  {
    "id": "8024ef15-27bc-41ca-be9c-c975983505f6",
    "name": "Lost 40 brewing",
    "brewery_type": "micro",
    "address_1": "510 McLean St",
    "address_2": null,
    "address_3": null,
    "city": "Little Rock",
    "state_province": "Arkansas",
    "postal_code": "72202-2660",
    "country": "United States",
    "longitude": -92.25901,
    "latitude": 34.74268558,
    "phone": "5015545557",
    "website_url": null,
    "state": "Arkansas",
    "street": "510 McLean St"
  },
  {
    "id": "3a2613dd-86a8-4457-b400-a23f5c10b314",
    "name": "Lost Cabin Beer Co.",
    "brewery_type": "micro",
    "address_1": "1401 W Omaha St Ste 3",
    "address_2": null,
    "address_3": null,
    "city": "Rapid City",
    "state_province": "South Dakota",
    "postal_code": "57701-3163",
    "country": "United States",
    "longitude": -103.2422229,
    "latitude": 44.08401961,
    "phone": "6057185678",
    "website_url": "http://www.lostcabin.beer",
    "state": "South Dakota",
    "street": "1401 W Omaha St Ste 3"
  },
  {
    "id": "b4a0f525-fac9-48ce-a7c3-86e84327fca6",
    "name": "Lost Canoe Brewing Co",
    "brewery_type": "closed",
    "address_1": "1208 10th St",
    "address_2": null,
    "address_3": null,
    "city": "Snohomish",
    "state_province": "Washington",
    "postal_code": "98290-2099",
    "country": "United States",
    "longitude": -122.096622,
    "latitude": 47.9241142,
    "phone": "3605683984",
    "website_url": "http://www.facebook.com/lostcanoebrew",
    "state": "Washington",
    "street": "1208 10th St"
  },
  {
    "id": "e9b37d23-bbe6-4de9-90bf-1ac534f034f5",
    "name": "Lost Coast Brew House",
    "brewery_type": "brewpub",
    "address_1": "1600 Sunset Dr",
    "address_2": null,
    "address_3": null,
    "city": "Eureka",
    "state_province": "California",
    "postal_code": "95503-2401",
    "country": "United States",
    "longitude": -124.1892492,
    "latitude": 40.76719226,
    "phone": "7074454484",
    "website_url": "http://www.lostcoast.com",
    "state": "California",
    "street": "1600 Sunset Dr"
  },
  {
    "id": "f811f1bc-0d7c-4a83-bb70-e4b44eacdc8e",
    "name": "Lost Coast Brewery and Cafe - Table Bluff Brewing, Inc.",
    "brewery_type": "regional",
    "address_1": "617 4th St",
    "address_2": null,
    "address_3": null,
    "city": "Eureka",
    "state_province": "California",
    "postal_code": "95501-1013",
    "country": "United States",
    "longitude": -124.1648141,
    "latitude": 40.80302047,
    "phone": "7074454480",
    "website_url": "http://www.lostcoast.com",
    "state": "California",
    "street": "617 4th St"
  },
  {
    "id": "c4ca2446-26fe-453c-a7c2-9aa6a63f8ace",
    "name": "Lost Colony Brewery and Cafe",
    "brewery_type": "brewpub",
    "address_1": "208 Queen Elizabeth Ave",
    "address_2": null,
    "address_3": null,
    "city": "Manteo",
    "state_province": "North Carolina",
    "postal_code": "27954-",
    "country": "United States",
    "longitude": -75.66954474,
    "latitude": 35.90949405,
    "phone": "2524736666",
    "website_url": "http://www.lostcolonybrewery.com",
    "state": "North Carolina",
    "street": "208 Queen Elizabeth Ave"
  },
  {
    "id": "117409f8-4d91-404d-a9b7-0c96e4119250",
    "name": "Lost Cowboy Brewing Company",
    "brewery_type": "brewpub",
    "address_1": "546 Amherst St",
    "address_2": null,
    "address_3": null,
    "city": "Nashua",
    "state_province": "New Hampshire",
    "postal_code": "03063",
    "country": "United States",
    "longitude": null,
    "latitude": null,
    "phone": "6036006800",
    "website_url": "https://www.lostcowboybrewing.com/",
    "state": "New Hampshire",
    "street": "546 Amherst St"
  },
  {
    "id": "348fb7b9-8901-4bf3-a9da-09ca2904ed24",
    "name": "Lost Duck Brewing Co.",
    "brewery_type": "brewpub",
    "address_1": "723 Avenue H # 725",
    "address_2": null,
    "address_3": null,
    "city": "Fort Madison",
    "state_province": "Iowa",
    "postal_code": "52627-2935",
    "country": "United States",
    "longitude": -91.31026009,
    "latitude": 40.63007017,
    "phone": "3193728255",
    "website_url": "http://www.duckbrewing.com",
    "state": "Iowa",
    "street": "723 Avenue H # 725"
  },
  {
    "id": "a901b6b3-3648-4c04-b727-1c6c7f08dd0b",
    "name": "Lost Elm Artisanal Ales",
    "brewery_type": "closed",
    "address_1": "25 West St Unit 4",
    "address_2": null,
    "address_3": null,
    "city": "Stafford Springs",
    "state_province": "Connecticut",
    "postal_code": "06076-1325",
    "country": "United States",
    "longitude": null,
    "latitude": null,
    "phone": null,
    "website_url": "http://www.lostelmbeer.com",
    "state": "Connecticut",
    "street": "25 West St Unit 4"
  },
  {
    "id": "ea5ebe24-30ce-4eac-882a-cdf8d064251d",
    "name": "Lost Forty Brewing",
    "brewery_type": "micro",
    "address_1": "501 Byrd St",
    "address_2": null,
    "address_3": null,
    "city": "Little Rock",
    "state_province": "Arkansas",
    "postal_code": "72202",
    "country": "United States",
    "longitude": -92.260019,
    "latitude": 34.742845,
    "phone": "5013197275",
    "website_url": "http://www.lost40brewing.com/",
    "state": "Arkansas",
    "street": "501 Byrd St"
  },
  {
    "id": "5c96e81b-09a3-467b-9257-cd6faacc6aae",
    "name": "Lost Friend Brewing Company",
    "brewery_type": "micro",
    "address_1": "2458 Montebello Square Dr",
    "address_2": null,
    "address_3": null,
    "city": "Colorado Springs",
    "state_province": "Colorado",
    "postal_code": "80918-1974",
    "country": "United States",
    "longitude": -104.7823626,
    "latitude": 38.9082661,
    "phone": null,
    "website_url": "http://www.lostfriendbrewing.com",
    "state": "Colorado",
    "street": "2458 Montebello Square Dr"
  },
  {
    "id": "68e53fe7-b140-4e33-94fe-11adb6996e75",
    "name": "Lost Grove Brewing",
    "brewery_type": "micro",
    "address_1": "1026 S La Pointe St",
    "address_2": null,
    "address_3": null,
    "city": "Boise",
    "state_province": "Idaho",
    "postal_code": "83706-2827",
    "country": "United States",
    "longitude": -116.2128426,
    "latitude": 43.608212,
    "phone": "2082862258",
    "website_url": "http://www.lostgrovebrewing.com",
    "state": "Idaho",
    "street": "1026 S La Pointe St"
  },
  {
    "id": "d9e48256-6286-472e-bb9c-5cb1d8ecc202",
    "name": "Lost Highway Brewing",
    "brewery_type": "micro",
    "address_1": "12741 E Caley Ave Ste 140",
    "address_2": null,
    "address_3": null,
    "city": "Centennial",
    "state_province": "Colorado",
    "postal_code": "80111-6407",
    "country": "United States",
    "longitude": null,
    "latitude": null,
    "phone": null,
    "website_url": "http://www.losthighwaybrewing.com",
    "state": "Colorado",
    "street": "12741 E Caley Ave Ste 140"
  },
  {
    "id": "667d2685-1595-4d34-b636-d3768a7b6d7d",
    "name": "Lost Hiker Brewing Company",
    "brewery_type": "micro",
    "address_1": "26394 E Hwy 70 Unit 6",
    "address_2": null,
    "address_3": null,
    "city": "Ruidoso Downs",
    "state_province": "New Mexico",
    "postal_code": "88346",
    "country": "United States",
    "longitude": null,
    "latitude": null,
    "phone": "5128257521",
    "website_url": "http://www.losthikerbrewing.com",
    "state": "New Mexico",
    "street": "26394 E Hwy 70 Unit 6"
  },
  {
    "id": "05c41a35-c10b-4275-8eba-ac12ab5c313a",
    "name": "Lost Kingdom Brewery / Firehouse Distillery",
    "brewery_type": "micro",
    "address_1": "7160 Main St",
    "address_2": null,
    "address_3": null,
    "city": "Ovid",
    "state_province": "New York",
    "postal_code": "14521-9401",
    "country": "United States",
    "longitude": -76.82281329,
    "latitude": 42.67724221,
    "phone": "6074034020",
    "website_url": "http://www.firehousedistillery.net",
    "state": "New York",
    "street": "7160 Main St"
  },
  {
    "id": "e26dc654-64c9-4d6e-a139-95a7b009d0ee",
    "name": "Lost Nation Brewing",
    "brewery_type": "brewpub",
    "address_1": "87 Old Creamery Rd",
    "address_2": null,
    "address_3": null,
    "city": "Morrisville",
    "state_province": "Vermont",
    "postal_code": "05661-6152",
    "country": "United States",
    "longitude": null,
    "latitude": null,
    "phone": null,
    "website_url": "http://www.lostnationbrewing.com",
    "state": "Vermont",
    "street": "87 Old Creamery Rd"
  },
  {
    "id": "8dffaa96-db92-45c9-a0d7-3cd2b8686f42",
    "name": "Lost Province Brewing Company, LLC",
    "brewery_type": "brewpub",
    "address_1": "130 N. Depot Street PO Box 614",
    "address_2": null,
    "address_3": null,
    "city": "Boone",
    "state_province": "North Carolina",
    "postal_code": "28607-3603",
    "country": "United States",
    "longitude": null,
    "latitude": null,
    "phone": "8282653506",
    "website_url": "http://www.lostprovince.com",
    "state": "North Carolina",
    "street": "130 N. Depot Street PO Box 614"
  },
  {
    "id": "0725fd86-c6e4-49b2-9aab-df4a02c2e593",
    "name": "Lost Rhino Brewing Co",
    "brewery_type": "micro",
    "address_1": "21730 Red Rum Dr Ste 142",
    "address_2": null,
    "address_3": null,
    "city": "Ashburn",
    "state_province": "Virginia",
    "postal_code": "20147-5870",
    "country": "United States",
    "longitude": -77.47673436,
    "latitude": 39.01564409,
    "phone": "5712912083",
    "website_url": "http://www.lostrhino.com",
    "state": "Virginia",
    "street": "21730 Red Rum Dr Ste 142"
  },
  {
    "id": "a89dffd1-be0c-42d0-802f-c8d942e5df50",
    "name": "Lost Shirt Brewing Company",
    "brewery_type": "micro",
    "address_1": "7025 Industrial Rd Unit B",
    "address_2": null,
    "address_3": null,
    "city": "West Melbourne",
    "state_province": "Florida",
    "postal_code": "32904-1616",
    "country": "United States",
    "longitude": null,
    "latitude": null,
    "phone": "13214994323",
    "website_url": "http://lostshirtbrewingco@gmail.com",
    "state": "Florida",
    "street": "7025 Industrial Rd Unit B"
  },
  {
    "id": "692a06a1-3923-4b48-9bd8-cdb9c87ef848",
    "name": "Lost Signal Brewing Company",
    "brewery_type": "brewpub",
    "address_1": "610 W College St",
    "address_2": null,
    "address_3": null,
    "city": "Springfield",
    "state_province": "Missouri",
    "postal_code": "65806-1240",
    "country": "United States",
    "longitude": -93.2974611,
    "latitude": 37.2085049,
    "phone": "9723104162",
    "website_url": "http://www.lostsignalbrewing.com",
    "state": "Missouri",
    "street": "610 W College St"
  },
  {
    "id": "a8527951-694e-41c9-9220-1be979f834f7",
    "name": "Lost Tavern Brewing",
    "brewery_type": "micro",
    "address_1": "782 Main St",
    "address_2": null,
    "address_3": null,
    "city": "Hellertown",
    "state_province": "Pennsylvania",
    "postal_code": "18055-1540",
    "country": "United States",
    "longitude": -75.3411606,
    "latitude": 40.5809687,
    "phone": "4848513980",
    "website_url": "http://www.losttavernbrewing.com",
    "state": "Pennsylvania",
    "street": "782 Main St"
  },
  {
    "id": "db5a667c-b8b3-4477-a482-43fa0dd3086b",
    "name": "Lost Valley Brewing Co",
    "brewery_type": "micro",
    "address_1": "200 Lost Valley Rd",
    "address_2": null,
    "address_3": null,
    "city": "Auburn",
    "state_province": "Maine",
    "postal_code": "04210",
    "country": "United States",
    "longitude": -70.280399,
    "latitude": 44.130958,
    "phone": null,
    "website_url": null,
    "state": "Maine",
    "street": "200 Lost Valley Rd"
  }
]