[
  {
    "id": "6fbd1118-ceea-4be9-a784-45dd623f16f0",
    "name": "Alameda Island Brewing Company",
    "brewery_type": "micro",
    "address_1": "1716 Park St",
    "address_2": null,
    "address_3": null,
    "city": "Alameda",
    "state_province": "California",
    "postal_code": "94501-1416",
    "country": "United States",
    "longitude": -122.2394506,
    "latitude": 37.76833631,
    "phone": "5102178885",
    "website_url": "http://www.alamedaislandbrewingcompany.com",
    "state": "California",
    "street": "1716 Park St"
  },
  {
    "id": "edf1c0fb-cce0-44ec-8d98-dd4778e2d533",
    "name": "Alamo Beer Co",
    "brewery_type": "micro",
    "address_1": "415 Burnet St",
    "address_2": null,
    "address_3": null,
    "city": "San Antonio",
    "state_province": "Texas",
    "postal_code": "78202-1909",
    "country": "United States",
    "longitude": -98.4771638,
    "latitude": 29.42902321,
    "phone": "2108725589",
    "website_url": "http://www.alamobeer.com",
    "state": "Texas",
    "street": "415 Burnet St"
  },
  {
    "id": "4f79f427-8214-4048-8636-63cef96b33da",
    "name": "Alarmist Brewing Co",
    "brewery_type": "micro",
    "address_1": "4055 W Peterson Ave Ste REAR",
    "address_2": null,
    "address_3": null,
    "city": "Chicago",
    "state_province": "Illinois",
    "postal_code": "60646-6072",
    "country": "United States",
    "longitude": null,
    "latitude": null,
    "phone": "7739882536",
    "website_url": "http://alarmistbrewing.com",
    "state": "Illinois",
    "street": "4055 W Peterson Ave Ste REAR"
  },
  {
    "id": "aa3c4d60-4fb2-49e2-980c-6a61672d90cb",
    "name": "Alaro Craft Brewery",
    "brewery_type": "brewpub",
    "address_1": "2004 Capitol Ave",
    "address_2": null,
    "address_3": null,
    "city": "Sacramento",
    "state_province": "California",
    "postal_code": "95811",
    "country": "United States",
    "longitude": -121.4811835,
    "latitude": 38.57323961,
    "phone": "9164367711",
    "website_url": "http://www.alarobrewing.com",
    "state": "California",
    "street": "2004 Capitol Ave"
  },
  {
    "id": "d065903f-f9fc-4e4c-a64d-9b69905431b5",
    "name": "Alaskan Brewing Co.",
    "brewery_type": "regional",
    "address_1": "5429 Shaune Dr",
    "address_2": null,
    "address_3": null,
    "city": "Juneau",
    "state_province": "Alaska",
    "postal_code": "99801-9540",
    "country": "United States",
    "longitude": -134.4918763,
    "latitude": 58.35681231,
    "phone": "9077805866",
    "website_url": "http://www.alaskanbeer.com",
    "state": "Alaska",
    "street": "5429 Shaune Dr"
  },
  {
    "id": "d188560a-fd0d-4a44-9e4b-11aab9db8205",
    "name": "Albia Brewing Co",
    "brewery_type": "brewpub",
    "address_1": "11 Benton Ave E",
    "address_2": null,
    "address_3": null,
    "city": "Albia",
    "state_province": "Iowa",
    "postal_code": "52531-2032",
    "country": "United States",
    "longitude": -92.8073711,
    "latitude": 41.02718903,
    "phone": "6419324085",
    "website_url": "http://www.albiabrewingcompany.blogspot.com",
    "state": "Iowa",
    "street": "11 Benton Ave E"
  },
  {
    "id": "4c8a98d1-1012-4814-82a5-20c68b131442",
    "name": "Albion Malleable Brewing Company",
    "brewery_type": "brewpub",
    "address_1": "420 S Superior St",
    "address_2": null,
    "address_3": null,
    "city": "Albion",
    "state_province": "Michigan",
    "postal_code": "49224",
    "country": "United States",
    "longitude": -84.7532755,
    "latitude": 42.2423188,
    "phone": "5173432202",
    "website_url": "http://www.albionmalleable.com",
    "state": "Michigan",
    "street": "420 S Superior St"
  },
  {
    "id": "943f1201-9c0d-4717-95e3-0756a906f527",
    "name": "Albright Grove Brewing Company",
    "brewery_type": "planning",
    "address_1": null,
    "address_2": null,
    "address_3": null,
    "city": "Townsend",
    "state_province": "Tennessee",
    "postal_code": "37882",
    "country": "United States",
    "longitude": null,
    "latitude": null,
    "phone": "8656049898",
    "website_url": null,
    "state": "Tennessee",
    "street": null
  },
  {
    "id": "ec26cd9a-540f-4f23-b030-670115eed645",
    "name": "Alcatraz Brewing",
    "brewery_type": "micro",
    "address_1": "20 Ocean Vista Ln",
    "address_2": null,
    "address_3": null,
    "city": "Palm Coast",
    "state_province": "Florida",
    "postal_code": "32137-2743",
    "country": "United States",
    "longitude": -81.19287028,
    "latitude": 29.61781196,
    "phone": "3866278909",
    "website_url": "http://www.alcatraz.beer",
    "state": "Florida",
    "street": "20 Ocean Vista Ln"
  },
  {
    "id": "b1f7a6c5-a4e0-477b-a380-17f8a0120e2d",
    "name": "Alcazar Brewery, LLC.",
    "brewery_type": "planning",
    "address_1": null,
    "address_2": null,
    "address_3": null,
    "city": "Rio Grande City",
    "state_province": "Texas",
    "postal_code": "78582-4450",
    "country": "United States",
    "longitude": null,
    "latitude": null,
    "phone": null,
    "website_url": null,
    "state": "Texas",
    "street": null
  },
  {
    "id": "091edbcc-f9fc-484e-9c04-c18ed505e2ac",
    "name": "Alchemist Cannery",
    "brewery_type": "regional",
    "address_1": "35 Crossroad",
    "address_2": null,
    "address_3": null,
    "city": "Waterbury",
    "state_province": "Vermont",
    "postal_code": "05676-9003",
    "country": "United States",
    "longitude": null,
    "latitude": null,
    "phone": "8022447744",
    "website_url": "http://www.alchemistbeer.com",
    "state": "Vermont",
    "street": "35 Crossroad"
  },
  {
    "id": "8135f18c-0c31-4b4d-bb22-84eccf498e9c",
    "name": "Aldus Brewing Company",
    "brewery_type": "micro",
    "address_1": "555 Centennial Ave",
    "address_2": null,
    "address_3": null,
    "city": "Hanover",
    "state_province": "Pennsylvania",
    "postal_code": "17331-3936",
    "country": "United States",
    "longitude": -76.98030009,
    "latitude": 39.79422185,
    "phone": "7176342407",
    "website_url": "http://www.aldusbrewing.com",
    "state": "Pennsylvania",
    "street": "555 Centennial Ave"
  },
  {
    "id": "c812aa3f-208b-49e2-a1e6-96cae8943605",
    "name": "Ale Asylum",
    "brewery_type": "regional",
    "address_1": "2002 Pankratz St",
    "address_2": null,
    "address_3": null,
    "city": "Madison",
    "state_province": "Wisconsin",
    "postal_code": "53704-4024",
    "country": "United States",
    "longitude": -89.35416285,
    "latitude": 43.12046815,
    "phone": "6086633926",
    "website_url": "http://www.aleasylum.com",
    "state": "Wisconsin",
    "street": "2002 Pankratz St"
  },
  {
    "id": "e13a5403-3cd7-4dbf-92f1-e48d0f26c750",
    "name": "Ale House Brewing Co",
    "brewery_type": "micro",
    "address_1": null,
    "address_2": null,
    "address_3": null,
    "city": "San Jose",
    "state_province": "California",
    "postal_code": "95118-1605",
    "country": "United States",
    "longitude": -121.8905833,
    "latitude": 37.3361905,
    "phone": "4083907574",
    "website_url": null,
    "state": "California",
    "street": null
  },
  {
    "id": "13f19f47-cac4-44df-b4f3-728e4dcde6c5",
    "name": "Ale Industries",
    "brewery_type": "micro",
    "address_1": "3096 E 10th St",
    "address_2": null,
    "address_3": null,
    "city": "Oakland",
    "state_province": "California",
    "postal_code": "94601-2960",
    "country": "United States",
    "longitude": -122.2281897,
    "latitude": 37.7761111,
    "phone": "9254705280",
    "website_url": "http://www.aleindustries.com",
    "state": "California",
    "street": "3096 E 10th St"
  },
  {
    "id": "148e8fb4-4977-4ba8-8fa6-1133a56198d4",
    "name": "Ale Republic",
    "brewery_type": "micro",
    "address_1": "28 Arroyo Seco",
    "address_2": null,
    "address_3": null,
    "city": "Cedar Crest",
    "state_province": "New Mexico",
    "postal_code": "87008",
    "country": "United States",
    "longitude": null,
    "latitude": null,
    "phone": "5052812828",
    "website_url": "http://www.alerepublic.com",
    "state": "New Mexico",
    "street": "28 Arroyo Seco"
  },
  {
    "id": "797c9175-fb51-44d3-ad4b-d46b42367fdc",
    "name": "Ale Spike",
    "brewery_type": "closed",
    "address_1": "9300 271st St NW Ste B-5",
    "address_2": null,
    "address_3": null,
    "city": "Stanwood",
    "state_province": "Washington",
    "postal_code": "98292",
    "country": "United States",
    "longitude": null,
    "latitude": null,
    "phone": null,
    "website_url": "http://www.alespike.com",
    "state": "Washington",
    "street": "9300 271st St NW Ste B-5"
  },
  {
    "id": "ea06694a-32f8-4026-b22e-aeb880848b4d",
    "name": "Ale Spike Brewery",
    "brewery_type": "micro",
    "address_1": "1244 N Moore Rd Unit I-1",
    "address_2": null,
    "address_3": null,
    "city": "Camano Island",
    "state_province": "Washington",
    "postal_code": "98282",
    "country": "United States",
    "longitude": -122.4381311,
    "latitude": 48.25785496,
    "phone": "3609392434",
    "website_url": "http://www.alespike.com",
    "state": "Washington",
    "street": "1244 N Moore Rd Unit I-1"
  },
  {
    "id": "1170049c-c20d-43c8-9475-0a42599f144c",
    "name": "Aleman Brewing",
    "brewery_type": "micro",
    "address_1": "3304 N Knox Ave",
    "address_2": null,
    "address_3": null,
    "city": "Chicago",
    "state_province": "Illinois",
    "postal_code": "60641-4434",
    "country": "United States",
    "longitude": -87.74301213,
    "latitude": 41.94087994,
    "phone": "8123404198",
    "website_url": "http://www.alemanchicago.com",
    "state": "Illinois",
    "street": "3304 N Knox Ave"
  },
  {
    "id": "f1e3ff3e-078c-46c3-85ae-62f86d3a3a21",
    "name": "Alematic Artisan Ales",
    "brewery_type": "planning",
    "address_1": null,
    "address_2": null,
    "address_3": null,
    "city": "Huber Heights",
    "state_province": "Ohio",
    "postal_code": "45424-3857",
    "country": "United States",
    "longitude": null,
    "latitude": null,
    "phone": "9376122337",
    "website_url": "http://www.alematicbrewing.com",
    "state": "Ohio",
    "street": null
  },
  {
    "id": "31746e2a-3704-458f-8235-437f53d5afe1",
    "name": "Alesatian Brewing Co.",
    "brewery_type": "brewpub",
    "address_1": "21 N Loudoun St",
    "address_2": null,
    "address_3": null,
    "city": "Winchester",
    "state_province": "Virginia",
    "postal_code": "22601-4715",
    "country": "United States",
    "longitude": -78.16559208,
    "latitude": 39.18446446,
    "phone": "5406672743",
    "website_url": "http://www.alesatianbrewing.com",
    "state": "Virginia",
    "street": "21 N Loudoun St"
  },
  {
    "id": "f8097dbc-c8e6-4068-9540-5c4bd4ac0bcf",
    "name": "AleSmith Brewing Co",
    "brewery_type": "regional",
    "address_1": "9990 Alesmith Ct",
    "address_2": null,
    "address_3": null,
    "city": "San Diego",
    "state_province": "California",
    "postal_code": "92126-4200",
    "country": "United States",
    "longitude": -117.1495496,
    "latitude": 32.88858458,
    "phone": "8585499888",
    "website_url": "http://www.alesmith.com",
    "state": "California",
    "street": "9990 Alesmith Ct"
  },
  {
    "id": "40093c50-b89d-443f-9ac7-b24a000d8f48",
    "name": "Alesong Brewing and Blending",
    "brewery_type": "micro",
    "address_1": "1000 Conger St Ste C",
    "address_2": null,
    "address_3": null,
    "city": "Eugene",
    "state_province": "Oregon",
    "postal_code": "97402-2950",
    "country": "United States",
    "longitude": -123.2384193,
    "latitude": 43.85285684,
    "phone": "5419723303",
    "website_url": "http://www.alesongbrewing.com",
    "state": "Oregon",
    "street": "1000 Conger St Ste C"
  },
  {
    "id": "f15f6ebf-0d80-4e6b-ad38-fb0ca9f3d3ed",
    "name": "Alesong Brewing and Tasting Room",
    "brewery_type": "micro",
    "address_1": "1000 Conger Unit C",
    "address_2": null,
    "address_3": null,
    "city": "Eugene",
    "state_province": "Oregon",
    "postal_code": "97402",
    "country": "United States",
    "longitude": -123.2384193,
    "latitude": 43.85285684,
    "phone": "5419723303",
    "website_url": "http://www.alesongbrewing.com",
    "state": "Oregon",
    "street": "1000 Conger Unit C"
  },
  {
    "id": "e4148f94-4ce9-4fd2-9b05-faabdcca2b09",
    "name": "Alewerks Brewing Company",
    "brewery_type": "micro",
    "address_1": "197 Ewell Rd",
    "address_2": null,
    "address_3": null,
    "city": "Williamsburg",
    "state_province": "Virginia",
    "postal_code": "23188-2185",
    "country": "United States",
    "longitude": null,
    "latitude": null,
    "phone": "7572203670",
    "website_url": "http://www.alewerks.com",
    "state": "Virginia",
    "street": "197 Ewell Rd"
  },
  {
    "id": "ed3ea3ae-04d3-4356-ab96-a74514992a50",
    "name": "Alewife Brewing Company",
    "brewery_type": "brewpub",
    "address_1": "514 51st Ave",
    "address_2": null,
    "address_3": null,
    "city": "Long Island City",
    "state_province": "New York",
    "postal_code": "11101-5879",
    "country": "United States",
    "longitude": -73.95625257,
    "latitude": 40.74232214,
    "phone": "7189377494",
    "website_url": "http://www.alewife.beer",
    "state": "New York",
    "street": "514 51st Ave"
  },
  {
    "id": "5860a6e0-1bf6-4334-8797-e5668fc22db0",
    "name": "Alexandria Brewing Company",
    "brewery_type": "micro",
    "address_1": "7926 Alexandria Pike Ste 1",
    "address_2": null,
    "address_3": null,
    "city": "Alexandria",
    "state_province": "Kentucky",
    "postal_code": "41001-1454",
    "country": "United States",
    "longitude": null,
    "latitude": null,
    "phone": "8596946999",
    "website_url": "http://www.alexandriabrewingcompany.com",
    "state": "Kentucky",
    "street": "7926 Alexandria Pike Ste 1"
  },
  {
    "id": "9da0a260-5b85-4490-824a-a397446c17dc",
    "name": "Algarve Rock Brewery",
    "brewery_type": "micro",
    "address_1": "Unidade 2B",
    "address_2": "Parque Vale da Venda",
    "address_3": null,
    "city": "Faro",
    "state_province": "Faro",
    "postal_code": "8005-412",
    "country": "Portugal",
    "longitude": -7.9729562079031,
    "latitude": 37.065600871444,
    "phone": "+ 351 289 815 218",
    "website_url": "https://algarverock.com/",
    "state": "Faro",
    "street": "Unidade 2B"
  },
  {
    "id": "083b7953-133d-453f-ada0-2b3541d1931c",
    "name": "Alibi Ale Works",
    "brewery_type": "micro",
    "address_1": "204 E Enterprise St",
    "address_2": null,
    "address_3": null,
    "city": "Incline Village",
    "state_province": "Nevada",
    "postal_code": "89451-9456",
    "country": "United States",
    "longitude": -119.9537117,
    "latitude": 39.24819328,
    "phone": "7752987001",
    "website_url": "http://www.alibialeworks.com",
    "state": "Nevada",
    "street": "204 E Enterprise St"
  },
  {
    "id": "e1f999c9-3012-41ab-869b-767125e19b7f",
    "name": "Alien Brewpub",
    "brewery_type": "brewpub",
    "address_1": "6601 Uptown Blvd NE Ste B",
    "address_2": null,
    "address_3": null,
    "city": "Albuquerque",
    "state_province": "New Mexico",
    "postal_code": "87110-4207",
    "country": "United States",
    "longitude": null,
    "latitude": null,
    "phone": "5058841116",
    "website_url": "http://www.abqbrewpub.com",
    "state": "New Mexico",
    "street": "6601 Uptown Blvd NE Ste B"
  },
  {
    "id": "68b447a3-c65c-459f-8d02-334757bc6f71",
    "name": "Align Brewing Co",
    "brewery_type": "micro",
    "address_1": "8680 Miralani Dr",
    "address_2": null,
    "address_3": null,
    "city": "San Diego",
    "state_province": "California",
    "postal_code": "92126-6300",
    "country": "United States",
    "longitude": -117.137429,
    "latitude": 32.896584,
    "phone": null,
    "website_url": "http://www.facebook.com/alignbrewing",
    "state": "California",
    "street": "8680 Miralani Dr"
  },
  {
    "id": "108b8592-3098-42a3-b466-5c60e2e626af",
    "name": "All Rise Brewing Co",
    "brewery_type": "brewpub",
    "address_1": "235 N Ashland Ave",
    "address_2": null,
    "address_3": null,
    "city": "Chicago",
    "state_province": "Illinois",
    "postal_code": "60607-1401",
    "country": "United States",
    "longitude": -87.6667328,
    "latitude": 41.8864021,
    "phone": "3122266300",
    "website_url": "http://www.allrisebrewing.com",
    "state": "Illinois",
    "street": "235 N Ashland Ave"
  },
  {
    "id": "61853d49-62af-44bc-b0f7-bbc0faa89d30",
    "name": "All Saints Brewing Co",
    "brewery_type": "micro",
    "address_1": "1602 State Route 119",
    "address_2": null,
    "address_3": null,
    "city": "Greensburg",
    "state_province": "Pennsylvania",
    "postal_code": "15601-7317",
    "country": "United States",
    "longitude": null,
    "latitude": null,
    "phone": "7242891202",
    "website_url": "http://www.allsaintscraftbrewing.com",
    "state": "Pennsylvania",
    "street": "1602 State Route 119"
  },
  {
    "id": "82ea8f08-2026-43f8-b1a7-cc57ebe8c0bb",
    "name": "All-American Ale Works",
    "brewery_type": "micro",
    "address_1": "5120 E La Palma Ave Ste 103",
    "address_2": null,
    "address_3": null,
    "city": "Anaheim",
    "state_province": "California",
    "postal_code": "92807-2082",
    "country": "United States",
    "longitude": -117.8056915,
    "latitude": 33.85925032,
    "phone": "9517412771",
    "website_url": "http://www.all-americanaleworks.com",
    "state": "California",
    "street": "5120 E La Palma Ave Ste 103"
  },
  {
    "id": "8a7a2bc0-0f42-4889-94ef-7f8f647268fa",
    "name": "Allagash Brewing Co",
    "brewery_type": "regional",
    "address_1": "50 Industrial Way",
    "address_2": null,
    "address_3": null,
    "city": "Portland",
    "state_province": "Maine",
    "postal_code": "04103-1270",
    "country": "United States",
    "longitude": -70.3179518,
    "latitude": 43.7030951,
    "phone": "2078785385",
    "website_url": "http://www.allagash.com",
    "state": "Maine",
    "street": "50 Industrial Way"
  },
  {
    "id": "0924f3af-e548-446b-baf8-687ea51b02ae",
    "name": "Allegheny City Brewing",
    "brewery_type": "micro",
    "address_1": "507 Foreland St",
    "address_2": null,
    "address_3": null,
    "city": "Pittsburgh",
    "state_province": "Pennsylvania",
    "postal_code": "15212-4910",
    "country": "United States",
    "longitude": -80.00061073,
    "latitude": 40.45424933,
    "phone": "4129043732",
    "website_url": "http://www.alleghenycitybrewing.com",
    "state": "Pennsylvania",
    "street": "507 Foreland St"
  },
  {
    "id": "9b4f31d5-61b4-46ed-b501-6acc4d428666",
    "name": "Allegory Brewing",
    "brewery_type": "micro",
    "address_1": "777 NE 4th St",
    "address_2": null,
    "address_3": null,
    "city": "McMinnville",
    "state_province": "Oregon",
    "postal_code": "97128-4502",
    "country": "United States",
    "longitude": -123.1917806,
    "latitude": 45.21081917,
    "phone": "9713731253",
    "website_url": "http://www.allegorybrewing.com",
    "state": "Oregon",
    "street": "777 NE 4th St"
  },
  {
    "id": "3f583ab8-71bf-4009-9257-193ef53a1fe1",
    "name": "Allentown Brew Works",
    "brewery_type": "brewpub",
    "address_1": "812 Hamilton St",
    "address_2": null,
    "address_3": null,
    "city": "Allentown",
    "state_province": "Pennsylvania",
    "postal_code": "18101-2437",
    "country": "United States",
    "longitude": -75.4575021,
    "latitude": 40.6060468,
    "phone": "6104337777",
    "website_url": "http://www.thebrewworks.com",
    "state": "Pennsylvania",
    "street": "812 Hamilton St"
  },
  {
    "id": "9c3b028c-2949-4216-ba66-fbb098734cde",
    "name": "Alliance Brewing Company",
    "brewery_type": "micro",
    "address_1": "1130 Sevier Ave",
    "address_2": null,
    "address_3": null,
    "city": "Knoxville",
    "state_province": "Tennessee",
    "postal_code": "37920",
    "country": "United States",
    "longitude": -83.9035469,
    "latitude": 35.9593516,
    "phone": "8652475355",
    "website_url": "http://www.alliancebrewing.com",
    "state": "Tennessee",
    "street": "1130 Sevier Ave"
  },
  {
    "id": "10795316-cc0d-42d7-80c7-e237aae40a06",
    "name": "Alligator Brewing / Tall Paul's Brewhouse",
    "brewery_type": "micro",
    "address_1": "10 SE 2nd Ave",
    "address_2": null,
    "address_3": null,
    "city": "Gainesville",
    "state_province": "Florida",
    "postal_code": "32601-6232",
    "country": "United States",
    "longitude": -82.3222523,
    "latitude": 29.6502615,
    "phone": "3525050990",
    "website_url": null,
    "state": "Florida",
    "street": "10 SE 2nd Ave"
  },
  {
    "id": "1b259770-4334-44ad-be18-8097be571df6",
    "name": "Alloy Brewing Company",
    "brewery_type": "micro",
    "address_1": "2700 Coon Rapids Blvd NW",
    "address_2": null,
    "address_3": null,
    "city": "Coon Rapids",
    "state_province": "Minnesota",
    "postal_code": "55433-3955",
    "country": "United States",
    "longitude": -93.33543497,
    "latitude": 45.16953614,
    "phone": "7634230939",
    "website_url": "http://www.alloybrewingcompany.com",
    "state": "Minnesota",
    "street": "2700 Coon Rapids Blvd NW"
  },
  {
    "id": "6889b781-b8f6-4a5a-a1ef-ab3e4c72aed9",
    "name": "Alltech's Lexington Brewing",
    "brewery_type": "regional",
    "address_1": "475 Angliana Ave",
    "address_2": null,
    "address_3": null,
    "city": "Lexington",
    "state_province": "Kentucky",
    "postal_code": "40508-3134",
    "country": "United States",
    "longitude": -84.51599645,
    "latitude": 38.04950651,
    "phone": "8592552337",
    "website_url": "http://www.Kentuckyale.com",
    "state": "Kentucky",
    "street": "475 Angliana Ave"
  },
  {
    "id": "6e103afb-f4ad-4fea-bf67-b31d390c269d",
    "name": "Alluvial Brewing Company",
    "brewery_type": "micro",
    "address_1": "3715 W 190th St",
    "address_2": null,
    "address_3": null,
    "city": "Ames",
    "state_province": "Iowa",
    "postal_code": "50014-9316",
    "country": "United States",
    "longitude": -93.6370387,
    "latitude": 41.5831617,
    "phone": "515337118",
    "website_url": "http://www.alluvialbrewing.com",
    "state": "Iowa",
    "street": "3715 W 190th St"
  },
  {
    "id": "4d43c467-2e30-4b93-a25c-d1e46998dc07",
    "name": "Alma Brewing Co",
    "brewery_type": "brewpub",
    "address_1": "208 E Superior St",
    "address_2": null,
    "address_3": null,
    "city": "Alma",
    "state_province": "Michigan",
    "postal_code": "48801-1819",
    "country": "United States",
    "longitude": -84.6588719,
    "latitude": 43.37888808,
    "phone": "9894620208",
    "website_url": "http://www.almabrewing.com",
    "state": "Michigan",
    "street": "208 E Superior St"
  },
  {
    "id": "085c97d4-5a01-4e28-a1c6-683bf773b062",
    "name": "Alma Mader Brewing",
    "brewery_type": "micro",
    "address_1": "2635 Southwest Blvd",
    "address_2": null,
    "address_3": null,
    "city": "Kansas City",
    "state_province": "Missouri",
    "postal_code": "64108",
    "country": "United States",
    "longitude": -94.599389,
    "latitude": 39.082495,
    "phone": "8169452589",
    "website_url": "http://almamaderbrewing.com",
    "state": "Missouri",
    "street": "2635 Southwest Blvd"
  },
  {
    "id": "9a6f84d7-194b-426d-999f-c1be9beb835d",
    "name": "Almanac Beer Company",
    "brewery_type": "micro",
    "address_1": "651B W Tower Ave",
    "address_2": null,
    "address_3": null,
    "city": "Alameda",
    "state_province": "California",
    "postal_code": "94501-5047",
    "country": "United States",
    "longitude": -122.3062832,
    "latitude": 37.78344977,
    "phone": "4159326531",
    "website_url": "http://almanacbeer.com",
    "state": "California",
    "street": "651B W Tower Ave"
  },
  {
    "id": "fc0ae4ac-07b5-4df2-a1d2-0785af183a35",
    "name": "Almost Famous Brewing Company",
    "brewery_type": "micro",
    "address_1": "17 Kripes Rd",
    "address_2": null,
    "address_3": null,
    "city": "East Granby",
    "state_province": "Connecticut",
    "postal_code": "06026",
    "country": "United States",
    "longitude": -72.4224674,
    "latitude": 41.9581654,
    "phone": "8604139401",
    "website_url": "https://www.almostfamousbrewing.com/",
    "state": "Connecticut",
    "street": "17 Kripes Rd"
  },
  {
    "id": "cc1c18dc-77d7-4ca5-b3b7-8180f77feecd",
    "name": "Aloha Beer Co",
    "brewery_type": "brewpub",
    "address_1": "700 Queen St",
    "address_2": null,
    "address_3": null,
    "city": "Honolulu",
    "state_province": "Hawaii",
    "postal_code": "96813-5110",
    "country": "United States",
    "longitude": -157.857248,
    "latitude": 21.301249,
    "phone": "8085455959",
    "website_url": "http://www.alohabeer.com",
    "state": "Hawaii",
    "street": "700 Queen St"
  },
  {
    "id": "b3bea277-345d-4154-9a79-1c9364ee0172",
    "name": "Aloha Sea Sports Centre",
    "brewery_type": "bar",
    "address_1": "1212 East Coast Parkway",
    "address_2": "E2 Area E",
    "address_3": null,
    "city": "Singapore",
    "state_province": "Singapore",
    "postal_code": "449886",
    "country": "Singapore",
    "longitude": 1.306439441491,
    "latitude": 103.934847,
    "phone": "+65 6241 9212",
    "website_url": "https://www.alohaseasports.com/bar",
    "state": "Singapore",
    "street": "1212 East Coast Parkway"
  },
  {
    "id": "30ef2457-11c4-48ef-ae58-37109ceda4c7",
    "name": "Alosta Brewing Co",
    "brewery_type": "micro",
    "address_1": "692 Arrow Grand Cir",
    "address_2": null,
    "address_3": null,
    "city": "Covina",
    "state_province": "California",
    "postal_code": "91722-2122",
    "country": "United States",
    "longitude": -117.8781466,
    "latitude": 34.10365026,
    "phone": "9094558707",
    "website_url": "http://www.alostabrewing.com",
    "state": "California",
    "street": "692 Arrow Grand Cir"
  }
]