[
  {
    "id": "8a33e210-9d8a-4337-b04c-8cfe15e0c213",
    "name": "Werner Brewing Company",
    "brewery_type": "micro",
    "address_1": "2807 3rd St",
    "address_2": null,
    "address_3": null,
    "city": "Tillamook",
    "state_province": "Oregon",
    "postal_code": "97141",
    "country": "United States",
    "longitude": -123.8425805,
    "latitude": 45.4563275,
    "phone": "5038126040",
    "website_url": null,
    "state": "Oregon",
    "street": "2807 3rd St"
  },
  {
    "id": "97785f2d-ca0d-41a0-8aeb-fc513eb02a4e",
    "name": "West Bend Lithia Beer Co",
    "brewery_type": "contract",
    "address_1": "825 Schoenhaar Dr",
    "address_2": null,
    "address_3": null,
    "city": "West Bend",
    "state_province": "Wisconsin",
    "postal_code": "53090-2633",
    "country": "United States",
    "longitude": -88.15775153,
    "latitude": 43.43136188,
    "phone": "2623343000",
    "website_url": "http://www.lithiabeer.com",
    "state": "Wisconsin",
    "street": "825 Schoenhaar Dr"
  },
  {
    "id": "029d8456-c2b0-4a9e-950c-39046b1d850e",
    "name": "West Cork Brewing Co.",
    "brewery_type": "brewpub",
    "address_1": "C/O Casey's Hotel",
    "address_2": "Church Strand",
    "address_3": null,
    "city": "Baltimore",
    "state_province": "Cork",
    "postal_code": "P81 YW66",
    "country": "Ireland",
    "longitude": -9.3708544,
    "latitude": 51.4870695,
    "phone": "353834156186",
    "website_url": "http://www.westcorkbrewingco.ie/",
    "state": "Cork",
    "street": "C/O Casey's Hotel"
  },
  {
    "id": "80d05615-2f61-4e0e-8d1e-d3f25d70d960",
    "name": "West East Brewing Co",
    "brewery_type": "contract",
    "address_1": "4125 Lorain Ave",
    "address_2": null,
    "address_3": null,
    "city": "Cleveland",
    "state_province": "Ohio",
    "postal_code": "44113-3718",
    "country": "United States",
    "longitude": -81.7140045,
    "latitude": 41.4799605,
    "phone": "2162021386",
    "website_url": null,
    "state": "Ohio",
    "street": "4125 Lorain Ave"
  },
  {
    "id": "9ffda059-096e-4ae7-805b-49709737f941",
    "name": "West Flanders Brewing Co",
    "brewery_type": "brewpub",
    "address_1": "1125 Pearl St",
    "address_2": null,
    "address_3": null,
    "city": "Boulder",
    "state_province": "Colorado",
    "postal_code": "80302-5103",
    "country": "United States",
    "longitude": -105.260866,
    "latitude": 40.0217453,
    "phone": "3034472739",
    "website_url": "http://www.wfbrews.com",
    "state": "Colorado",
    "street": "1125 Pearl St"
  },
  {
    "id": "391847c9-a5ad-496f-a74e-586ff829fc0d",
    "name": "West Kill Brewing",
    "brewery_type": "micro",
    "address_1": "2173 Spruceton Rd",
    "address_2": null,
    "address_3": null,
    "city": "West Kill",
    "state_province": "New York",
    "postal_code": "12492-5823",
    "country": "United States",
    "longitude": -74.382878,
    "latitude": 42.205758,
    "phone": "5189896001",
    "website_url": "http://www.westkillbrewing.com",
    "state": "New York",
    "street": "2173 Spruceton Rd"
  },
  {
    "id": "e0c4bb78-9720-4af7-8188-a5b132646ede",
    "name": "West LA Beer Company",
    "brewery_type": "closed",
    "address_1": "647 West Swanzey Rd",
    "address_2": null,
    "address_3": null,
    "city": "Swanzey",
    "state_province": "New Hampshire",
    "postal_code": "03446-3310",
    "country": "United States",
    "longitude": -72.33262282,
    "latitude": 42.87499023,
    "phone": "6039030724",
    "website_url": "http://westlabeercompany.com/",
    "state": "New Hampshire",
    "street": "647 West Swanzey Rd"
  },
  {
    "id": "752dfbd2-fa6e-43e8-98fd-602dcff7eb04",
    "name": "West O Beer",
    "brewery_type": "micro",
    "address_1": "503 Terrace Park Blvd",
    "address_2": null,
    "address_3": null,
    "city": "Milford",
    "state_province": "Iowa",
    "postal_code": "51351-7300",
    "country": "United States",
    "longitude": -95.14996965,
    "latitude": 43.34657697,
    "phone": "7123328090",
    "website_url": "http://www.westobeer.com",
    "state": "Iowa",
    "street": "503 Terrace Park Blvd"
  },
  {
    "id": "493d8254-89e2-407a-986b-5ddb06a572e2",
    "name": "West Palm Beach Brewery & Wine Vault",
    "brewery_type": "brewpub",
    "address_1": "332 Evernia St",
    "address_2": null,
    "address_3": null,
    "city": "West Palm Beach",
    "state_province": "Florida",
    "postal_code": "33401-5404",
    "country": "United States",
    "longitude": -80.05314345,
    "latitude": 26.7110654,
    "phone": "5616198813",
    "website_url": "http://www.WestPalmBeer.com",
    "state": "Florida",
    "street": "332 Evernia St"
  },
  {
    "id": "3107d918-5bae-4a9f-a834-3592199dffc5",
    "name": "West Passage Brewing Co",
    "brewery_type": "micro",
    "address_1": "7835 Post Rd",
    "address_2": null,
    "address_3": null,
    "city": "North Kingstown",
    "state_province": "Rhode Island",
    "postal_code": "02852-2911",
    "country": "United States",
    "longitude": -71.4592129,
    "latitude": 41.5849618,
    "phone": "4016619662",
    "website_url": "http://www.westpassagebrewing.com",
    "state": "Rhode Island",
    "street": "7835 Post Rd"
  },
  {
    "id": "7566cfbf-694e-43a6-8c4b-d91754906db8",
    "name": "West Seattle Brewing Co",
    "brewery_type": "micro",
    "address_1": "4415 Fauntleroy Way SW",
    "address_2": null,
    "address_3": null,
    "city": "Seattle",
    "state_province": "Washington",
    "postal_code": "98126-2631",
    "country": "United States",
    "longitude": -122.3776296,
    "latitude": 47.5643605,
    "phone": "2064050972",
    "website_url": "http://www.westseattlebrewing.com",
    "state": "Washington",
    "street": "4415 Fauntleroy Way SW"
  },
  {
    "id": "cb9cae9a-a133-48d8-a63e-b82fcf1c4c9e",
    "name": "West Seattle Brewing Co (TapShack)",
    "brewery_type": "micro",
    "address_1": "2536 Alki Ave SW",
    "address_2": null,
    "address_3": null,
    "city": "Seattle",
    "state_province": "Washington",
    "postal_code": "98116-2262",
    "country": "United States",
    "longitude": -122.406811,
    "latitude": 47.580335,
    "phone": "2064204523",
    "website_url": "http://www.westseattlebrewing.com",
    "state": "Washington",
    "street": "2536 Alki Ave SW"
  },
  {
    "id": "13bcbdcc-50e5-4669-bfad-8001c7b17d90",
    "name": "West Shore Brewing Co",
    "brewery_type": "micro",
    "address_1": "10995 Main St",
    "address_2": null,
    "address_3": null,
    "city": "Clarence",
    "state_province": "New York",
    "postal_code": "14031-1735",
    "country": "United States",
    "longitude": -78.57810318,
    "latitude": 42.98200648,
    "phone": "7169983752",
    "website_url": "http://westshorebrewing.com",
    "state": "New York",
    "street": "10995 Main St"
  },
  {
    "id": "6d54504b-074c-417a-bb3a-008e26e0b662",
    "name": "West Side Brewing",
    "brewery_type": "micro",
    "address_1": "3044 Harrison Ave",
    "address_2": null,
    "address_3": null,
    "city": "Cincinnati",
    "state_province": "Ohio",
    "postal_code": "45211-5752",
    "country": "United States",
    "longitude": -84.598433,
    "latitude": 39.14890246,
    "phone": "5136612337",
    "website_url": "http://www.westsidebrewing.com",
    "state": "Ohio",
    "street": "3044 Harrison Ave"
  },
  {
    "id": "86c32e2f-4135-4421-ad6f-03d71c73347a",
    "name": "West Sixth Brewing Co",
    "brewery_type": "micro",
    "address_1": "501 W Sixth St",
    "address_2": null,
    "address_3": null,
    "city": "Lexington",
    "state_province": "Kentucky",
    "postal_code": "40508-1341",
    "country": "United States",
    "longitude": null,
    "latitude": null,
    "phone": "8597050915",
    "website_url": "http://www.westsixth.com",
    "state": "Kentucky",
    "street": "501 W Sixth St"
  },
  {
    "id": "11e292b9-777d-4818-b231-1de6c8a4e1cb",
    "name": "West Sixth Greenroom",
    "brewery_type": "micro",
    "address_1": "109 W Main St",
    "address_2": null,
    "address_3": null,
    "city": "Lexington",
    "state_province": "Kentucky",
    "postal_code": "40507",
    "country": "United States",
    "longitude": -84.49712824,
    "latitude": 38.04658314,
    "phone": "8597050915",
    "website_url": null,
    "state": "Kentucky",
    "street": "109 W Main St"
  },
  {
    "id": "22edeb4c-52ba-463e-a23f-3f27762505eb",
    "name": "Westallion Brewing Company",
    "brewery_type": "micro",
    "address_1": "1825 S 72nd St",
    "address_2": null,
    "address_3": null,
    "city": "West Allis",
    "state_province": "Wisconsin",
    "postal_code": "53214-4714",
    "country": "United States",
    "longitude": -88.0027165,
    "latitude": 43.01130525,
    "phone": "4145787998",
    "website_url": "http://www.westallionbrewing.com",
    "state": "Wisconsin",
    "street": "1825 S 72nd St"
  },
  {
    "id": "1ab4a268-90ec-4506-944d-545e126fa337",
    "name": "Westbend Winery and Brewery",
    "brewery_type": "micro",
    "address_1": "5394 Williams Rd",
    "address_2": null,
    "address_3": null,
    "city": "Lewisville",
    "state_province": "North Carolina",
    "postal_code": "27023-8278",
    "country": "United States",
    "longitude": -80.50459165,
    "latitude": 36.08868228,
    "phone": "3369459999",
    "website_url": "http://www.westbendwineryandbrewery.com",
    "state": "North Carolina",
    "street": "5394 Williams Rd"
  },
  {
    "id": "f5ec6774-0b8c-485e-ac5c-fec7ad4332d0",
    "name": "Westbound & Down Brewing Company",
    "brewery_type": "brewpub",
    "address_1": "1617 Miner St",
    "address_2": null,
    "address_3": null,
    "city": "Idaho Springs",
    "state_province": "Colorado",
    "postal_code": "80452",
    "country": "United States",
    "longitude": -105.5155002,
    "latitude": 39.7419049,
    "phone": "7205023121",
    "website_url": "http://www.westboundanddown.com",
    "state": "Colorado",
    "street": "1617 Miner St"
  },
  {
    "id": "d2c47650-77bb-4a11-bf6d-7be3103014d0",
    "name": "Westbound and Down",
    "brewery_type": "planning",
    "address_1": null,
    "address_2": null,
    "address_3": null,
    "city": "Denver",
    "state_province": "Colorado",
    "postal_code": "80204",
    "country": "United States",
    "longitude": null,
    "latitude": null,
    "phone": "7205023121",
    "website_url": null,
    "state": "Colorado",
    "street": null
  },
  {
    "id": "c4176795-13f1-4e5c-8da8-275447df6cdf",
    "name": "Westbrook Brewing Co",
    "brewery_type": "regional",
    "address_1": "510 Ridge Rd",
    "address_2": null,
    "address_3": null,
    "city": "Mount Pleasant",
    "state_province": "South Carolina",
    "postal_code": "29464-7811",
    "country": "United States",
    "longitude": null,
    "latitude": null,
    "phone": "8436549114",
    "website_url": "http://www.westbrookbrewing.com",
    "state": "South Carolina",
    "street": "510 Ridge Rd"
  },
  {
    "id": "c2bb4039-7e82-4456-99c7-9ce22327d06d",
    "name": "Westby Edge Brewing",
    "brewery_type": "taproom",
    "address_1": "714 W 20th St",
    "address_2": null,
    "address_3": null,
    "city": "Cheyenne",
    "state_province": "Wyoming",
    "postal_code": "82001-3402",
    "country": "United States",
    "longitude": -104.81533827185,
    "latitude": 41.172439136714,
    "phone": "3073691555",
    "website_url": "https://www.westbyedge.com",
    "state": "Wyoming",
    "street": "714 W 20th St"
  },
  {
    "id": "8bc44d8f-07dd-4118-aecd-0bf08f70c26b",
    "name": "Western Pennsylvania Brewing Co",
    "brewery_type": "regional",
    "address_1": "119 Jefferson St",
    "address_2": null,
    "address_3": null,
    "city": "Latrobe",
    "state_province": "Pennsylvania",
    "postal_code": "15650",
    "country": "United States",
    "longitude": -79.38989645,
    "latitude": 40.31903018,
    "phone": null,
    "website_url": "http://www.citybreiwng.com",
    "state": "Pennsylvania",
    "street": "119 Jefferson St"
  },
  {
    "id": "8c1f3653-056b-40a4-8421-f9ce8b2979bd",
    "name": "Western Red Brewing",
    "brewery_type": "brewpub",
    "address_1": "19168 Jensen Way NE Ste 100",
    "address_2": null,
    "address_3": null,
    "city": "Poulsbo",
    "state_province": "Washington",
    "postal_code": "98370",
    "country": "United States",
    "longitude": -122.64664011727,
    "latitude": 47.736859297523,
    "phone": "3606261280",
    "website_url": "http://westernredbrewing.com",
    "state": "Washington",
    "street": "19168 Jensen Way NE Ste 100"
  },
  {
    "id": "31c082a9-357c-47d6-b65c-56e28b9423a0",
    "name": "WestFax Brewing Co.",
    "brewery_type": "micro",
    "address_1": "6733 W Colfax Ave",
    "address_2": null,
    "address_3": null,
    "city": "Lakewood",
    "state_province": "Colorado",
    "postal_code": "80214-1807",
    "country": "United States",
    "longitude": -105.0710839,
    "latitude": 39.7415749,
    "phone": "3032333742",
    "website_url": "http://www.westfaxbrewingcompany.com",
    "state": "Colorado",
    "street": "6733 W Colfax Ave"
  },
  {
    "id": "44c00cc8-f329-452b-9d37-1ba777144535",
    "name": "Westfield River Brewing Co",
    "brewery_type": "micro",
    "address_1": "707 College Hwy",
    "address_2": null,
    "address_3": null,
    "city": "Southwick",
    "state_province": "Massachusetts",
    "postal_code": "01077-9733",
    "country": "United States",
    "longitude": -72.765248,
    "latitude": 42.062268,
    "phone": "4133748425",
    "website_url": "http://www.westfieldriverbrewing.com",
    "state": "Massachusetts",
    "street": "707 College Hwy"
  },
  {
    "id": "73e1509c-8410-4bf6-a752-9758781aacb7",
    "name": "Westlake Brewing & Libation",
    "brewery_type": "micro",
    "address_1": "31111 Via Colinas # 200",
    "address_2": null,
    "address_3": null,
    "city": "Thousand Oaks",
    "state_province": "California",
    "postal_code": "91362-3909",
    "country": "United States",
    "longitude": -118.809516,
    "latitude": 34.161542,
    "phone": "7472227231",
    "website_url": "http://westlakebrewingcompany.com",
    "state": "California",
    "street": "31111 Via Colinas # 200"
  },
  {
    "id": "00950932-b737-4232-a18b-84106a891c93",
    "name": "Westlake Brewing Company",
    "brewery_type": "planning",
    "address_1": null,
    "address_2": null,
    "address_3": null,
    "city": "Dallas",
    "state_province": "Texas",
    "postal_code": "75226-1607",
    "country": "United States",
    "longitude": null,
    "latitude": null,
    "phone": "8779942337",
    "website_url": "http://www.westlakebeer.com",
    "state": "Texas",
    "street": null
  },
  {
    "id": "093897b0-1926-4570-a398-b0aad0f59c63",
    "name": "Westminster Brewing Co",
    "brewery_type": "micro",
    "address_1": "7655 W 108th Ave Ste 600",
    "address_2": null,
    "address_3": null,
    "city": "Westminster",
    "state_province": "Colorado",
    "postal_code": "80021-2805",
    "country": "United States",
    "longitude": null,
    "latitude": null,
    "phone": "3032841864",
    "website_url": "http://westminsterbrewingco.com",
    "state": "Colorado",
    "street": "7655 W 108th Ave Ste 600"
  },
  {
    "id": "90b580a3-4c08-4dd4-a69e-4a69fe8499f4",
    "name": "Weston Brewing Co / O'Malley's Pub",
    "brewery_type": "micro",
    "address_1": "500 Welt St",
    "address_2": null,
    "address_3": null,
    "city": "Weston",
    "state_province": "Missouri",
    "postal_code": "64098-1242",
    "country": "United States",
    "longitude": -94.899934,
    "latitude": 39.411378,
    "phone": "8166405235",
    "website_url": "http://www.westonirish.com",
    "state": "Missouri",
    "street": "500 Welt St"
  },
  {
    "id": "6121940c-efce-406a-aa66-192515c4a63b",
    "name": "Westslope Brewing, LLC",
    "brewery_type": "planning",
    "address_1": null,
    "address_2": null,
    "address_3": null,
    "city": "Lolo",
    "state_province": "Montana",
    "postal_code": "59847-9757",
    "country": "United States",
    "longitude": null,
    "latitude": null,
    "phone": "4065316959",
    "website_url": "http://www.westslopebrewing.com",
    "state": "Montana",
    "street": null
  },
  {
    "id": "54e4ea1c-6210-48c0-a3d1-c7edd491a640",
    "name": "Westtown Brew Works",
    "brewery_type": "micro",
    "address_1": "236 Schefflers Rd",
    "address_2": null,
    "address_3": null,
    "city": "Westtown",
    "state_province": "New York",
    "postal_code": "10998-",
    "country": "United States",
    "longitude": -74.53707955,
    "latitude": 41.31431295,
    "phone": "8453044152",
    "website_url": "http://www.westtownbrewworks.com",
    "state": "New York",
    "street": "236 Schefflers Rd"
  },
  {
    "id": "c63f9f73-f694-4668-8e90-977ec08e1604",
    "name": "Westwind Brewery Co.",
    "brewery_type": "planning",
    "address_1": null,
    "address_2": null,
    "address_3": null,
    "city": "Elkhart",
    "state_province": "Indiana",
    "postal_code": "46514-2204",
    "country": "United States",
    "longitude": null,
    "latitude": null,
    "phone": "5742745073",
    "website_url": "http://www.westwindbrewery.com",
    "state": "Indiana",
    "street": null
  },
  {
    "id": "ab04508d-14bc-41cb-bf1d-b09d86838fb3",
    "name": "Wet Coast Brewing Co.",
    "brewery_type": "micro",
    "address_1": "6820 Kimball Dr Ste C",
    "address_2": null,
    "address_3": null,
    "city": "Gig Harbor",
    "state_province": "Washington",
    "postal_code": "98335-5124",
    "country": "United States",
    "longitude": -122.58780323438,
    "latitude": 47.321692141626,
    "phone": "2534324966",
    "website_url": "http://www.wetcoastbrewing.com",
    "state": "Washington",
    "street": "6820 Kimball Dr Ste C"
  },
  {
    "id": "0ab3dca4-244e-4efd-bf34-92687747499a",
    "name": "Wet Dog Cafe & Brewery",
    "brewery_type": "brewpub",
    "address_1": "990 Astor St",
    "address_2": null,
    "address_3": null,
    "city": "Astoria",
    "state_province": "Oregon",
    "postal_code": "97103-4201",
    "country": "United States",
    "longitude": -123.835821,
    "latitude": 46.190557,
    "phone": "5033256975",
    "website_url": "http://www.wetdogcafe.com",
    "state": "Oregon",
    "street": "990 Astor St"
  },
  {
    "id": "1d5af7ca-3850-4894-8dbb-0104afcb03ce",
    "name": "Wet Ticket Brewing",
    "brewery_type": "micro",
    "address_1": "1435 Main St",
    "address_2": null,
    "address_3": null,
    "city": "Rahway",
    "state_province": "New Jersey",
    "postal_code": "07065-",
    "country": "United States",
    "longitude": -74.27425215,
    "latitude": 40.60586312,
    "phone": "9086169091",
    "website_url": "http://www.wetticketbrewing.com",
    "state": "New Jersey",
    "street": "1435 Main St"
  },
  {
    "id": "aa40cdb4-5b17-46fb-94e5-b972f6cc0b86",
    "name": "Weyerbacher Brewing Co",
    "brewery_type": "regional",
    "address_1": "905 Line St Ste G",
    "address_2": null,
    "address_3": null,
    "city": "Easton",
    "state_province": "Pennsylvania",
    "postal_code": "18042-7379",
    "country": "United States",
    "longitude": null,
    "latitude": null,
    "phone": "6105595561",
    "website_url": "http://www.weyerbacher.com",
    "state": "Pennsylvania",
    "street": "905 Line St Ste G"
  },
  {
    "id": "ee09ef76-e626-48ba-8eeb-47b57db63388",
    "name": "Whalers Brewing Company",
    "brewery_type": "micro",
    "address_1": "1174 Kingstown Rd",
    "address_2": null,
    "address_3": null,
    "city": "South Kingstown",
    "state_province": "Rhode Island",
    "postal_code": "02879-8316",
    "country": "United States",
    "longitude": -71.49706731,
    "latitude": 41.4506997,
    "phone": "4015520002",
    "website_url": "https://whalers.com",
    "state": "Rhode Island",
    "street": "1174 Kingstown Rd"
  },
  {
    "id": "3b85a707-ff0a-483a-a5da-d2ab53aa66ce",
    "name": "Wharf Hill Brewing",
    "brewery_type": "brewpub",
    "address_1": "25 Main St",
    "address_2": null,
    "address_3": null,
    "city": "Smithfield",
    "state_province": "Virginia",
    "postal_code": "23430-1320",
    "country": "United States",
    "longitude": -76.63061077,
    "latitude": 36.98242438,
    "phone": "7573577100",
    "website_url": "http://www.wharfhillbrewing.com",
    "state": "Virginia",
    "street": "25 Main St"
  },
  {
    "id": "8dfd9c89-ac49-475c-8caa-b210120a8229",
    "name": "Wheatland Spring Brewery",
    "brewery_type": "planning",
    "address_1": null,
    "address_2": null,
    "address_3": null,
    "city": "Alexandria",
    "state_province": "Virginia",
    "postal_code": "22314-4308",
    "country": "United States",
    "longitude": null,
    "latitude": null,
    "phone": null,
    "website_url": null,
    "state": "Virginia",
    "street": null
  },
  {
    "id": "ca4dec0f-a148-492a-80c5-b78aa252b288",
    "name": "Wheeling Brewing Co",
    "brewery_type": "closed",
    "address_1": "2247 Market St",
    "address_2": null,
    "address_3": null,
    "city": "Wheeling",
    "state_province": "West Virginia",
    "postal_code": "26003-3839",
    "country": "United States",
    "longitude": -80.72429082,
    "latitude": 40.05925145,
    "phone": "3049058757",
    "website_url": "http://www.wheelingbrewing.com",
    "state": "West Virginia",
    "street": "2247 Market St"
  },
  {
    "id": "0609948f-d8d4-4d29-899a-9983abe982fa",
    "name": "Whetstone Craft Beers @ Whetstone Station",
    "brewery_type": "brewpub",
    "address_1": "36 Bridge St",
    "address_2": null,
    "address_3": null,
    "city": "Brattleboro",
    "state_province": "Vermont",
    "postal_code": "05301-3301",
    "country": "United States",
    "longitude": -72.55627012,
    "latitude": 42.85164595,
    "phone": "8024902354",
    "website_url": "http://www.whetstonestation.com",
    "state": "Vermont",
    "street": "36 Bridge St"
  },
  {
    "id": "57d2e357-67f2-4d21-8116-ca0403eb50ce",
    "name": "WhichCraft Brews",
    "brewery_type": "brewpub",
    "address_1": "1900 Empire Blvd",
    "address_2": null,
    "address_3": null,
    "city": "Webster",
    "state_province": "New York",
    "postal_code": "14580-1934",
    "country": "United States",
    "longitude": -77.501948,
    "latitude": 43.193429,
    "phone": "5852222739",
    "website_url": "http://www.whichcraftbrews.com",
    "state": "New York",
    "street": "1900 Empire Blvd"
  },
  {
    "id": "7e464f88-ef88-4890-be4b-e7694f31b640",
    "name": "Whiner Beer Company",
    "brewery_type": "micro",
    "address_1": "1400 W 46th St",
    "address_2": null,
    "address_3": null,
    "city": "Chicago",
    "state_province": "Illinois",
    "postal_code": "60609-3225",
    "country": "United States",
    "longitude": -87.6606688,
    "latitude": 41.810614,
    "phone": "3128102271",
    "website_url": "http://whinerbeer.com",
    "state": "Illinois",
    "street": "1400 W 46th St"
  },
  {
    "id": "04fda7ff-4bf9-4a3e-b65a-1136ed3ebc87",
    "name": "Whiplash Brewing",
    "brewery_type": "micro",
    "address_1": "Cherry Orchard Industrial Estate",
    "address_2": "Unit 67B",
    "address_3": "Dublin 10",
    "city": "Ballyfermot",
    "state_province": "Dublin",
    "postal_code": "D10 F627",
    "country": "Ireland",
    "longitude": -6.3773273,
    "latitude": 53.3468597,
    "phone": null,
    "website_url": "http://www.whiplashbeer.com/",
    "state": "Dublin",
    "street": "Cherry Orchard Industrial Estate"
  },
  {
    "id": "85c77773-c9af-4863-9f74-43d1e690346a",
    "name": "Whipsaw Brewing LLC",
    "brewery_type": "micro",
    "address_1": "704 N Wenas St",
    "address_2": null,
    "address_3": null,
    "city": "Ellensburg",
    "state_province": "Washington",
    "postal_code": "98926-2862",
    "country": "United States",
    "longitude": -120.5552612,
    "latitude": 46.9989453,
    "phone": "5099685111",
    "website_url": "http://www.whipsawbrewing.com",
    "state": "Washington",
    "street": "704 N Wenas St"
  },
  {
    "id": "35279122-92ea-403b-a946-dbc578ce4bcd",
    "name": "Whirling Skirmish Brewing Company",
    "brewery_type": "planning",
    "address_1": null,
    "address_2": null,
    "address_3": null,
    "city": "Scottsdale",
    "state_province": "Arizona",
    "postal_code": "85254-2513",
    "country": "United States",
    "longitude": -111.8992365,
    "latitude": 33.5091215,
    "phone": "6023592489",
    "website_url": null,
    "state": "Arizona",
    "street": null
  },
  {
    "id": "debc3cf5-e1c4-4de1-adb0-d6bd5f001ec3",
    "name": "Whiskey Point Brewing Company",
    "brewery_type": "planning",
    "address_1": null,
    "address_2": null,
    "address_3": null,
    "city": "Beaver Island",
    "state_province": "Michigan",
    "postal_code": "49782-5105",
    "country": "United States",
    "longitude": null,
    "latitude": null,
    "phone": "2313737842",
    "website_url": "http://www.whiskeypointbrewing.com",
    "state": "Michigan",
    "street": null
  },
  {
    "id": "f08836a0-a759-48a1-b8ae-22bfae945d22",
    "name": "Whisper Creek Farm: Kitchen and Brewery",
    "brewery_type": "brewpub",
    "address_1": "4040 Central Florida Pkwy",
    "address_2": null,
    "address_3": null,
    "city": "Orlando",
    "state_province": "Florida",
    "postal_code": "32837-7662",
    "country": "United States",
    "longitude": -81.42861801,
    "latitude": 28.40168865,
    "phone": "4073934755",
    "website_url": "http://www.grandelakes.com",
    "state": "Florida",
    "street": "4040 Central Florida Pkwy"
  },
  {
    "id": "cd74c02e-30a1-4e9e-9774-aa8d39788ae3",
    "name": "Whistle Hop Brewing Company",
    "brewery_type": "micro",
    "address_1": "1288 Charlotte Hwy",
    "address_2": null,
    "address_3": null,
    "city": "Fairview",
    "state_province": "North Carolina",
    "postal_code": "28730-8797",
    "country": "United States",
    "longitude": -82.41693073,
    "latitude": 35.52314413,
    "phone": "8283389447",
    "website_url": "http://www.whistlehop.com",
    "state": "North Carolina",
    "street": "1288 Charlotte Hwy"
  }
]