[
  {
    "id": "25a5fef8-192f-4cd3-95b2-9d0a903354f5",
    "name": "Bear Bones Beer",
    "brewery_type": "micro",
    "address_1": "43 Lisbon St",
    "address_2": null,
    "address_3": null,
    "city": "Lewiston",
    "state_province": "Maine",
    "postal_code": "04240-7115",
    "country": "United States",
    "longitude": -70.09605519,
    "latitude": 44.02012732,
    "phone": "2072001324",
    "website_url": "http://www.bearbonesbeer.com",
    "state": "Maine",
    "street": "43 Lisbon St"
  },
  {
    "id": "09e6754a-6a78-486d-8baf-e47ea63612f7",
    "name": "Bear Chase Brewing Company",
    "brewery_type": "planning",
    "address_1": null,
    "address_2": null,
    "address_3": null,
    "city": "Bluemont",
    "state_province": "Virginia",
    "postal_code": "20135",
    "country": "United States",
    "longitude": null,
    "latitude": null,
    "phone": null,
    "website_url": null,
    "state": "Virginia",
    "street": null
  },
  {
    "id": "c682b36a-29b9-429f-b109-e75251bb6cd8",
    "name": "Bear Creek Brews",
    "brewery_type": "micro",
    "address_1": "10538 Nc 902 Hwy",
    "address_2": null,
    "address_3": null,
    "city": "Bear Creek",
    "state_province": "North Carolina",
    "postal_code": "27207-9269",
    "country": "United States",
    "longitude": null,
    "latitude": null,
    "phone": "9192003930",
    "website_url": "http://www.bearcreekbrews.com",
    "state": "North Carolina",
    "street": "10538 Nc 902 Hwy"
  },
  {
    "id": "7ce869c5-a47a-4bab-ac9f-775ee05a0a2e",
    "name": "Bear Island Brewing Company",
    "brewery_type": "micro",
    "address_1": "1620 N Liberty St",
    "address_2": null,
    "address_3": null,
    "city": "Boise",
    "state_province": "Idaho",
    "postal_code": "83704-7739",
    "country": "United States",
    "longitude": -116.260854,
    "latitude": 43.620592,
    "phone": "2089082496",
    "website_url": "http://www.bearislandbrewing.com",
    "state": "Idaho",
    "street": "1620 N Liberty St"
  },
  {
    "id": "c316f64a-b4d1-40f5-a5b3-65cc2498cbc5",
    "name": "Bear Republic Brewing Co",
    "brewery_type": "regional",
    "address_1": "345 Healdsburg Ave",
    "address_2": null,
    "address_3": null,
    "city": "Healdsburg",
    "state_province": "California",
    "postal_code": "95448-4105",
    "country": "United States",
    "longitude": -122.8713046,
    "latitude": 38.6110317,
    "phone": "7074332337",
    "website_url": "http://www.bearrepublic.com",
    "state": "California",
    "street": "345 Healdsburg Ave"
  },
  {
    "id": "13209af8-ee4b-40f6-8396-17ecb6ff09ff",
    "name": "Bear Republic Brewing Co - Production facility",
    "brewery_type": "regional",
    "address_1": "110 Sandholm Ln Ste 10",
    "address_2": null,
    "address_3": null,
    "city": "Cloverdale",
    "state_province": "California",
    "postal_code": "95425-4439",
    "country": "United States",
    "longitude": -123.0108285,
    "latitude": 38.78169817,
    "phone": "7078942722",
    "website_url": "http://www.bearrepublic.com",
    "state": "California",
    "street": "110 Sandholm Ln Ste 10"
  },
  {
    "id": "9d17cc50-aa5b-41a1-9aa7-2ae4dd82e743",
    "name": "Bear Republic Brewing Co Pub & Restaurant - Lakeside",
    "brewery_type": "brewpub",
    "address_1": "5000 Roberts Lake Rd",
    "address_2": null,
    "address_3": null,
    "city": "Rohnert Park",
    "state_province": "California",
    "postal_code": "94928",
    "country": "United States",
    "longitude": -122.7101405,
    "latitude": 38.3649703,
    "phone": "7075852722",
    "website_url": "http://bearrepublic.com",
    "state": "California",
    "street": "5000 Roberts Lake Rd"
  },
  {
    "id": "05d9957f-92a7-4616-baeb-9f85fa170f22",
    "name": "Bear Roots Brewing Company",
    "brewery_type": "micro",
    "address_1": "1213 S Santa Fe Ave",
    "address_2": null,
    "address_3": null,
    "city": "Vista",
    "state_province": "California",
    "postal_code": "92083-7230",
    "country": "United States",
    "longitude": -117.226238,
    "latitude": 33.188251,
    "phone": "7607264204",
    "website_url": "http://www.bearrootsbrewing.com",
    "state": "California",
    "street": "1213 S Santa Fe Ave"
  },
  {
    "id": "a24f319e-eb59-4658-b104-3437dbb34068",
    "name": "Beara Brewing Co.",
    "brewery_type": "micro",
    "address_1": "2800 Lafayette Rd",
    "address_2": null,
    "address_3": null,
    "city": "Portsmouth",
    "state_province": "New Hampshire",
    "postal_code": "03801-5915",
    "country": "United States",
    "longitude": -70.790732,
    "latitude": 43.027935,
    "phone": "3475780585",
    "website_url": "http://www.bearairishbrew.com",
    "state": "New Hampshire",
    "street": "2800 Lafayette Rd"
  },
  {
    "id": "cfd1342e-ac6e-4c57-9d5c-c120c6d7468b",
    "name": "Beard Engine Brewing Co",
    "brewery_type": "micro",
    "address_1": "208 Main St",
    "address_2": null,
    "address_3": null,
    "city": "Alba",
    "state_province": "Missouri",
    "postal_code": "64830",
    "country": "United States",
    "longitude": -94.418276,
    "latitude": 37.248046,
    "phone": "4174830709",
    "website_url": null,
    "state": "Missouri",
    "street": "208 Main St"
  },
  {
    "id": "3a8c6632-e9df-4d42-9adb-a2cb5c6863c8",
    "name": "Bearded Fox Brewing Co.",
    "brewery_type": "micro",
    "address_1": "11729 Spring Cypress Rd Ste R",
    "address_2": null,
    "address_3": null,
    "city": "Tomball",
    "state_province": "Texas",
    "postal_code": "77377-6063",
    "country": "United States",
    "longitude": null,
    "latitude": null,
    "phone": "8327617928",
    "website_url": "http://www.beardedfoxbrewing.com",
    "state": "Texas",
    "street": "11729 Spring Cypress Rd Ste R"
  },
  {
    "id": "667547fa-dcf1-4b05-9f59-53c6c7a24847",
    "name": "Bearded Iris Brewing",
    "brewery_type": "micro",
    "address_1": "101 Van Buren St",
    "address_2": null,
    "address_3": null,
    "city": "Nashville",
    "state_province": "Tennessee",
    "postal_code": "37208-1719",
    "country": "United States",
    "longitude": -86.786174,
    "latitude": 36.181424,
    "phone": "6159287988",
    "website_url": "http://www.beardedirisbrewing.com",
    "state": "Tennessee",
    "street": "101 Van Buren St"
  },
  {
    "id": "6bece4ab-f1f5-487e-a326-150ee9487d0b",
    "name": "Bearded Owl Brewing",
    "brewery_type": "brewpub",
    "address_1": "112 State St Ste 1A",
    "address_2": null,
    "address_3": null,
    "city": "Peoria",
    "state_province": "Illinois",
    "postal_code": "61602-5121",
    "country": "United States",
    "longitude": null,
    "latitude": null,
    "phone": "3093601980",
    "website_url": null,
    "state": "Illinois",
    "street": "112 State St Ste 1A"
  },
  {
    "id": "b4e2e758-52bb-4745-b36a-6732aae2a4c2",
    "name": "Beards Brewery",
    "brewery_type": "brewpub",
    "address_1": "215 E Lake St",
    "address_2": null,
    "address_3": null,
    "city": "Petoskey",
    "state_province": "Michigan",
    "postal_code": "49770-2415",
    "country": "United States",
    "longitude": -84.95425838,
    "latitude": 45.37533801,
    "phone": "2317532221",
    "website_url": "http://www.beardsbrewery.com",
    "state": "Michigan",
    "street": "215 E Lake St"
  },
  {
    "id": "882b9abc-a864-42f2-9cc3-f35286b0aaec",
    "name": "Beards Brewery Production Facility",
    "brewery_type": "micro",
    "address_1": "6328 Ferry Ave",
    "address_2": null,
    "address_3": null,
    "city": "Charlevoix",
    "state_province": "Michigan",
    "postal_code": "49720-9504",
    "country": "United States",
    "longitude": -85.249116,
    "latitude": 45.304738,
    "phone": null,
    "website_url": null,
    "state": "Michigan",
    "street": "6328 Ferry Ave"
  },
  {
    "id": "9ba20e75-2968-42ad-b08d-8241c134deeb",
    "name": "Beardslee Public House",
    "brewery_type": "brewpub",
    "address_1": "19116 Beardslee Blvd Ste 201",
    "address_2": null,
    "address_3": null,
    "city": "Bothell",
    "state_province": "Washington",
    "postal_code": "98011-0202",
    "country": "United States",
    "longitude": -122.1914046,
    "latitude": 47.7663209,
    "phone": "4252861001",
    "website_url": "https://beardsleeph.com",
    "state": "Washington",
    "street": "19116 Beardslee Blvd Ste 201"
  },
  {
    "id": "b534a072-f086-416b-bfce-3efdcba1784b",
    "name": "Bearpaw River Brewing Co",
    "brewery_type": "micro",
    "address_1": "4605 E Palmer Wasilla Hwy",
    "address_2": null,
    "address_3": null,
    "city": "Wasilla",
    "state_province": "Alaska",
    "postal_code": "99654-7679",
    "country": "United States",
    "longitude": -149.4127103,
    "latitude": 61.5752695,
    "phone": null,
    "website_url": "http://bearpawriverbrewing.com",
    "state": "Alaska",
    "street": "4605 E Palmer Wasilla Hwy"
  },
  {
    "id": "a2a4f05a-7e2d-4b7c-a22f-45f90db7d334",
    "name": "BearWaters Brewing Co",
    "brewery_type": "brewpub",
    "address_1": "101 Park St",
    "address_2": null,
    "address_3": null,
    "city": "Canton",
    "state_province": "North Carolina",
    "postal_code": "28716-4319",
    "country": "United States",
    "longitude": -82.843001,
    "latitude": 35.53137,
    "phone": "8282734200",
    "website_url": "http://www.bwbrewing.com",
    "state": "North Carolina",
    "street": "101 Park St"
  },
  {
    "id": "713bb4bb-a85b-490f-aae2-9d08fcdc094f",
    "name": "Beaver Beer Co",
    "brewery_type": "contract",
    "address_1": "307 Greens Farms Rd",
    "address_2": null,
    "address_3": null,
    "city": "Westport",
    "state_province": "Connecticut",
    "postal_code": "06880-6227",
    "country": "United States",
    "longitude": -73.311685,
    "latitude": 41.12587,
    "phone": null,
    "website_url": "http://www.beaverbeer.com",
    "state": "Connecticut",
    "street": "307 Greens Farms Rd"
  },
  {
    "id": "571e446c-b17d-40ba-98b1-a60daa9bb961",
    "name": "Beaver Brewery At Mo's Place",
    "brewery_type": "brewpub",
    "address_1": "1908 Elm St",
    "address_2": null,
    "address_3": null,
    "city": "Beaver",
    "state_province": "Kansas",
    "postal_code": "67525-9231",
    "country": "United States",
    "longitude": -98.667933,
    "latitude": 38.639049,
    "phone": "6205872350",
    "website_url": "http://www.mosbrewpub.com",
    "state": "Kansas",
    "street": "1908 Elm St"
  },
  {
    "id": "c0b53d0f-5c81-435b-920d-a193e02e1b73",
    "name": "Beaver Brewing Co",
    "brewery_type": "brewpub",
    "address_1": "1820 7th Ave",
    "address_2": null,
    "address_3": null,
    "city": "Beaver Falls",
    "state_province": "Pennsylvania",
    "postal_code": "15010-4001",
    "country": "United States",
    "longitude": -80.3192793,
    "latitude": 40.7650557,
    "phone": null,
    "website_url": "http://www.beaverbrewingcompany.com",
    "state": "Pennsylvania",
    "street": "1820 7th Ave"
  },
  {
    "id": "ef663619-6faa-4478-b754-c54f6f5cc823",
    "name": "Beaver Creek Brewery",
    "brewery_type": "micro",
    "address_1": "104 W Oregon Ave",
    "address_2": null,
    "address_3": null,
    "city": "Wibaux",
    "state_province": "Montana",
    "postal_code": "59353-8001",
    "country": "United States",
    "longitude": null,
    "latitude": null,
    "phone": "4067952337",
    "website_url": "http://www.beavercreekbrewery.com",
    "state": "Montana",
    "street": "104 W Oregon Ave"
  },
  {
    "id": "2ca3add8-8d9b-4195-a269-5cc0d4afcc07",
    "name": "Beaver Island Brewing Company",
    "brewery_type": "micro",
    "address_1": "216 6th Ave S",
    "address_2": null,
    "address_3": null,
    "city": "Saint Cloud",
    "state_province": "Minnesota",
    "postal_code": "56301-4304",
    "country": "United States",
    "longitude": -94.15733312,
    "latitude": 45.5585455,
    "phone": "3202535907",
    "website_url": "http://www.beaverislandbrew.com",
    "state": "Minnesota",
    "street": "216 6th Ave S"
  },
  {
    "id": "92089237-a5bc-40cc-b7c8-b666f1db822a",
    "name": "Beaver Street Brewery",
    "brewery_type": "brewpub",
    "address_1": "11 S Beaver St Ste 1",
    "address_2": null,
    "address_3": null,
    "city": "Flagstaff",
    "state_province": "Arizona",
    "postal_code": "86001-5500",
    "country": "United States",
    "longitude": null,
    "latitude": null,
    "phone": "9287790079",
    "website_url": "http://www.beaverstreetbrewery.com",
    "state": "Arizona",
    "street": "11 S Beaver St Ste 1"
  },
  {
    "id": "4fc62fdf-21cf-4b30-9f08-f40ee4ffac46",
    "name": "Beaverhead Brewing Co",
    "brewery_type": "micro",
    "address_1": "218 S Montana St",
    "address_2": null,
    "address_3": null,
    "city": "Dillon",
    "state_province": "Montana",
    "postal_code": "59725-2438",
    "country": "United States",
    "longitude": -112.6396875,
    "latitude": 45.21575351,
    "phone": "4069880011",
    "website_url": "http://www.beaverheadbeer.com",
    "state": "Montana",
    "street": "218 S Montana St"
  },
  {
    "id": "40b45277-e99b-4068-894b-b4fb9fbf987f",
    "name": "Beavers Bend Brewery",
    "brewery_type": "micro",
    "address_1": "46 Coho Rd",
    "address_2": null,
    "address_3": null,
    "city": "Broken Bow",
    "state_province": "Oklahoma",
    "postal_code": "74728-6765",
    "country": "United States",
    "longitude": -94.7595504,
    "latitude": 34.1658072,
    "phone": "5804943455",
    "website_url": "http://www.beaversbendbrewery.com",
    "state": "Oklahoma",
    "street": "46 Coho Rd"
  },
  {
    "id": "0b77f859-3790-499b-9d8a-13cb628363d8",
    "name": "Bedlam Brewery Ltd",
    "brewery_type": "micro",
    "address_1": "Plumpton Green",
    "address_2": null,
    "address_3": null,
    "city": "Lewes",
    "state_province": "East Sussex",
    "postal_code": "BN7 3DH",
    "country": "England",
    "longitude": -0.068698,
    "latitude": 50.948125,
    "phone": "1273978015",
    "website_url": "https://bedlambrewery.co.uk/",
    "state": "East Sussex",
    "street": "Plumpton Green"
  },
  {
    "id": "047d4126-a132-4123-8e9a-aba351f31031",
    "name": "Bedlam Brewing LLC",
    "brewery_type": "brewpub",
    "address_1": "2303 N Augusta St",
    "address_2": null,
    "address_3": null,
    "city": "Staunton",
    "state_province": "Virginia",
    "postal_code": "24401-2597",
    "country": "United States",
    "longitude": -79.05582568,
    "latitude": 38.16800319,
    "phone": "5402211305",
    "website_url": "http://www.facebook.com/Bedlam-Brewing-536957559822021",
    "state": "Virginia",
    "street": "2303 N Augusta St"
  },
  {
    "id": "53d076da-4ee2-491f-9513-f2bee77c3688",
    "name": "Bee's Knees Ale House",
    "brewery_type": "brewpub",
    "address_1": "106 W Jasper St",
    "address_2": null,
    "address_3": null,
    "city": "Versailles",
    "state_province": "Missouri",
    "postal_code": "65084",
    "country": "United States",
    "longitude": -92.835774,
    "latitude": 38.479374,
    "phone": "5735392525",
    "website_url": null,
    "state": "Missouri",
    "street": "106 W Jasper St"
  },
  {
    "id": "4e43ccbc-bc47-405d-a48b-1d928c5ca462",
    "name": "Beech Mountain Brewing Company",
    "brewery_type": "micro",
    "address_1": "1007 Beech Mountain Pkwy",
    "address_2": null,
    "address_3": null,
    "city": "Beech Mountain",
    "state_province": "North Carolina",
    "postal_code": "28604-8018",
    "country": "United States",
    "longitude": -81.873356,
    "latitude": 36.16819584,
    "phone": "8283872011",
    "website_url": "http://www.beechmountainresort.com",
    "state": "North Carolina",
    "street": "1007 Beech Mountain Pkwy"
  },
  {
    "id": "a0adf1e8-ce6a-4c06-a605-434032d6fa18",
    "name": "Beehive Basin Brewery",
    "brewery_type": "micro",
    "address_1": "245 Town Center Ave",
    "address_2": null,
    "address_3": null,
    "city": "Big Sky",
    "state_province": "Montana",
    "postal_code": "59716",
    "country": "United States",
    "longitude": -111.3037009,
    "latitude": 45.259632,
    "phone": "4069957444",
    "website_url": "http://www.beehivebasinbrewery.com",
    "state": "Montana",
    "street": "245 Town Center Ave"
  },
  {
    "id": "98b4c7f1-cdf7-465b-a41c-ab456bfd6a61",
    "name": "Beer Army",
    "brewery_type": "brewpub",
    "address_1": null,
    "address_2": null,
    "address_3": null,
    "city": "New Bern",
    "state_province": "North Carolina",
    "postal_code": "28564-3051",
    "country": "United States",
    "longitude": null,
    "latitude": null,
    "phone": "2522885814",
    "website_url": null,
    "state": "North Carolina",
    "street": null
  },
  {
    "id": "d5fd0450-160c-444f-a9b3-e027aed21cf4",
    "name": "Beer By Design Brewery",
    "brewery_type": "contract",
    "address_1": "11490 Jackson St",
    "address_2": null,
    "address_3": null,
    "city": "Thornton",
    "state_province": "Colorado",
    "postal_code": "80233-2533",
    "country": "United States",
    "longitude": -104.9417886,
    "latitude": 39.9285623,
    "phone": "3035172202",
    "website_url": "http://www.beerbydesign.com",
    "state": "Colorado",
    "street": "11490 Jackson St"
  },
  {
    "id": "4d71267a-d27f-4322-afc6-403e860fc107",
    "name": "Beer Church Brewing Company",
    "brewery_type": "contract",
    "address_1": "24 S Whittaker St",
    "address_2": null,
    "address_3": null,
    "city": "New Buffalo",
    "state_province": "Michigan",
    "postal_code": "49117-1820",
    "country": "United States",
    "longitude": -86.74311848,
    "latitude": 41.79322148,
    "phone": "2192413876",
    "website_url": "http://www.beerchurchbrewing.com",
    "state": "Michigan",
    "street": "24 S Whittaker St"
  },
  {
    "id": "d137a8cd-c65a-42c7-b537-b6e98b46c7af",
    "name": "Beer Engine",
    "brewery_type": "micro",
    "address_1": "107 Larrimore Ln",
    "address_2": null,
    "address_3": null,
    "city": "Danville",
    "state_province": "Kentucky",
    "postal_code": "40422-1674",
    "country": "United States",
    "longitude": -84.771328,
    "latitude": 37.6481,
    "phone": "5024035680",
    "website_url": "http://www.kybeerengine.com",
    "state": "Kentucky",
    "street": "107 Larrimore Ln"
  },
  {
    "id": "ccad31bf-f381-4f58-a204-993f59e3029f",
    "name": "Beer Hound Brewery",
    "brewery_type": "contract",
    "address_1": "201 Waters Pl Apt 102",
    "address_2": null,
    "address_3": null,
    "city": "Culpeper",
    "state_province": "Virginia",
    "postal_code": "22701-3102",
    "country": "United States",
    "longitude": null,
    "latitude": null,
    "phone": "5403175327",
    "website_url": null,
    "state": "Virginia",
    "street": "201 Waters Pl Apt 102"
  },
  {
    "id": "1bfba23f-2815-4f28-9d5d-37bca2306903",
    "name": "Beer Is Good Brewing Company",
    "brewery_type": "micro",
    "address_1": "216 E Main",
    "address_2": null,
    "address_3": null,
    "city": "Norman",
    "state_province": "Oklahoma",
    "postal_code": "73069",
    "country": "United States",
    "longitude": -97.4411294,
    "latitude": 35.2216069,
    "phone": "4058577080",
    "website_url": "http://bigbrew.co",
    "state": "Oklahoma",
    "street": "216 E Main"
  },
  {
    "id": "bf244193-89cd-4321-906c-abda26f7199d",
    "name": "Beer Lab HI",
    "brewery_type": "micro",
    "address_1": "1010 University Ave Ste B1",
    "address_2": null,
    "address_3": null,
    "city": "Honolulu",
    "state_province": "Hawaii",
    "postal_code": "96826-1537",
    "country": "United States",
    "longitude": -157.8218784,
    "latitude": 21.29214406,
    "phone": "8088880913",
    "website_url": "http://www.beerlabhi.com",
    "state": "Hawaii",
    "street": "1010 University Ave Ste B1"
  },
  {
    "id": "bb4ba62d-f718-46d1-929b-3a8b4e96b80c",
    "name": "Beer Me Brewery",
    "brewery_type": "brewpub",
    "address_1": "Grand Parade",
    "address_2": null,
    "address_3": null,
    "city": "Eastbourne",
    "state_province": "East Sussex",
    "postal_code": "BN21 3YN",
    "country": "England",
    "longitude": 0.291598,
    "latitude": 50.767006,
    "phone": "1323729967",
    "website_url": "https://beermebrewery.co.uk/",
    "state": "East Sussex",
    "street": "Grand Parade"
  },
  {
    "id": "3c2c022b-b5c3-438e-b7fc-67b76b715f86",
    "name": "Beer Naked Brewery",
    "brewery_type": "brewpub",
    "address_1": "7678 VT-RTE 9",
    "address_2": null,
    "address_3": null,
    "city": "Marlboro",
    "state_province": "Vermont",
    "postal_code": "05344",
    "country": "United States",
    "longitude": null,
    "latitude": null,
    "phone": "8024647702",
    "website_url": "http://www.beernakedbrewery.com",
    "state": "Vermont",
    "street": "7678 VT-RTE 9"
  },
  {
    "id": "a8a27ab9-3403-4fa9-a852-ceb6fe938af4",
    "name": "Beer On Earth",
    "brewery_type": "micro",
    "address_1": "425 W Fountain St #104",
    "address_2": null,
    "address_3": null,
    "city": "Providence",
    "state_province": "Rhode Island",
    "postal_code": "02903",
    "country": "United States",
    "longitude": -71.4238514,
    "latitude": 41.8189698,
    "phone": "4018850580",
    "website_url": "http://www.beeronearth.com",
    "state": "Rhode Island",
    "street": "425 W Fountain St #104"
  },
  {
    "id": "7aa429f1-a3c8-4ff8-b2c3-18a451dee621",
    "name": "Beer Religion",
    "brewery_type": "planning",
    "address_1": null,
    "address_2": null,
    "address_3": null,
    "city": "Winter Park",
    "state_province": "Florida",
    "postal_code": "32792-5111",
    "country": "United States",
    "longitude": null,
    "latitude": null,
    "phone": null,
    "website_url": null,
    "state": "Florida",
    "street": null
  },
  {
    "id": "2d71ef89-cdf4-4e5a-b862-14aca5e47c93",
    "name": "Beer Research Institute, The",
    "brewery_type": "brewpub",
    "address_1": "1641 S Stateley Dr Ste 104",
    "address_2": null,
    "address_3": null,
    "city": "Mesa",
    "state_province": "Arizona",
    "postal_code": "85204",
    "country": "United States",
    "longitude": null,
    "latitude": null,
    "phone": "4808922020",
    "website_url": "http://www.bri.beer",
    "state": "Arizona",
    "street": "1641 S Stateley Dr Ste 104"
  },
  {
    "id": "3e53001e-282d-4c9e-970e-0dfc10173651",
    "name": "Beer stand MARCA",
    "brewery_type": "brewpub",
    "address_1": "1-1-14 Sangenyanishi",
    "address_2": null,
    "address_3": null,
    "city": "Osaka",
    "state_province": "Osaka",
    "postal_code": "551-0001",
    "country": "Japan",
    "longitude": 135.4799445,
    "latitude": 34.66768998,
    "phone": "818021106099",
    "website_url": "https://beermarca.jp/",
    "state": "Osaka",
    "street": "1-1-14 Sangenyanishi"
  },
  {
    "id": "0d1319b0-3903-4e0d-88a1-7994da395a3c",
    "name": "Beer Thug Brewing Company",
    "brewery_type": "micro",
    "address_1": "4400 Gage Ave",
    "address_2": null,
    "address_3": null,
    "city": "Bell",
    "state_province": "California",
    "postal_code": "90201",
    "country": "United States",
    "longitude": -118.18860164471,
    "latitude": 33.978161447335,
    "phone": "2133068955",
    "website_url": "https://www.beerthugbrew.com/",
    "state": "California",
    "street": "4400 Gage Ave"
  },
  {
    "id": "36e42b14-6bb0-4bba-b9d4-662def2778a6",
    "name": "Beer Tree Brew Co",
    "brewery_type": "micro",
    "address_1": "197 Rte 369",
    "address_2": null,
    "address_3": null,
    "city": "Port Crane",
    "state_province": "New York",
    "postal_code": "13833",
    "country": "United States",
    "longitude": null,
    "latitude": null,
    "phone": null,
    "website_url": "http://www.beertreebrew.com",
    "state": "New York",
    "street": "197 Rte 369"
  },
  {
    "id": "b2acd8dd-3606-4794-bddb-db8e476f5ef2",
    "name": "Beer Valley Brewing Co",
    "brewery_type": "micro",
    "address_1": "937 SE 12th Ave",
    "address_2": null,
    "address_3": null,
    "city": "Ontario",
    "state_province": "Oregon",
    "postal_code": "97914-4473",
    "country": "United States",
    "longitude": -116.9539806,
    "latitude": 44.01504307,
    "phone": "5418819088",
    "website_url": "http://www.beervalleybrewing.com",
    "state": "Oregon",
    "street": "937 SE 12th Ave"
  },
  {
    "id": "cbce47ad-2da8-4de9-806f-9c8e3fb39f76",
    "name": "Beerded Brothers Brewing",
    "brewery_type": "closed",
    "address_1": "106 W 6th St",
    "address_2": null,
    "address_3": null,
    "city": "Vancouver",
    "state_province": "Washington",
    "postal_code": "98660",
    "country": "United States",
    "longitude": -122.6718911,
    "latitude": 45.62576802,
    "phone": "3606065806",
    "website_url": "http://www.beerdedbrothers.net",
    "state": "Washington",
    "street": "106 W 6th St"
  },
  {
    "id": "09c40072-dae9-445b-a8e5-574ac4c9371a",
    "name": "Beerfoot Beach Bar",
    "brewery_type": "micro",
    "address_1": "2816 Avenue R 1/2",
    "address_2": null,
    "address_3": null,
    "city": "Galveston",
    "state_province": "Texas",
    "postal_code": "77550-7742",
    "country": "United States",
    "longitude": null,
    "latitude": null,
    "phone": "4097622337",
    "website_url": "http://www.yagaspresents.com/beerfoot/index.html",
    "state": "Texas",
    "street": "2816 Avenue R 1/2"
  },
  {
    "id": "01883283-4a13-4857-9aad-e06298863ff3",
    "name": "Begyle Brewing",
    "brewery_type": "micro",
    "address_1": "1800 W Cuyler Ave Ste 1E",
    "address_2": null,
    "address_3": null,
    "city": "Chicago",
    "state_province": "Illinois",
    "postal_code": "60613-3892",
    "country": "United States",
    "longitude": null,
    "latitude": null,
    "phone": "7736616963",
    "website_url": "http://www.begylebrewing.com",
    "state": "Illinois",
    "street": "1800 W Cuyler Ave Ste 1E"
  }
]