[
  {
    "id": "8bf7e66c-cc29-473a-adf8-b63cf5cc3e69",
    "name": "Braindead Brewing",
    "brewery_type": "brewpub",
    "address_1": "2625 Main St",
    "address_2": null,
    "address_3": null,
    "city": "Dallas",
    "state_province": "Texas",
    "postal_code": "75226-1411",
    "country": "United States",
    "longitude": -96.7854202,
    "latitude": 32.7838067,
    "phone": "4692869005",
    "website_url": "http://www.braindeadbrewing.com",
    "state": "Texas",
    "street": "2625 Main St"
  },
  {
    "id": "fb57bce5-e778-441a-bb33-335fda062351",
    "name": "Branagan's Brewery LLC",
    "brewery_type": "planning",
    "address_1": null,
    "address_2": null,
    "address_3": null,
    "city": "Sandy",
    "state_province": "Utah",
    "postal_code": "84092-3902",
    "country": "United States",
    "longitude": null,
    "latitude": null,
    "phone": "8018086491",
    "website_url": "http://www.branagansbrewery.com",
    "state": "Utah",
    "street": null
  },
  {
    "id": "81500d43-53c1-4643-a63f-4a7809e93494",
    "name": "Branch & Bone Artisan Ales",
    "brewery_type": "micro",
    "address_1": "905 Wayne Ave",
    "address_2": null,
    "address_3": null,
    "city": "Dayton",
    "state_province": "Ohio",
    "postal_code": "45410-1247",
    "country": "United States",
    "longitude": -84.17723419,
    "latitude": 39.75223085,
    "phone": "9377237608",
    "website_url": "http://www.branchandboneales.com",
    "state": "Ohio",
    "street": "905 Wayne Ave"
  },
  {
    "id": "3fa1aa68-187c-40cd-8add-16217f46b8b4",
    "name": "Branch and Blade Brewing Company",
    "brewery_type": "micro",
    "address_1": "17 Bradco Street",
    "address_2": null,
    "address_3": null,
    "city": "Keene",
    "state_province": "New Hampshire",
    "postal_code": "03431-4094",
    "country": "United States",
    "longitude": -72.29685082,
    "latitude": 42.9185404,
    "phone": "6033543478",
    "website_url": "http://babbrewingstore.square.site/",
    "state": "New Hampshire",
    "street": "17 Bradco Street"
  },
  {
    "id": "fd53e0a1-4115-4ebf-938b-e57335d40bbd",
    "name": "Branchline Brewing Company",
    "brewery_type": "closed",
    "address_1": "3633 Metro Pkwy",
    "address_2": null,
    "address_3": null,
    "city": "San Antonio",
    "state_province": "Texas",
    "postal_code": "78247-3502",
    "country": "United States",
    "longitude": null,
    "latitude": null,
    "phone": "3612908817",
    "website_url": "http://www.branchlinebrewing.com",
    "state": "Texas",
    "street": "3633 Metro Pkwy"
  },
  {
    "id": "b5afc4b3-221a-49d5-8e55-c6a374ea45d2",
    "name": "Braselton Brewing Company",
    "brewery_type": "planning",
    "address_1": null,
    "address_2": null,
    "address_3": null,
    "city": "Braselton",
    "state_province": "Georgia",
    "postal_code": "30517",
    "country": "United States",
    "longitude": null,
    "latitude": null,
    "phone": "7068701458",
    "website_url": null,
    "state": "Georgia",
    "street": null
  },
  {
    "id": "43c4cb4d-476d-4fce-989b-824dcc289d8f",
    "name": "Brash",
    "brewery_type": "micro",
    "address_1": "508 W Crosstimbers St",
    "address_2": null,
    "address_3": null,
    "city": "Houston",
    "state_province": "Texas",
    "postal_code": "77018-5521",
    "country": "United States",
    "longitude": -95.40974166,
    "latitude": 29.82727538,
    "phone": null,
    "website_url": "http://www.brashbeers.com",
    "state": "Texas",
    "street": "508 W Crosstimbers St"
  },
  {
    "id": "b1730024-0cb6-4c63-9f4e-8b3d97b85378",
    "name": "Brass Brewing Company",
    "brewery_type": "micro",
    "address_1": "318 E Colorado Ave",
    "address_2": null,
    "address_3": null,
    "city": "Colorado Springs",
    "state_province": "Colorado",
    "postal_code": "80903-1949",
    "country": "United States",
    "longitude": -104.8189706,
    "latitude": 38.8326073,
    "phone": null,
    "website_url": null,
    "state": "Colorado",
    "street": "318 E Colorado Ave"
  },
  {
    "id": "f7dcf65f-f9cc-4996-9b0d-3c212bb42c52",
    "name": "Brass Cannon Brewing",
    "brewery_type": "micro",
    "address_1": "5476 Mooretown Rd",
    "address_2": null,
    "address_3": null,
    "city": "Williamsburg",
    "state_province": "Virginia",
    "postal_code": "23188-2108",
    "country": "United States",
    "longitude": null,
    "latitude": null,
    "phone": "7575660001",
    "website_url": "http://www.brasscannonbrewing.com",
    "state": "Virginia",
    "street": "5476 Mooretown Rd"
  },
  {
    "id": "f5d52737-490c-48c3-9da4-eff851e726f1",
    "name": "Brass Foundry Brewing Co.",
    "brewery_type": "micro",
    "address_1": "8441 Wayzata Blvd Ste 290",
    "address_2": null,
    "address_3": null,
    "city": "Minneapolis",
    "state_province": "Minnesota",
    "postal_code": "55426",
    "country": "United States",
    "longitude": null,
    "latitude": null,
    "phone": "7633504153",
    "website_url": "http://www.brassfoundrybrewing.com",
    "state": "Minnesota",
    "street": "8441 Wayzata Blvd Ste 290"
  },
  {
    "id": "2de96915-c8c4-478d-ad67-0c8aa5828ab4",
    "name": "Brass Ring Brewery",
    "brewery_type": "brewpub",
    "address_1": "2404 Eastern Ave SE",
    "address_2": null,
    "address_3": null,
    "city": "Grand Rapids",
    "state_province": "Michigan",
    "postal_code": "49507-3632",
    "country": "United States",
    "longitude": -85.64741488,
    "latitude": 42.91987422,
    "phone": "6164601587",
    "website_url": "http://www.brassringbrewing.com",
    "state": "Michigan",
    "street": "2404 Eastern Ave SE"
  },
  {
    "id": "a07b2855-4e8f-48f2-b7b1-9563f007fca3",
    "name": "Brass Works Brewing Company LLC",
    "brewery_type": "micro",
    "address_1": "2066 Thomaston Ave",
    "address_2": null,
    "address_3": null,
    "city": "Waterbury",
    "state_province": "Connecticut",
    "postal_code": "06704-1038",
    "country": "United States",
    "longitude": -73.05753662,
    "latitude": 41.59747633,
    "phone": "2035276223",
    "website_url": "http://www.brassworksbrewing.com",
    "state": "Connecticut",
    "street": "2066 Thomaston Ave"
  },
  {
    "id": "887aaeec-884a-4a60-986a-daf4333cca08",
    "name": "Brasserie L'Etrange",
    "brewery_type": "planning",
    "address_1": null,
    "address_2": null,
    "address_3": null,
    "city": "Prairieville",
    "state_province": "Louisiana",
    "postal_code": "70769-6114",
    "country": "United States",
    "longitude": null,
    "latitude": null,
    "phone": "2258002337",
    "website_url": null,
    "state": "Louisiana",
    "street": null
  },
  {
    "id": "27db60fa-fed9-40c9-9603-3c4fe5e2bfac",
    "name": "Brasserie Saint James",
    "brewery_type": "brewpub",
    "address_1": "901 S Center St",
    "address_2": null,
    "address_3": null,
    "city": "Reno",
    "state_province": "Nevada",
    "postal_code": "89501-2307",
    "country": "United States",
    "longitude": -119.8074531,
    "latitude": 39.51655075,
    "phone": "7753488888",
    "website_url": "http://www.brasseriesaintjames.com",
    "state": "Nevada",
    "street": "901 S Center St"
  },
  {
    "id": "8f5fba6f-f57d-46d3-99ce-4f2657f8f955",
    "name": "Brasserie Saint James - The Saint Barrelhouse",
    "brewery_type": "micro",
    "address_1": "761 S. Virginia St",
    "address_2": null,
    "address_3": null,
    "city": "Reno",
    "state_province": "Nevada",
    "postal_code": "89501-2307",
    "country": "United States",
    "longitude": -119.8090037,
    "latitude": 39.5173316,
    "phone": "7753488888",
    "website_url": null,
    "state": "Nevada",
    "street": "761 S. Virginia St"
  },
  {
    "id": "f55a16cf-5ce0-46d4-a5eb-8240c01721f7",
    "name": "Brau Brothers Brewing Co",
    "brewery_type": "micro",
    "address_1": "1010 E Southview Dr",
    "address_2": null,
    "address_3": null,
    "city": "Marshall",
    "state_province": "Minnesota",
    "postal_code": "56258-2401",
    "country": "United States",
    "longitude": -95.77836474,
    "latitude": 44.43647118,
    "phone": "5077472337",
    "website_url": "http://www.braubeer.com",
    "state": "Minnesota",
    "street": "1010 E Southview Dr"
  },
  {
    "id": "a6e8b0d5-d8ba-4206-bd8b-31c1e8cf1061",
    "name": "Brauerei Forst",
    "brewery_type": "large",
    "address_1": "Via Venosta 10",
    "address_2": null,
    "address_3": null,
    "city": "Lagundo",
    "state_province": "Bolzano",
    "postal_code": "39022",
    "country": "Italy",
    "longitude": 46.677512016349,
    "latitude": 11.117459635399,
    "phone": "+39 0473 260 111",
    "website_url": "https://www.forst.it/",
    "state": "Bolzano",
    "street": "Via Venosta 10"
  },
  {
    "id": "3c8d576b-ea2d-4b65-b72b-e6dad5f6451a",
    "name": "Brausch Brewery",
    "brewery_type": "micro",
    "address_1": "1030 S South St",
    "address_2": null,
    "address_3": null,
    "city": "Wilmington",
    "state_province": "Ohio",
    "postal_code": "45177-2924",
    "country": "United States",
    "longitude": -83.83091585,
    "latitude": 39.43274712,
    "phone": "9373022337",
    "website_url": null,
    "state": "Ohio",
    "street": "1030 S South St"
  },
  {
    "id": "83ff5520-de51-442e-87d8-6921ba2dcf0a",
    "name": "Braven Brewing Company",
    "brewery_type": "planning",
    "address_1": null,
    "address_2": null,
    "address_3": null,
    "city": "Brooklyn",
    "state_province": "New York",
    "postal_code": "11237",
    "country": "United States",
    "longitude": null,
    "latitude": null,
    "phone": "9292956673",
    "website_url": null,
    "state": "New York",
    "street": null
  },
  {
    "id": "2d36ca84-78df-4614-8f48-69f58bb4e556",
    "name": "Braven Brewing Company",
    "brewery_type": "contract",
    "address_1": "362 Jefferson St # 320",
    "address_2": null,
    "address_3": null,
    "city": "Brooklyn",
    "state_province": "New York",
    "postal_code": "11237-2312",
    "country": "United States",
    "longitude": -73.92464725,
    "latitude": 40.70559895,
    "phone": "9292956673",
    "website_url": "http://www.bravenbrewing.com",
    "state": "New York",
    "street": "362 Jefferson St # 320"
  },
  {
    "id": "b6841bf6-a236-4b83-bb06-769f2742d44a",
    "name": "Bravery Brewing",
    "brewery_type": "micro",
    "address_1": "42705 8th St W",
    "address_2": null,
    "address_3": null,
    "city": "Lancaster",
    "state_province": "California",
    "postal_code": "93534-7184",
    "country": "United States",
    "longitude": -118.1456072,
    "latitude": 34.6582797,
    "phone": "6619514677",
    "website_url": "http://www.braverybrewing.com",
    "state": "California",
    "street": "42705 8th St W"
  },
  {
    "id": "cf316d34-15c7-4e3c-a9d2-c76ee68a7d81",
    "name": "Bravo! Restaurant & Cafe",
    "brewery_type": "brewpub",
    "address_1": "5402 Portage Rd",
    "address_2": null,
    "address_3": null,
    "city": "Portage",
    "state_province": "Michigan",
    "postal_code": "49002-1718",
    "country": "United States",
    "longitude": -85.56023131,
    "latitude": 42.23892918,
    "phone": "2693447700",
    "website_url": "http://www.bravokalamazoo.com",
    "state": "Michigan",
    "street": "5402 Portage Rd"
  },
  {
    "id": "a3e3c312-6c4e-4bf1-b096-d1517e6f0bf5",
    "name": "Brawling Bear",
    "brewery_type": "micro",
    "address_1": "15 Fulks Corner Ave",
    "address_2": null,
    "address_3": null,
    "city": "Gaithersburg",
    "state_province": "Maryland",
    "postal_code": "20877-2067",
    "country": "United States",
    "longitude": null,
    "latitude": null,
    "phone": "2408423272",
    "website_url": "http://www.brawlingbear.com",
    "state": "Maryland",
    "street": "15 Fulks Corner Ave"
  },
  {
    "id": "7ba02a8c-09ee-459f-8bcc-22e89244e857",
    "name": "Braxton Brewing Company",
    "brewery_type": "micro",
    "address_1": "27 W 7th St",
    "address_2": null,
    "address_3": null,
    "city": "Covington",
    "state_province": "Kentucky",
    "postal_code": "41011-2301",
    "country": "United States",
    "longitude": -84.51080761,
    "latitude": 39.08292505,
    "phone": "859615600",
    "website_url": "http://www.braxtonbrewing.com",
    "state": "Kentucky",
    "street": "27 W 7th St"
  },
  {
    "id": "52de8cdc-981e-41ae-a9ea-3f80f8b7ffb1",
    "name": "Braxton Labs",
    "brewery_type": "micro",
    "address_1": "95 Riviera Dr",
    "address_2": null,
    "address_3": null,
    "city": "Bellevue",
    "state_province": "Kentucky",
    "postal_code": "41073-1337",
    "country": "United States",
    "longitude": -84.4872671,
    "latitude": 39.10060941,
    "phone": "859615600",
    "website_url": null,
    "state": "Kentucky",
    "street": "95 Riviera Dr"
  },
  {
    "id": "beebe3c2-f56b-4f0b-ab06-983ac5259c3a",
    "name": "Brazo Fuerte Artisanal Beer",
    "brewery_type": "proprietor",
    "address_1": "15 Main St Ste 125",
    "address_2": null,
    "address_3": null,
    "city": "Watertown",
    "state_province": "Massachusetts",
    "postal_code": "02472-4403",
    "country": "United States",
    "longitude": null,
    "latitude": null,
    "phone": "6176008140",
    "website_url": "http://www.brazofuertebeer.com",
    "state": "Massachusetts",
    "street": "15 Main St Ste 125"
  },
  {
    "id": "1cf71f6d-be03-4c41-894d-b496b5358dfe",
    "name": "Brazos Valley Brewing Company",
    "brewery_type": "micro",
    "address_1": "201 W 1st St",
    "address_2": null,
    "address_3": null,
    "city": "Brenham",
    "state_province": "Texas",
    "postal_code": "77833",
    "country": "United States",
    "longitude": -96.3986627,
    "latitude": 30.16447,
    "phone": "9799871133",
    "website_url": "http://www.brazosvalleybrewery.com",
    "state": "Texas",
    "street": "201 W 1st St"
  },
  {
    "id": "d5768396-cf5b-4a56-8481-294fd49b0b77",
    "name": "Breaker Brewing Company",
    "brewery_type": "brewpub",
    "address_1": "787 E Northampton St",
    "address_2": null,
    "address_3": null,
    "city": "Wilkes Barre",
    "state_province": "Pennsylvania",
    "postal_code": "18702-7521",
    "country": "United States",
    "longitude": -75.8739352,
    "latitude": 41.2338879,
    "phone": null,
    "website_url": null,
    "state": "Pennsylvania",
    "street": "787 E Northampton St"
  },
  {
    "id": "3595f655-43bc-4516-bad6-6b761f21715a",
    "name": "Breaking Point Brewery",
    "brewery_type": "micro",
    "address_1": null,
    "address_2": null,
    "address_3": null,
    "city": "Cleveland Heights",
    "state_province": "Ohio",
    "postal_code": "44121-1706",
    "country": "United States",
    "longitude": null,
    "latitude": null,
    "phone": "2162357411",
    "website_url": null,
    "state": "Ohio",
    "street": null
  },
  {
    "id": "2cae687c-f263-42ef-91e8-e0bfd27148ce",
    "name": "Breaking Waves Brewing",
    "brewery_type": "closed",
    "address_1": "3388 NW Byron St #100",
    "address_2": null,
    "address_3": null,
    "city": "Silverdale",
    "state_province": "Washington",
    "postal_code": "98383",
    "country": "United States",
    "longitude": -122.6956621,
    "latitude": 47.64553955,
    "phone": "3602862670",
    "website_url": "https://breakingwavesbrewing.com",
    "state": "Washington",
    "street": "3388 NW Byron St #100"
  },
  {
    "id": "45249b6e-b1d0-4c2f-a60e-ab483169287f",
    "name": "Breakside Brewery",
    "brewery_type": "brewpub",
    "address_1": "820 NE Dekum St",
    "address_2": null,
    "address_3": null,
    "city": "Portland",
    "state_province": "Oregon",
    "postal_code": "97211-3630",
    "country": "United States",
    "longitude": -122.657117,
    "latitude": 45.5716938,
    "phone": "5037196475",
    "website_url": "http://www.breakside.com",
    "state": "Oregon",
    "street": "820 NE Dekum St"
  },
  {
    "id": "8e2d0758-3a90-41e6-ae8b-14e673e8a383",
    "name": "Breakside Brewery & Taproom",
    "brewery_type": "regional",
    "address_1": "5821 SE International Way",
    "address_2": null,
    "address_3": null,
    "city": "Milwaukie",
    "state_province": "Oregon",
    "postal_code": "97222-4633",
    "country": "United States",
    "longitude": -122.6032529,
    "latitude": 45.4317535,
    "phone": "5037196475",
    "website_url": "http://www.breakside.com",
    "state": "Oregon",
    "street": "5821 SE International Way"
  },
  {
    "id": "63e51d1b-b184-4f69-ac2f-cdda3f09a232",
    "name": "Breakside Brewery Slabtown",
    "brewery_type": "brewpub",
    "address_1": "1570 NW 22nd Ave",
    "address_2": null,
    "address_3": null,
    "city": "Portland",
    "state_province": "Oregon",
    "postal_code": "97210-2369",
    "country": "United States",
    "longitude": -122.6966131,
    "latitude": 45.53384986,
    "phone": "5034447597",
    "website_url": "http://breakside.com",
    "state": "Oregon",
    "street": "1570 NW 22nd Ave"
  },
  {
    "id": "be80fa99-6add-4bbd-87f8-650047882214",
    "name": "Breakwater Brewing Co",
    "brewery_type": "brewpub",
    "address_1": "101 N Coast Hwy Ste C140",
    "address_2": null,
    "address_3": null,
    "city": "Oceanside",
    "state_province": "California",
    "postal_code": "92054-3015",
    "country": "United States",
    "longitude": -117.3791093,
    "latitude": 33.19531474,
    "phone": "7604336064",
    "website_url": "http://www.breakwaterbrewing.com",
    "state": "California",
    "street": "101 N Coast Hwy Ste C140"
  },
  {
    "id": "74633f8b-4260-42f5-8c1d-04eda70a2ecb",
    "name": "Breckenridge Brewery",
    "brewery_type": "large",
    "address_1": "2920 Brewery Ln",
    "address_2": null,
    "address_3": null,
    "city": "Littleton",
    "state_province": "Colorado",
    "postal_code": "80120-2850",
    "country": "United States",
    "longitude": null,
    "latitude": null,
    "phone": "3036232739",
    "website_url": "http://www.breckenridgebrewery.com",
    "state": "Colorado",
    "street": "2920 Brewery Ln"
  },
  {
    "id": "4483d018-611f-4c98-a230-369b6fbe791d",
    "name": "Breckenridge Brewery & Pub",
    "brewery_type": "large",
    "address_1": "600 S Main St",
    "address_2": null,
    "address_3": null,
    "city": "Breckenridge",
    "state_province": "Colorado",
    "postal_code": "80424-0075",
    "country": "United States",
    "longitude": -106.0445665,
    "latitude": 39.47620392,
    "phone": "9704531550",
    "website_url": "http://www.breckbrewpub.com",
    "state": "Colorado",
    "street": "600 S Main St"
  },
  {
    "id": "c2259afb-c17e-4b35-9098-95861dabe01d",
    "name": "Breckenridge Brewery Ale & Game House",
    "brewery_type": "brewpub",
    "address_1": "200 Inverness Drive W Suite 100",
    "address_2": null,
    "address_3": null,
    "city": "Englewood",
    "state_province": "Colorado",
    "postal_code": "80112",
    "country": "United States",
    "longitude": -104.8667328,
    "latitude": 39.5706647,
    "phone": "3033977801",
    "website_url": "https://www.breckbrewinverness.com/",
    "state": "Colorado",
    "street": "200 Inverness Drive W Suite 100"
  },
  {
    "id": "ab0ef3cc-55ab-4663-9770-2af60573e5f7",
    "name": "Brehon Brewhouse",
    "brewery_type": "micro",
    "address_1": "Dunelty",
    "address_2": "Inniskeen",
    "address_3": null,
    "city": "Carrickmacross",
    "state_province": "Monaghan",
    "postal_code": "A91 E170",
    "country": "Ireland",
    "longitude": -6.635574,
    "latitude": 53.980673,
    "phone": "353868230914",
    "website_url": "https://brehonbrewhouse.ie/",
    "state": "Monaghan",
    "street": "Dunelty"
  },
  {
    "id": "58d96e3e-6dae-4fae-a383-1a0c2c2edbf1",
    "name": "Bremen Beer Ventures",
    "brewery_type": "planning",
    "address_1": null,
    "address_2": null,
    "address_3": null,
    "city": "Key Biscayne",
    "state_province": "Florida",
    "postal_code": "33149-7213",
    "country": "United States",
    "longitude": null,
    "latitude": null,
    "phone": "3059036996",
    "website_url": null,
    "state": "Florida",
    "street": null
  },
  {
    "id": "3fe061f6-7b81-4969-acde-93f045661cd5",
    "name": "Bremer Brewing Company",
    "brewery_type": "brewpub",
    "address_1": "102 W Bremer Ave",
    "address_2": null,
    "address_3": null,
    "city": "Waverly",
    "state_province": "Iowa",
    "postal_code": "50677-3318",
    "country": "United States",
    "longitude": -92.4723192,
    "latitude": 42.7259202,
    "phone": "3193522337",
    "website_url": "https://www.bremerbrewingcompany.com",
    "state": "Iowa",
    "street": "102 W Bremer Ave"
  },
  {
    "id": "d2bbcb0a-59a1-481e-886a-df2a0decbbc8",
    "name": "Brevard Brewing Co",
    "brewery_type": "micro",
    "address_1": "63 E Main St",
    "address_2": null,
    "address_3": null,
    "city": "Brevard",
    "state_province": "North Carolina",
    "postal_code": "28712-3746",
    "country": "United States",
    "longitude": -82.7303593,
    "latitude": 35.2319789,
    "phone": null,
    "website_url": "http://www.brevard-brewing.com",
    "state": "North Carolina",
    "street": "63 E Main St"
  },
  {
    "id": "da170deb-574e-4582-a365-b83058312b8b",
    "name": "Brew 32",
    "brewery_type": "brewpub",
    "address_1": "1474 State Route 208",
    "address_2": null,
    "address_3": null,
    "city": "Pulaski",
    "state_province": "Pennsylvania",
    "postal_code": "16143-4308",
    "country": "United States",
    "longitude": null,
    "latitude": null,
    "phone": "7242528464",
    "website_url": "http://Www.brew32craft.com",
    "state": "Pennsylvania",
    "street": "1474 State Route 208"
  },
  {
    "id": "c932db7a-8671-4052-ae9b-64ed0eb05e0b",
    "name": "Brew Angels LLC",
    "brewery_type": "brewpub",
    "address_1": "6821 Caroline St",
    "address_2": null,
    "address_3": null,
    "city": "Milton",
    "state_province": "Florida",
    "postal_code": "32570-2206",
    "country": "United States",
    "longitude": -87.038565,
    "latitude": 30.621944,
    "phone": "8505640034",
    "website_url": null,
    "state": "Florida",
    "street": "6821 Caroline St"
  },
  {
    "id": "26baf7e9-4615-4874-84b7-4b718c84d5ea",
    "name": "Brew Bus Brewing",
    "brewery_type": "brewpub",
    "address_1": "4101 N Florida Ave",
    "address_2": null,
    "address_3": null,
    "city": "Tampa",
    "state_province": "Florida",
    "postal_code": "33603-3817",
    "country": "United States",
    "longitude": -82.4586495,
    "latitude": 27.9826232,
    "phone": "8139907310",
    "website_url": "http://www.brewbususa.com",
    "state": "Florida",
    "street": "4101 N Florida Ave"
  },
  {
    "id": "2c0e680d-87ee-4bfc-ae5a-8dd62b43f3a3",
    "name": "Brew D'Etat",
    "brewery_type": "micro",
    "address_1": null,
    "address_2": null,
    "address_3": null,
    "city": "Burnsville",
    "state_province": "Minnesota",
    "postal_code": "55337",
    "country": "United States",
    "longitude": null,
    "latitude": null,
    "phone": "4132072355",
    "website_url": null,
    "state": "Minnesota",
    "street": null
  },
  {
    "id": "8aadd633-ee8b-4550-9b3a-ffdf6fee2b44",
    "name": "Brew Detroit",
    "brewery_type": "micro",
    "address_1": "1401 Abbott St",
    "address_2": null,
    "address_3": null,
    "city": "Detroit",
    "state_province": "Michigan",
    "postal_code": "48216-1946",
    "country": "United States",
    "longitude": -83.0619769,
    "latitude": 42.32770289,
    "phone": "3139747366",
    "website_url": "http://www.brewdetroit.com",
    "state": "Michigan",
    "street": "1401 Abbott St"
  },
  {
    "id": "e9a7e33f-8187-4dba-9f5d-a6955fd566bc",
    "name": "Brew Gentlemen",
    "brewery_type": "micro",
    "address_1": "512 Braddock Ave",
    "address_2": null,
    "address_3": null,
    "city": "Braddock",
    "state_province": "Pennsylvania",
    "postal_code": "15104-1806",
    "country": "United States",
    "longitude": -79.8702107,
    "latitude": 40.4041599,
    "phone": "4128715075",
    "website_url": "http://www.brewgentlemen.com",
    "state": "Pennsylvania",
    "street": "512 Braddock Ave"
  },
  {
    "id": "24809e21-a74e-4177-b138-99aae56fe7f9",
    "name": "Brew House No 16",
    "brewery_type": "brewpub",
    "address_1": "831 N Calvert St",
    "address_2": null,
    "address_3": null,
    "city": "Baltimore",
    "state_province": "Maryland",
    "postal_code": "21202-3705",
    "country": "United States",
    "longitude": -76.61271192,
    "latitude": 39.29963095,
    "phone": "4106594084",
    "website_url": "http://www.brewhouseno16.com",
    "state": "Maryland",
    "street": "831 N Calvert St"
  },
  {
    "id": "f7977d73-f02d-4adb-b948-6080168f5545",
    "name": "Brew Hub Taproom",
    "brewery_type": "brewpub",
    "address_1": "5656 Oakland Avenue",
    "address_2": null,
    "address_3": null,
    "city": "Saint Louis",
    "state_province": "Missouri",
    "postal_code": "63110",
    "country": "United States",
    "longitude": -90.28300053,
    "latitude": 38.63049786,
    "phone": "3148335453",
    "website_url": "http://www.tapbrewhub.com",
    "state": "Missouri",
    "street": "5656 Oakland Avenue"
  },
  {
    "id": "42684296-1506-42cc-a14c-1cd31a69bfc4",
    "name": "Brew Hub, LLC",
    "brewery_type": "regional",
    "address_1": "3900 Frontage Rd S",
    "address_2": null,
    "address_3": null,
    "city": "Lakeland",
    "state_province": "Florida",
    "postal_code": "33815-3205",
    "country": "United States",
    "longitude": null,
    "latitude": null,
    "phone": "8636987600",
    "website_url": "http://www.brewhub.com",
    "state": "Florida",
    "street": "3900 Frontage Rd S"
  }
]