[
  {
    "id": "840d509e-f231-4722-ab4c-bf2ef7996196",
    "name": "Austin Street Brewery",
    "brewery_type": "micro",
    "address_1": "1 Industrial Way Ste 8",
    "address_2": null,
    "address_3": null,
    "city": "Portland",
    "state_province": "Maine",
    "postal_code": "04103-1072",
    "country": "United States",
    "longitude": null,
    "latitude": null,
    "phone": "2072001994",
    "website_url": "http://www.austinstreetbrewery.com",
    "state": "Maine",
    "street": "1 Industrial Way Ste 8"
  },
  {
    "id": "322a5eb4-e725-4c03-b532-a64153037076",
    "name": "Automatic Brewing Co. / Blind Lady Alehouse",
    "brewery_type": "brewpub",
    "address_1": "3416 Adams Ave",
    "address_2": null,
    "address_3": null,
    "city": "San Diego",
    "state_province": "California",
    "postal_code": "92116-2428",
    "country": "United States",
    "longitude": -117.120151,
    "latitude": 32.763588,
    "phone": "6192007522",
    "website_url": "http://www.blindlady.blogspot.com",
    "state": "California",
    "street": "3416 Adams Ave"
  },
  {
    "id": "102c478e-ab27-4c8c-82c3-8eaee82959fa",
    "name": "Avalanche Brewing Co",
    "brewery_type": "brewpub",
    "address_1": "1067 Blair St",
    "address_2": null,
    "address_3": null,
    "city": "Silverton",
    "state_province": "Colorado",
    "postal_code": "81433-0377",
    "country": "United States",
    "longitude": -107.664791,
    "latitude": 37.8098899,
    "phone": "9703875282",
    "website_url": "http://www.avalanchebrewing.com",
    "state": "Colorado",
    "street": "1067 Blair St"
  },
  {
    "id": "d07100f1-ab4b-413e-bc07-045ee4d61fe6",
    "name": "Avant Garde Aleworks",
    "brewery_type": "micro",
    "address_1": "920 Dunraven St",
    "address_2": null,
    "address_3": null,
    "city": "Estes Park",
    "state_province": "Colorado",
    "postal_code": "80517",
    "country": "United States",
    "longitude": -105.5085669,
    "latitude": 40.3728533,
    "phone": "9705912700",
    "website_url": "https://avantgardealeworks.com",
    "state": "Colorado",
    "street": "920 Dunraven St"
  },
  {
    "id": "3bde4342-bfc1-49cb-9b40-7fb1aef26886",
    "name": "Avery Brewing Co",
    "brewery_type": "regional",
    "address_1": "4910 Nautilus Ct N",
    "address_2": null,
    "address_3": null,
    "city": "Boulder",
    "state_province": "Colorado",
    "postal_code": "80301-3242",
    "country": "United States",
    "longitude": -105.2047652,
    "latitude": 40.0625835,
    "phone": null,
    "website_url": null,
    "state": "Colorado",
    "street": "4910 Nautilus Ct N"
  },
  {
    "id": "7006a17a-74da-497a-ba35-2338c7efbb25",
    "name": "Aviator Brewing Company",
    "brewery_type": "regional",
    "address_1": "209 Technology Park Ln",
    "address_2": null,
    "address_3": null,
    "city": "Fuquay Varina",
    "state_province": "North Carolina",
    "postal_code": "27526-9311",
    "country": "United States",
    "longitude": -78.8073896,
    "latitude": 35.61695983,
    "phone": "9195672337",
    "website_url": "http://www.aviatorbrew.com",
    "state": "North Carolina",
    "street": "209 Technology Park Ln"
  },
  {
    "id": "bb02e7c9-bf6e-47dd-a0dc-a0e8eb1b9ad3",
    "name": "Avondale Brewing Co",
    "brewery_type": "micro",
    "address_1": "201 41st St S",
    "address_2": null,
    "address_3": null,
    "city": "Birmingham",
    "state_province": "Alabama",
    "postal_code": "35222-1932",
    "country": "United States",
    "longitude": -86.774322,
    "latitude": 33.524521,
    "phone": "2057775456",
    "website_url": "http://www.avondalebrewing.com",
    "state": "Alabama",
    "street": "201 41st St S"
  },
  {
    "id": "46813d2e-b120-4f43-8957-5e8dfadc603f",
    "name": "Axe And Arrow Brewery",
    "brewery_type": "planning",
    "address_1": null,
    "address_2": null,
    "address_3": null,
    "city": "Glassboro",
    "state_province": "New Jersey",
    "postal_code": "08028",
    "country": "United States",
    "longitude": null,
    "latitude": null,
    "phone": null,
    "website_url": null,
    "state": "New Jersey",
    "street": null
  },
  {
    "id": "f42d1652-6001-490f-ad55-ed573c47c38d",
    "name": "Axle Brewing Company",
    "brewery_type": "micro",
    "address_1": "567 Livernois St",
    "address_2": null,
    "address_3": null,
    "city": "Ferndale",
    "state_province": "Michigan",
    "postal_code": "48220-2303",
    "country": "United States",
    "longitude": -83.1428144,
    "latitude": 42.4508021,
    "phone": "2486137002",
    "website_url": "http://www.axlebrewing.com",
    "state": "Michigan",
    "street": "567 Livernois St"
  },
  {
    "id": "796874cf-6c73-4946-9459-e4cc044c8f39",
    "name": "Aztec Brewing Company",
    "brewery_type": "micro",
    "address_1": "2330 La Mirada Dr Ste 300",
    "address_2": null,
    "address_3": null,
    "city": "Vista",
    "state_province": "California",
    "postal_code": "92081-7871",
    "country": "United States",
    "longitude": -117.2297606,
    "latitude": 33.14984395,
    "phone": "7605987720",
    "website_url": "http://www.aztecbrewery.com",
    "state": "California",
    "street": "2330 La Mirada Dr Ste 300"
  },
  {
    "id": "483efb3e-05aa-43b5-a283-40414b6b47dc",
    "name": "B and J's Handcrafted Texas Ales",
    "brewery_type": "micro",
    "address_1": "6335 S Padre Island Dr",
    "address_2": null,
    "address_3": null,
    "city": "Corpus Christi",
    "state_province": "Texas",
    "postal_code": "78412-4013",
    "country": "United States",
    "longitude": -97.2962784,
    "latitude": 27.6749936,
    "phone": "3619926671",
    "website_url": "http://pizzaandbrew@aol.com",
    "state": "Texas",
    "street": "6335 S Padre Island Dr"
  },
  {
    "id": "e5cae8be-4cfa-40da-bf78-ffd3ad7cba35",
    "name": "B Chord Brewing Company",
    "brewery_type": "micro",
    "address_1": "34266 Williams Gap Rd",
    "address_2": null,
    "address_3": null,
    "city": "Round Hill",
    "state_province": "Virginia",
    "postal_code": "20141-2100",
    "country": "United States",
    "longitude": null,
    "latitude": null,
    "phone": "7036234542",
    "website_url": "http://www.bchordbrewing.com",
    "state": "Virginia",
    "street": "34266 Williams Gap Rd"
  },
  {
    "id": "8f4aa88c-e9cb-4932-9245-a2230ec59b63",
    "name": "B-52 Brewing",
    "brewery_type": "micro",
    "address_1": "12470 Milroy Ln",
    "address_2": null,
    "address_3": null,
    "city": "Conroe",
    "state_province": "Texas",
    "postal_code": "77304-5160",
    "country": "United States",
    "longitude": null,
    "latitude": null,
    "phone": "9364474677",
    "website_url": "http://www.b52brewing.com",
    "state": "Texas",
    "street": "12470 Milroy Ln"
  },
  {
    "id": "80263b86-dfa6-46dd-86cd-3440a13d5015",
    "name": "B-CS  Zoigl Brewery",
    "brewery_type": "micro",
    "address_1": "\u00c2\u00a0211-C W William Joel Bryan Pkwy",
    "address_2": null,
    "address_3": null,
    "city": "Bryan",
    "state_province": "Texas",
    "postal_code": "77803-3225",
    "country": "United States",
    "longitude": null,
    "latitude": null,
    "phone": "2819353018",
    "website_url": "http://www.bcs-zoigl.com",
    "state": "Texas",
    "street": "\u00c2\u00a0211-C W William Joel Bryan Pkwy"
  },
  {
    "id": "6918f40b-ab41-4fd8-bea0-ae8a5ce5664a",
    "name": "B.C. Brewery",
    "brewery_type": "micro",
    "address_1": "10950 Gilroy Rd Ste F",
    "address_2": null,
    "address_3": null,
    "city": "Hunt Valley",
    "state_province": "Maryland",
    "postal_code": "21031-1327",
    "country": "United States",
    "longitude": null,
    "latitude": null,
    "phone": "4433913847",
    "website_url": "http://www.bcbrewerymd.com",
    "state": "Maryland",
    "street": "10950 Gilroy Rd Ste F"
  },
  {
    "id": "22d43b9c-e8ba-412b-bb36-da1fc749fe80",
    "name": "B.O.B's Brewery",
    "brewery_type": "brewpub",
    "address_1": "20 Monroe Ave NW",
    "address_2": null,
    "address_3": null,
    "city": "Grand Rapids",
    "state_province": "Michigan",
    "postal_code": "49503-6208",
    "country": "United States",
    "longitude": -85.67248446,
    "latitude": 42.9638257,
    "phone": "6163562000",
    "website_url": "http://thebobsbrewery.thebob.com",
    "state": "Michigan",
    "street": "20 Monroe Ave NW"
  },
  {
    "id": "03df12a0-f2ff-4c37-b862-e6df31123b74",
    "name": "B9 Beverages Inc",
    "brewery_type": "contract",
    "address_1": "404 5th Ave # 7.055",
    "address_2": null,
    "address_3": null,
    "city": "New York",
    "state_province": "New York",
    "postal_code": "10018-2797",
    "country": "United States",
    "longitude": null,
    "latitude": null,
    "phone": null,
    "website_url": null,
    "state": "New York",
    "street": "404 5th Ave # 7.055"
  },
  {
    "id": "c916c0c3-be83-4d5a-b2de-c58fc9faa206",
    "name": "Baa Baa Brewhouse",
    "brewery_type": "micro",
    "address_1": "539 FM 359 Rd S",
    "address_2": null,
    "address_3": null,
    "city": "Brookshire",
    "state_province": "Texas",
    "postal_code": "77423-8013",
    "country": "United States",
    "longitude": null,
    "latitude": null,
    "phone": "2819341847",
    "website_url": "http://www.baabaabrewhouse.com",
    "state": "Texas",
    "street": "539 FM 359 Rd S"
  },
  {
    "id": "569b794f-4e15-446c-b249-9699e8687d40",
    "name": "Babe's Bar-B-Que and Brewhouse",
    "brewery_type": "brewpub",
    "address_1": "71800 Highway 111 Ste A176",
    "address_2": null,
    "address_3": null,
    "city": "Rancho Mirage",
    "state_province": "California",
    "postal_code": "92270-4495",
    "country": "United States",
    "longitude": -116.4110483,
    "latitude": 33.74096746,
    "phone": "7603468738",
    "website_url": "https://www.babesbbqbrewery.com/",
    "state": "California",
    "street": "71800 Highway 111 Ste A176"
  },
  {
    "id": "418c8bd5-997f-47f5-8147-a8a243517634",
    "name": "Bacchus Brewing",
    "brewery_type": "micro",
    "address_1": "15 Ellis Dr",
    "address_2": null,
    "address_3": null,
    "city": "Dryden",
    "state_province": "New York",
    "postal_code": "13053-9630",
    "country": "United States",
    "longitude": -76.29904171,
    "latitude": 42.49966971,
    "phone": "6078448474",
    "website_url": "http://www.bacchusbrewing.com",
    "state": "New York",
    "street": "15 Ellis Dr"
  },
  {
    "id": "89028aa2-3ecf-446b-89c0-5ef641e1bd50",
    "name": "Back Alley Brewing Co",
    "brewery_type": "micro",
    "address_1": "211 S Main St",
    "address_2": null,
    "address_3": null,
    "city": "Goshen",
    "state_province": "Indiana",
    "postal_code": "46526-3722",
    "country": "United States",
    "longitude": -85.83457862,
    "latitude": 41.58461971,
    "phone": "5743704049",
    "website_url": null,
    "state": "Indiana",
    "street": "211 S Main St"
  },
  {
    "id": "2c260790-18be-4c9d-88da-4334c5cf151e",
    "name": "Back Bay Brewing Company",
    "brewery_type": "micro",
    "address_1": "614 Norfolk Ave",
    "address_2": null,
    "address_3": null,
    "city": "Virginia Beach",
    "state_province": "Virginia",
    "postal_code": "23451-4419",
    "country": "United States",
    "longitude": -75.97974414,
    "latitude": 36.83778371,
    "phone": "7575317750",
    "website_url": "http://www.backbaybrewingco.com",
    "state": "Virginia",
    "street": "614 Norfolk Ave"
  },
  {
    "id": "cb595c72-e65b-444e-83a6-9d07d731e2b6",
    "name": "Back Channel Brewing",
    "brewery_type": "micro",
    "address_1": "4787 Shoreline Dr",
    "address_2": null,
    "address_3": null,
    "city": "Spring Park",
    "state_province": "Minnesota",
    "postal_code": "55384-9713",
    "country": "United States",
    "longitude": -93.64430718,
    "latitude": 44.93673794,
    "phone": "9528559315",
    "website_url": "https://www.backchannelbrewing.com",
    "state": "Minnesota",
    "street": "4787 Shoreline Dr"
  },
  {
    "id": "e6df4e9e-1833-49b0-90e5-69c565c5da83",
    "name": "Back Creek Brewing Company",
    "brewery_type": "planning",
    "address_1": null,
    "address_2": null,
    "address_3": null,
    "city": "Annapolis",
    "state_province": "Maryland",
    "postal_code": "21401-4019",
    "country": "United States",
    "longitude": null,
    "latitude": null,
    "phone": "4103206904",
    "website_url": "http://www.backcreekbrewing.com",
    "state": "Maryland",
    "street": null
  },
  {
    "id": "fc54b886-6305-4dc2-8511-a8b9049297e6",
    "name": "Back East Brewing",
    "brewery_type": "micro",
    "address_1": "1296 Blue Hills Ave Ste A",
    "address_2": null,
    "address_3": null,
    "city": "Bloomfield",
    "state_province": "Connecticut",
    "postal_code": "06002-5312",
    "country": "United States",
    "longitude": null,
    "latitude": null,
    "phone": "8602421793",
    "website_url": "https://www.backeastbrewing.com",
    "state": "Connecticut",
    "street": "1296 Blue Hills Ave Ste A"
  },
  {
    "id": "3564fec6-6f87-45cd-88a7-94063757ce94",
    "name": "Back Forty Beer Co",
    "brewery_type": "micro",
    "address_1": "200 N 6th St",
    "address_2": null,
    "address_3": null,
    "city": "Gadsden",
    "state_province": "Alabama",
    "postal_code": "35901-3361",
    "country": "United States",
    "longitude": -86.005006,
    "latitude": 34.016888,
    "phone": "2564674912",
    "website_url": "http://www.backfortybeer.com",
    "state": "Alabama",
    "street": "200 N 6th St"
  },
  {
    "id": "6a5579c9-66ee-414f-9a01-fe627b6cf309",
    "name": "Back Hill Beer Company",
    "brewery_type": "brewpub",
    "address_1": "73 Pickering Rd",
    "address_2": null,
    "address_3": null,
    "city": "Rochester",
    "state_province": "New Hampshire",
    "postal_code": "03839",
    "country": "United States",
    "longitude": null,
    "latitude": null,
    "phone": null,
    "website_url": null,
    "state": "New Hampshire",
    "street": "73 Pickering Rd"
  },
  {
    "id": "d53226dc-b8b1-494c-85f5-1c97ba255947",
    "name": "Back Pedal Brewing Company",
    "brewery_type": "micro",
    "address_1": "1425 NW Flanders St",
    "address_2": null,
    "address_3": null,
    "city": "Portland",
    "state_province": "Oregon",
    "postal_code": "97209-2620",
    "country": "United States",
    "longitude": -122.6856562,
    "latitude": 45.52597595,
    "phone": "9714005950",
    "website_url": "http://backpedalbrewing.com",
    "state": "Oregon",
    "street": "1425 NW Flanders St"
  },
  {
    "id": "38c59264-ac19-4b4a-bada-cab729f71d57",
    "name": "Back Pew Brewing",
    "brewery_type": "micro",
    "address_1": "26452 Sorters Rd",
    "address_2": null,
    "address_3": null,
    "city": "Porter",
    "state_province": "Texas",
    "postal_code": "77365-4752",
    "country": "United States",
    "longitude": null,
    "latitude": null,
    "phone": "2816087526",
    "website_url": "http://www.backpewbrewing.com",
    "state": "Texas",
    "street": "26452 Sorters Rd"
  },
  {
    "id": "df9da06e-0ead-498f-ae26-3c5f783292c9",
    "name": "Back Road Brewery",
    "brewery_type": "micro",
    "address_1": "308 Perry St",
    "address_2": null,
    "address_3": null,
    "city": "La Porte",
    "state_province": "Indiana",
    "postal_code": "46350-3216",
    "country": "United States",
    "longitude": -86.72649137,
    "latitude": 41.6118882,
    "phone": "2193627623",
    "website_url": "http://www.backroadbrewery.com",
    "state": "Indiana",
    "street": "308 Perry St"
  },
  {
    "id": "dde5cb42-9ee5-44bf-ae05-b51d8e0986e1",
    "name": "Back Street Brewery & Tasting Room",
    "brewery_type": "micro",
    "address_1": "1884 S Santa Cruz St",
    "address_2": null,
    "address_3": null,
    "city": "Anaheim",
    "state_province": "California",
    "postal_code": "92805-6726",
    "country": "United States",
    "longitude": -117.8960894,
    "latitude": 33.79983678,
    "phone": "6572364050",
    "website_url": "http://www.backstreetbrew.com",
    "state": "California",
    "street": "1884 S Santa Cruz St"
  },
  {
    "id": "e932c001-d68a-4dc8-8eef-b4311b9399ad",
    "name": "Back Unturned Brewing Co.",
    "brewery_type": "micro",
    "address_1": "516 Brooklyn Ave",
    "address_2": null,
    "address_3": null,
    "city": "San Antonio",
    "state_province": "Texas",
    "postal_code": "78215",
    "country": "United States",
    "longitude": -98.4867139,
    "latitude": 29.4330983,
    "phone": "210-25-0022",
    "website_url": "http://www.backunturned.com/",
    "state": "Texas",
    "street": "516 Brooklyn Ave"
  },
  {
    "id": "b48ce764-abf5-41cb-b9c5-93cf4fdc6b57",
    "name": "Backacre Beermakers",
    "brewery_type": "micro",
    "address_1": null,
    "address_2": null,
    "address_3": null,
    "city": "Weston",
    "state_province": "Vermont",
    "postal_code": "05161",
    "country": "United States",
    "longitude": null,
    "latitude": null,
    "phone": null,
    "website_url": "http://www.backacrebeermakers.com",
    "state": "Vermont",
    "street": null
  },
  {
    "id": "b83daf92-6347-44b0-91df-8fec02c2a22c",
    "name": "Backcountry Brewing",
    "brewery_type": "micro",
    "address_1": "3250 Mecca Dr",
    "address_2": null,
    "address_3": null,
    "city": "Plover",
    "state_province": "Wisconsin",
    "postal_code": "54467",
    "country": "United States",
    "longitude": -89.5413643,
    "latitude": 44.3304949,
    "phone": "7155729400",
    "website_url": "https://www.backcountrybrewingco.com",
    "state": "Wisconsin",
    "street": "3250 Mecca Dr"
  },
  {
    "id": "092efaaf-02ab-4ac6-a9c3-6269af54ddeb",
    "name": "Backlash Beer Co",
    "brewery_type": "contract",
    "address_1": null,
    "address_2": null,
    "address_3": null,
    "city": "Boston",
    "state_province": "Massachusetts",
    "postal_code": "02215",
    "country": "United States",
    "longitude": null,
    "latitude": null,
    "phone": null,
    "website_url": "http://backlashbeer.com/",
    "state": "Massachusetts",
    "street": null
  },
  {
    "id": "f0ca51bb-ad85-4dca-bd03-eefeb99f1184",
    "name": "Backman Brewing Company",
    "brewery_type": "planning",
    "address_1": null,
    "address_2": null,
    "address_3": null,
    "city": "Whitehouse Station",
    "state_province": "New Jersey",
    "postal_code": "08889-3562",
    "country": "United States",
    "longitude": null,
    "latitude": null,
    "phone": null,
    "website_url": "http://backmanbrewing.com",
    "state": "New Jersey",
    "street": null
  },
  {
    "id": "d4c25fef-5c3e-423e-831b-599cc328424c",
    "name": "Backpocket Brewing Co",
    "brewery_type": "micro",
    "address_1": "903 Quarry Rd",
    "address_2": null,
    "address_3": null,
    "city": "Coralville",
    "state_province": "Iowa",
    "postal_code": "52241-2208",
    "country": "United States",
    "longitude": -91.55981337,
    "latitude": 41.68139484,
    "phone": "3194493700",
    "website_url": "http://www.backpocketbrewing.com",
    "state": "Iowa",
    "street": "903 Quarry Rd"
  },
  {
    "id": "a2cdb369-d869-4f9a-9d80-7a5d2becd096",
    "name": "BackRoad Brewery",
    "brewery_type": "micro",
    "address_1": "90 School St",
    "address_2": null,
    "address_3": null,
    "city": "Carlisle",
    "state_province": "Iowa",
    "postal_code": "50047",
    "country": "United States",
    "longitude": -93.48531767,
    "latitude": 41.498501,
    "phone": "5152102096",
    "website_url": "http://www.backroadbeer.com",
    "state": "Iowa",
    "street": "90 School St"
  },
  {
    "id": "933637d8-72b2-4812-8795-48c3da52f206",
    "name": "Backroom Brewery",
    "brewery_type": "brewpub",
    "address_1": "150 Ridgemont Rd",
    "address_2": null,
    "address_3": null,
    "city": "Middletown",
    "state_province": "Virginia",
    "postal_code": "22645-3817",
    "country": "United States",
    "longitude": null,
    "latitude": null,
    "phone": "5408698482",
    "website_url": "http://www.backroombreweryva.com",
    "state": "Virginia",
    "street": "150 Ridgemont Rd"
  },
  {
    "id": "b617c420-3a48-41f3-a529-68dccd1e253f",
    "name": "Backshore Brewing Co.",
    "brewery_type": "brewpub",
    "address_1": "913 Atlantic Ave",
    "address_2": null,
    "address_3": null,
    "city": "Ocean City",
    "state_province": "Maryland",
    "postal_code": "21842-6689",
    "country": "United States",
    "longitude": null,
    "latitude": null,
    "phone": "4102890008",
    "website_url": "http://www.BackshoreBrew.com",
    "state": "Maryland",
    "street": "913 Atlantic Ave"
  },
  {
    "id": "9ae1ef58-7652-40a7-9abc-7900a57109a8",
    "name": "Backside Brewing Co",
    "brewery_type": "brewpub",
    "address_1": "1640 NE Odell Ave",
    "address_2": null,
    "address_3": null,
    "city": "Roseburg",
    "state_province": "Oregon",
    "postal_code": "97470-3320",
    "country": "United States",
    "longitude": -123.3377881,
    "latitude": 43.21449839,
    "phone": "5415801906",
    "website_url": "http://www.backsidebrewingco.com",
    "state": "Oregon",
    "street": "1640 NE Odell Ave"
  },
  {
    "id": "b6685b52-d4f2-4b41-a3d9-f88c778b2346",
    "name": "Backslope Brewing",
    "brewery_type": "brewpub",
    "address_1": "1107 9th St W (Highway 2)",
    "address_2": null,
    "address_3": null,
    "city": "Columbia Falls",
    "state_province": "Montana",
    "postal_code": "59912",
    "country": "United States",
    "longitude": null,
    "latitude": null,
    "phone": "4062242510",
    "website_url": "http://www.backslopebrewing.com",
    "state": "Montana",
    "street": "1107 9th St W (Highway 2)"
  },
  {
    "id": "270cf75d-5742-44bb-b795-6300d8429cc1",
    "name": "Backspace Brewing",
    "brewery_type": "micro",
    "address_1": "200 Walnut St",
    "address_2": null,
    "address_3": null,
    "city": "Yankton",
    "state_province": "South Dakota",
    "postal_code": "57078-4343",
    "country": "United States",
    "longitude": -97.393642,
    "latitude": 42.86878841,
    "phone": "4026508158",
    "website_url": "http://www.backspacebeer.com",
    "state": "South Dakota",
    "street": "200 Walnut St"
  },
  {
    "id": "ecc118fd-aee9-4e81-bcda-8ab049b2f6f3",
    "name": "Backstep Brewing Company",
    "brewery_type": "micro",
    "address_1": "125 N Green St",
    "address_2": null,
    "address_3": null,
    "city": "Crawfordsville",
    "state_province": "Indiana",
    "postal_code": "47933-1708",
    "country": "United States",
    "longitude": -86.89998607,
    "latitude": 40.04207712,
    "phone": "7652302337",
    "website_url": "http://www.backstepbrewingcompany.com",
    "state": "Indiana",
    "street": "125 N Green St"
  },
  {
    "id": "9618d4a8-2e33-4025-888d-ecbc0da2a8a5",
    "name": "BackStory Brewery",
    "brewery_type": "planning",
    "address_1": null,
    "address_2": null,
    "address_3": null,
    "city": "Sulphur Springs",
    "state_province": "Texas",
    "postal_code": "75482-2772",
    "country": "United States",
    "longitude": null,
    "latitude": null,
    "phone": null,
    "website_url": null,
    "state": "Texas",
    "street": null
  },
  {
    "id": "08d2efda-af3e-4611-b8c6-d5c46af4c7a6",
    "name": "Backswing Brewing Co.",
    "brewery_type": "micro",
    "address_1": "500 W South St Ste 8",
    "address_2": null,
    "address_3": null,
    "city": "Lincoln",
    "state_province": "Nebraska",
    "postal_code": "68522-1744",
    "country": "United States",
    "longitude": -96.7274091,
    "latitude": 40.7922193,
    "phone": "4024135576",
    "website_url": "http://www.backswingbrewing.com",
    "state": "Nebraska",
    "street": "500 W South St Ste 8"
  },
  {
    "id": "55582f56-7b20-499a-875a-8457e8715a1c",
    "name": "Backward Flag Brewing",
    "brewery_type": "micro",
    "address_1": "699 Challenger Way Ste D5",
    "address_2": null,
    "address_3": null,
    "city": "Forked River",
    "state_province": "New Jersey",
    "postal_code": "08731-5917",
    "country": "United States",
    "longitude": null,
    "latitude": null,
    "phone": null,
    "website_url": "http://www.backwardflagbrewing.com",
    "state": "New Jersey",
    "street": "699 Challenger Way Ste D5"
  },
  {
    "id": "707a470e-266d-4ca9-bb9f-031e8cf28de6",
    "name": "Backwoods Brewing Company - Production Only",
    "brewery_type": "micro",
    "address_1": "1162 B Wind River Hwy",
    "address_2": null,
    "address_3": null,
    "city": "Carson",
    "state_province": "Washington",
    "postal_code": "98610",
    "country": "United States",
    "longitude": -121.8203754,
    "latitude": 45.72872253,
    "phone": "5094273412",
    "website_url": "http://www.backwoodsbrewingcompany.com",
    "state": "Washington",
    "street": "1162 B Wind River Hwy"
  },
  {
    "id": "f5d7bfda-bce0-46f5-8626-74e14371a85b",
    "name": "Backwoods in the Gorge",
    "brewery_type": "micro",
    "address_1": "1162 Wind River Hwy",
    "address_2": null,
    "address_3": null,
    "city": "Carson",
    "state_province": "Washington",
    "postal_code": "98610",
    "country": "United States",
    "longitude": -121.8203754,
    "latitude": 45.72872253,
    "phone": "5094273412",
    "website_url": "http://www.backwoodsbrewingcompany.com",
    "state": "Washington",
    "street": "1162 Wind River Hwy"
  },
  {
    "id": "1d5ac885-33a0-4bed-971b-dfb24772eb0b",
    "name": "Backyard Barn Winery and Microbrewery",
    "brewery_type": "micro",
    "address_1": "1945 E County Road 462",
    "address_2": null,
    "address_3": null,
    "city": "Wildwood",
    "state_province": "Florida",
    "postal_code": "34785-8594",
    "country": "United States",
    "longitude": null,
    "latitude": null,
    "phone": "3524187887",
    "website_url": "http://www.backyardbardwinery.com",
    "state": "Florida",
    "street": "1945 E County Road 462"
  }
]