[
  {
    "id": "f7121060-48a5-4779-b6bd-57a1a7642c62",
    "name": "O'Meara Bros. Brewing Company",
    "brewery_type": "brewpub",
    "address_1": "901 Bevins St",
    "address_2": null,
    "address_3": null,
    "city": "Lakeport",
    "state_province": "California",
    "postal_code": "95453-8778",
    "country": "United States",
    "longitude": -122.9245547,
    "latitude": 39.04005267,
    "phone": "7072621234",
    "website_url": "http://www.omearabros.com",
    "state": "California",
    "street": "901 Bevins St"
  },
  {
    "id": "eabf7b18-6513-4c95-bfac-ef15d532a21a",
    "name": "O'Neil & Sons Brewing Company",
    "brewery_type": "micro",
    "address_1": "502 Half League Rd Unit A",
    "address_2": null,
    "address_3": null,
    "city": "Port Lavaca",
    "state_province": "Texas",
    "postal_code": "77979-",
    "country": "United States",
    "longitude": null,
    "latitude": null,
    "phone": "3616766023",
    "website_url": "http://www.oneilandsons.com/home",
    "state": "Texas",
    "street": "502 Half League Rd Unit A"
  },
  {
    "id": "0464077b-c2c4-4bf1-b777-b26ec800b7ea",
    "name": "O'so Brewing",
    "brewery_type": "micro",
    "address_1": "3028 Village Park Dr",
    "address_2": null,
    "address_3": null,
    "city": "Plover",
    "state_province": "Wisconsin",
    "postal_code": "54467-4300",
    "country": "United States",
    "longitude": -89.52343053,
    "latitude": 44.45340044,
    "phone": "7152542163",
    "website_url": "http://www.osobrewing.com",
    "state": "Wisconsin",
    "street": "3028 Village Park Dr"
  },
  {
    "id": "47226f07-fbbd-4f97-88b9-e8a7a6e0f5a8",
    "name": "Oak & Iron Brewing Co",
    "brewery_type": "brewpub",
    "address_1": "18 Red Spring Rd",
    "address_2": null,
    "address_3": null,
    "city": "Andover",
    "state_province": "Massachusetts",
    "postal_code": "01810-3448",
    "country": "United States",
    "longitude": -71.14788579,
    "latitude": 42.65614908,
    "phone": "9784754077",
    "website_url": "http://www.oakandironbrewing.com",
    "state": "Massachusetts",
    "street": "18 Red Spring Rd"
  },
  {
    "id": "ce6318f1-dd45-402a-849d-43548e7b8e6a",
    "name": "Oak and Dagger Public House",
    "brewery_type": "brewpub",
    "address_1": "18 Seaboard Ave Ste 150",
    "address_2": null,
    "address_3": null,
    "city": "Raleigh",
    "state_province": "North Carolina",
    "postal_code": "27604-8010",
    "country": "United States",
    "longitude": null,
    "latitude": null,
    "phone": "9199459382",
    "website_url": "http://www.oakanddagger.beer",
    "state": "North Carolina",
    "street": "18 Seaboard Ave Ste 150"
  },
  {
    "id": "e5b56c80-41a9-4101-aeec-ffb683617611",
    "name": "Oak Cliff Brewing Co",
    "brewery_type": "planning",
    "address_1": null,
    "address_2": null,
    "address_3": null,
    "city": "Dallas",
    "state_province": "Texas",
    "postal_code": "75224-1305",
    "country": "United States",
    "longitude": null,
    "latitude": null,
    "phone": null,
    "website_url": null,
    "state": "Texas",
    "street": null
  },
  {
    "id": "9fd8f231-917e-4a85-9511-0c7eda622d18",
    "name": "Oak Creek Brewery & Grill",
    "brewery_type": "brewpub",
    "address_1": "336 State Route 179 Ste D201",
    "address_2": null,
    "address_3": null,
    "city": "Sedona",
    "state_province": "Arizona",
    "postal_code": "86336-6183",
    "country": "United States",
    "longitude": null,
    "latitude": null,
    "phone": "9282823300",
    "website_url": null,
    "state": "Arizona",
    "street": "336 State Route 179 Ste D201"
  },
  {
    "id": "1e6a90d9-5819-4bf8-90b9-5099daa6f16f",
    "name": "Oak Creek Brewing Co",
    "brewery_type": "brewpub",
    "address_1": "2050 Yavapai Dr Ste 2C",
    "address_2": null,
    "address_3": null,
    "city": "Sedona",
    "state_province": "Arizona",
    "postal_code": "86336-4559",
    "country": "United States",
    "longitude": null,
    "latitude": null,
    "phone": "9282039441",
    "website_url": "http://www.oakcreekbrew.com",
    "state": "Arizona",
    "street": "2050 Yavapai Dr Ste 2C"
  },
  {
    "id": "8b3d8e4c-661d-446b-bc66-b1b738feca80",
    "name": "Oak Grove Brewing Company",
    "brewery_type": "planning",
    "address_1": null,
    "address_2": null,
    "address_3": null,
    "city": "Glendale",
    "state_province": "California",
    "postal_code": "91208-1836",
    "country": "United States",
    "longitude": -118.2462486,
    "latitude": 34.192912,
    "phone": "8183199577",
    "website_url": "http://Www.oakgrovebrewingcompany.com",
    "state": "California",
    "street": null
  },
  {
    "id": "7f1f3bd0-82cd-46a7-99b0-0fded816d380",
    "name": "Oak Highlands Brewery",
    "brewery_type": "micro",
    "address_1": "10484 Brockwood Rd",
    "address_2": null,
    "address_3": null,
    "city": "Dallas",
    "state_province": "Texas",
    "postal_code": "75238-1640",
    "country": "United States",
    "longitude": null,
    "latitude": null,
    "phone": "4698029455",
    "website_url": "http://www.ohbrewery.com",
    "state": "Texas",
    "street": "10484 Brockwood Rd"
  },
  {
    "id": "782d72e8-ff4a-449e-a2c0-76a5d4ae3903",
    "name": "Oak Hills Brewing",
    "brewery_type": "micro",
    "address_1": "12221 Poplar St Ste 3",
    "address_2": null,
    "address_3": null,
    "city": "Hesperia",
    "state_province": "California",
    "postal_code": "92344-9287",
    "country": "United States",
    "longitude": -117.3969876,
    "latitude": 34.4156358,
    "phone": "7602448278",
    "website_url": "http://www.oakhillsbrewing.com",
    "state": "California",
    "street": "12221 Poplar St Ste 3"
  },
  {
    "id": "4922f203-3290-4063-a879-0009376395bc",
    "name": "Oak Park Brewing Co",
    "brewery_type": "brewpub",
    "address_1": "3514 Broadway",
    "address_2": null,
    "address_3": null,
    "city": "Sacramento",
    "state_province": "California",
    "postal_code": "95817-2825",
    "country": "United States",
    "longitude": -121.4681046,
    "latitude": 38.55062715,
    "phone": "9166602723",
    "website_url": "http://www.opbrewco.com",
    "state": "California",
    "street": "3514 Broadway"
  },
  {
    "id": "63c296f9-29e3-4b2e-9f52-2064578114ee",
    "name": "Oak Park Brewing Company",
    "brewery_type": "brewpub",
    "address_1": "155 S Oak Park Ave",
    "address_2": null,
    "address_3": null,
    "city": "Oak Park",
    "state_province": "Illinois",
    "postal_code": "60302-2901",
    "country": "United States",
    "longitude": -87.79456064,
    "latitude": 41.886465,
    "phone": "8475425523",
    "website_url": "http://www.oakparkbeer.com",
    "state": "Illinois",
    "street": "155 S Oak Park Ave"
  },
  {
    "id": "36159780-2e66-42c6-92ca-54b98c9d9b56",
    "name": "Oak Pond Brewing Co",
    "brewery_type": "micro",
    "address_1": "101 Oak Pond Rd",
    "address_2": null,
    "address_3": null,
    "city": "Skowhegan",
    "state_province": "Maine",
    "postal_code": "04976-4602",
    "country": "United States",
    "longitude": null,
    "latitude": null,
    "phone": "2074743233",
    "website_url": "http://www.oakpondbrewery.com",
    "state": "Maine",
    "street": "101 Oak Pond Rd"
  },
  {
    "id": "b4089ac0-ba23-40c3-91c5-7d7f3f2aec1d",
    "name": "Oak Road Brewery",
    "brewery_type": "micro",
    "address_1": "108 E 3rd North St Ste C",
    "address_2": null,
    "address_3": null,
    "city": "Summerville",
    "state_province": "South Carolina",
    "postal_code": "29483-6810",
    "country": "United States",
    "longitude": null,
    "latitude": null,
    "phone": "8436959886",
    "website_url": "http://www.oakroadbrewery.com",
    "state": "South Carolina",
    "street": "108 E 3rd North St Ste C"
  },
  {
    "id": "f7977b5d-4e21-4f63-aede-1c5ca36e519a",
    "name": "Oakbrook Brewing Company",
    "brewery_type": "brewpub",
    "address_1": "628 Park Ave",
    "address_2": null,
    "address_3": null,
    "city": "Reading",
    "state_province": "Pennsylvania",
    "postal_code": "19611-1926",
    "country": "United States",
    "longitude": -75.93478919,
    "latitude": 40.31684944,
    "phone": "4847555289",
    "website_url": "http://www.oakbrookbrew.com",
    "state": "Pennsylvania",
    "street": "628 Park Ave"
  },
  {
    "id": "024ae123-c899-413e-8964-801b01d74d6e",
    "name": "Oaken Barrel Brewing Co",
    "brewery_type": "brewpub",
    "address_1": "50 Airport Pkwy Ste L",
    "address_2": null,
    "address_3": null,
    "city": "Greenwood",
    "state_province": "Indiana",
    "postal_code": "46143-1438",
    "country": "United States",
    "longitude": null,
    "latitude": null,
    "phone": "3178872287",
    "website_url": "http://www.oakenbarrel.com",
    "state": "Indiana",
    "street": "50 Airport Pkwy Ste L"
  },
  {
    "id": "4d8ee740-1b56-49f1-bb3f-ba452fc28401",
    "name": "Oakenbrau",
    "brewery_type": "planning",
    "address_1": null,
    "address_2": null,
    "address_3": null,
    "city": "Milwaukie",
    "state_province": "Oregon",
    "postal_code": "97267-3838",
    "country": "United States",
    "longitude": null,
    "latitude": null,
    "phone": "9715063126",
    "website_url": "http://www.oakenbrau.com",
    "state": "Oregon",
    "street": null
  },
  {
    "id": "d57fb73d-3582-4f8d-8b86-8daea30c36f2",
    "name": "Oakland United Beerworks",
    "brewery_type": "micro",
    "address_1": "3775 Alameda Ave Ste G",
    "address_2": null,
    "address_3": null,
    "city": "Oakland",
    "state_province": "California",
    "postal_code": "94601-3920",
    "country": "United States",
    "longitude": -122.2720141,
    "latitude": 37.79470818,
    "phone": "5102518898",
    "website_url": "http://www.oaklandunitedbeerworks.com",
    "state": "California",
    "street": "3775 Alameda Ave Ste G"
  },
  {
    "id": "25beda23-8920-4a0a-a7a7-fd8b972ac1cd",
    "name": "Oaklyn Springs Brewery",
    "brewery_type": "planning",
    "address_1": null,
    "address_2": null,
    "address_3": null,
    "city": "Fuquay Varina",
    "state_province": "North Carolina",
    "postal_code": "27526-5499",
    "country": "United States",
    "longitude": null,
    "latitude": null,
    "phone": "9192800046",
    "website_url": "http://www.oaklynspringsbrewery.com",
    "state": "North Carolina",
    "street": null
  },
  {
    "id": "ffd62db7-780c-4b0d-9f42-812ddefb2305",
    "name": "Oakshire Brewing",
    "brewery_type": "micro",
    "address_1": "1055 Madera St",
    "address_2": null,
    "address_3": null,
    "city": "Eugene",
    "state_province": "Oregon",
    "postal_code": "97402-2019",
    "country": "United States",
    "longitude": -123.1410241,
    "latitude": 44.07299355,
    "phone": "5416884555",
    "website_url": "http://www.oakbrew.com",
    "state": "Oregon",
    "street": "1055 Madera St"
  },
  {
    "id": "11e18963-8156-4941-b7e6-457b01b6d19f",
    "name": "Oasis Brewery",
    "brewery_type": "micro",
    "address_1": "3257 N Lowell Blvd",
    "address_2": null,
    "address_3": null,
    "city": "Denver",
    "state_province": "Colorado",
    "postal_code": "80211",
    "country": "United States",
    "longitude": null,
    "latitude": null,
    "phone": "3033174369",
    "website_url": "http://www.oasisbeer.com",
    "state": "Colorado",
    "street": "3257 N Lowell Blvd"
  },
  {
    "id": "5398673e-abb7-4855-ab70-276b95e0147f",
    "name": "Oasis Texas Brewing Company",
    "brewery_type": "micro",
    "address_1": "6548 Comanche Trl Ste 301",
    "address_2": null,
    "address_3": null,
    "city": "Austin",
    "state_province": "Texas",
    "postal_code": "78732-1210",
    "country": "United States",
    "longitude": -98.151206,
    "latitude": 30.043267,
    "phone": "5122849407",
    "website_url": "http://www.otxbc.com",
    "state": "Texas",
    "street": "6548 Comanche Trl Ste 301"
  },
  {
    "id": "58bc0ff5-5ada-4b37-a5c0-325746773116",
    "name": "Oban Bay",
    "brewery_type": "micro",
    "address_1": "60 George Street",
    "address_2": null,
    "address_3": null,
    "city": "Oban",
    "state_province": "Argyll",
    "postal_code": "PA34 5SD",
    "country": "Scotland",
    "longitude": -5.4725942,
    "latitude": 56.4146637,
    "phone": "1631564492",
    "website_url": "http://obanbaybrewery.co.uk/",
    "state": "Argyll",
    "street": "60 George Street"
  },
  {
    "id": "3d4c07b2-bb81-4da0-b01c-3dbb529792ff",
    "name": "Obec Brewing",
    "brewery_type": "micro",
    "address_1": "1144 NW 52nd St",
    "address_2": null,
    "address_3": null,
    "city": "Seattle",
    "state_province": "Washington",
    "postal_code": "98107-5129",
    "country": "United States",
    "longitude": -122.3725178,
    "latitude": 47.6666586,
    "phone": "2066590082",
    "website_url": "http://www.obecbrewing.com",
    "state": "Washington",
    "street": "1144 NW 52nd St"
  },
  {
    "id": "29534279-4d68-4740-98b0-c02948f24fcc",
    "name": "Obed & Isaac's",
    "brewery_type": "micro",
    "address_1": "500 S 6th St",
    "address_2": null,
    "address_3": null,
    "city": "Springfield",
    "state_province": "Illinois",
    "postal_code": "62701-1810",
    "country": "United States",
    "longitude": -89.647885,
    "latitude": 39.797079,
    "phone": "2176700627",
    "website_url": "http://www.connhospitalitygroup.com",
    "state": "Illinois",
    "street": "500 S 6th St"
  },
  {
    "id": "10b8d072-1ccc-45ab-93e4-08cfd8134d67",
    "name": "Obed & Isaac's Microbrewery and Eatery - Peoria",
    "brewery_type": "brewpub",
    "address_1": "321 NE Madison Ave",
    "address_2": null,
    "address_3": null,
    "city": "Peoria",
    "state_province": "Illinois",
    "postal_code": "61603",
    "country": "United States",
    "longitude": -89.58865914,
    "latitude": 40.69577241,
    "phone": "3093060190",
    "website_url": null,
    "state": "Illinois",
    "street": "321 NE Madison Ave"
  },
  {
    "id": "59312c81-d887-4e24-a35b-a9d04075d490",
    "name": "Ober Brewing, LLC.",
    "brewery_type": "micro",
    "address_1": "1443 Lakeside Cir",
    "address_2": null,
    "address_3": null,
    "city": "Salem",
    "state_province": "Virginia",
    "postal_code": "24153-4144",
    "country": "United States",
    "longitude": -80.03027545,
    "latitude": 37.30474414,
    "phone": "5403925418",
    "website_url": "http://www.oberbrewing.com",
    "state": "Virginia",
    "street": "1443 Lakeside Cir"
  },
  {
    "id": "d24860e3-dfb2-4a38-b861-8a472326e7ac",
    "name": "Oblivion Brewing Co",
    "brewery_type": "micro",
    "address_1": "63027 Plateau Dr Ste 4",
    "address_2": null,
    "address_3": null,
    "city": "Bend",
    "state_province": "Oregon",
    "postal_code": "97701-3855",
    "country": "United States",
    "longitude": -121.2933829,
    "latitude": 44.08881821,
    "phone": "5417283509",
    "website_url": "http://www.oblivionbrewingco.com",
    "state": "Oregon",
    "street": "63027 Plateau Dr Ste 4"
  },
  {
    "id": "1f49e95a-580d-4f3c-896d-d1ad0e3691e1",
    "name": "Obscurity",
    "brewery_type": "planning",
    "address_1": null,
    "address_2": null,
    "address_3": null,
    "city": "Elburn",
    "state_province": "Illinois",
    "postal_code": "60119-7012",
    "country": "United States",
    "longitude": null,
    "latitude": null,
    "phone": null,
    "website_url": "http://www.drinkobscurity.com",
    "state": "Illinois",
    "street": null
  },
  {
    "id": "7277f89e-0dc3-45a8-b943-a1decdf91a9e",
    "name": "Occidental Brewing",
    "brewery_type": "micro",
    "address_1": "6635 N Baltimore Ave Ste 100",
    "address_2": null,
    "address_3": null,
    "city": "Portland",
    "state_province": "Oregon",
    "postal_code": "97203-5465",
    "country": "United States",
    "longitude": -122.760861,
    "latitude": 45.588728,
    "phone": "5037197102",
    "website_url": "http://www.occidentalbrewing.com",
    "state": "Oregon",
    "street": "6635 N Baltimore Ave Ste 100"
  },
  {
    "id": "c1385831-5303-4caf-bd9f-1ecd253e6936",
    "name": "Occidental Brewing",
    "brewery_type": "brewpub",
    "address_1": "865 S Rock Blvd",
    "address_2": null,
    "address_3": null,
    "city": "Sparks",
    "state_province": "Nevada",
    "postal_code": "89431",
    "country": "United States",
    "longitude": -119.7600161,
    "latitude": 39.50114854,
    "phone": "7753984200",
    "website_url": null,
    "state": "Nevada",
    "street": "865 S Rock Blvd"
  },
  {
    "id": "11f1fe94-506f-4117-b2b7-47346d9f094d",
    "name": "Ocean Beach Brewery",
    "brewery_type": "brewpub",
    "address_1": "5041 Newport Ave",
    "address_2": null,
    "address_3": null,
    "city": "San Diego",
    "state_province": "California",
    "postal_code": "92107-3009",
    "country": "United States",
    "longitude": -117.252024,
    "latitude": 32.747109,
    "phone": "6199558053",
    "website_url": null,
    "state": "California",
    "street": "5041 Newport Ave"
  },
  {
    "id": "9d9fecf0-04a2-4fdb-bb1f-3d50e8a79427",
    "name": "Ocean City Brewing Company",
    "brewery_type": "brewpub",
    "address_1": "5509 Coastal Hwy",
    "address_2": null,
    "address_3": null,
    "city": "Ocean City",
    "state_province": "Maryland",
    "postal_code": "21842-3144",
    "country": "United States",
    "longitude": -75.06838761,
    "latitude": 38.37965759,
    "phone": "4436646842",
    "website_url": "http://www.ocbrewingcompany.com",
    "state": "Maryland",
    "street": "5509 Coastal Hwy"
  },
  {
    "id": "872b17f6-785d-4116-93af-a1144865ed17",
    "name": "Ocean Sun Brewing",
    "brewery_type": "micro",
    "address_1": "3030 Curry Ford Road",
    "address_2": null,
    "address_3": null,
    "city": "Orlando",
    "state_province": "Florida",
    "postal_code": "32806-3376",
    "country": "United States",
    "longitude": -81.3249533,
    "latitude": 28.5243367,
    "phone": "4077455551",
    "website_url": null,
    "state": "Florida",
    "street": "3030 Curry Ford Road"
  },
  {
    "id": "b891398a-d135-40b8-a824-58dcaa31048d",
    "name": "Ocean View Community Brewing Co.",
    "brewery_type": "planning",
    "address_1": null,
    "address_2": null,
    "address_3": null,
    "city": "Norfolk",
    "state_province": "Virginia",
    "postal_code": "23503-4838",
    "country": "United States",
    "longitude": null,
    "latitude": null,
    "phone": "7576514170",
    "website_url": null,
    "state": "Virginia",
    "street": null
  },
  {
    "id": "673bb920-1816-468a-a4dc-1d869a7adb69",
    "name": "Oceanside Ale Works",
    "brewery_type": "micro",
    "address_1": "1800 Ord Way",
    "address_2": null,
    "address_3": null,
    "city": "Oceanside",
    "state_province": "California",
    "postal_code": "92056-1502",
    "country": "United States",
    "longitude": -117.2727432,
    "latitude": 33.21200937,
    "phone": "7607214253",
    "website_url": "http://www.oceansidealeworks.net",
    "state": "California",
    "street": "1800 Ord Way"
  },
  {
    "id": "64f90c02-c3f8-4dec-a7c1-ea176b161d88",
    "name": "Oceanside Brewing Company",
    "brewery_type": "micro",
    "address_1": "312 Via Del Norte",
    "address_2": null,
    "address_3": null,
    "city": "Oceanside",
    "state_province": "California",
    "postal_code": "92058-1232",
    "country": "United States",
    "longitude": -117.3529573,
    "latitude": 33.21369735,
    "phone": "7604537900",
    "website_url": "http://www.oceansidebrewingco.com",
    "state": "California",
    "street": "312 Via Del Norte"
  },
  {
    "id": "197b6b80-0643-419f-a39e-6b70b0113f40",
    "name": "Ocelot Brewing Co",
    "brewery_type": "micro",
    "address_1": "23600 Overland Dr Ste 180",
    "address_2": null,
    "address_3": null,
    "city": "Dulles",
    "state_province": "Virginia",
    "postal_code": "20166-4441",
    "country": "United States",
    "longitude": null,
    "latitude": null,
    "phone": "7036652146",
    "website_url": "http://www.ocelotbrewing.com",
    "state": "Virginia",
    "street": "23600 Overland Dr Ste 180"
  },
  {
    "id": "74626ac8-014e-43ff-948d-32bea22ed086",
    "name": "Ochoco Brewing Co",
    "brewery_type": "micro",
    "address_1": "380 N Main St",
    "address_2": null,
    "address_3": null,
    "city": "Prineville",
    "state_province": "Oregon",
    "postal_code": "97754-1852",
    "country": "United States",
    "longitude": -120.8469675,
    "latitude": 44.30359041,
    "phone": "5412330883",
    "website_url": "http://www.ochocobrewing.com",
    "state": "Oregon",
    "street": "380 N Main St"
  },
  {
    "id": "7028c787-cdf8-4eea-8d31-a7481eacd912",
    "name": "Ocmulgee Brewpub",
    "brewery_type": "brewpub",
    "address_1": "484 2nd St",
    "address_2": null,
    "address_3": null,
    "city": "Macon",
    "state_province": "Georgia",
    "postal_code": "31201-2734",
    "country": "United States",
    "longitude": -83.62932833,
    "latitude": 32.8360763,
    "phone": "4782542848",
    "website_url": "http://www.ocmulgeebrewpub.com",
    "state": "Georgia",
    "street": "484 2nd St"
  },
  {
    "id": "93d43473-5c16-454b-ba92-4586a4e22abc",
    "name": "Oconee Brewing Company",
    "brewery_type": "micro",
    "address_1": "202 N West St",
    "address_2": null,
    "address_3": null,
    "city": "Greensboro",
    "state_province": "Georgia",
    "postal_code": "30642-1124",
    "country": "United States",
    "longitude": null,
    "latitude": null,
    "phone": "7069201177",
    "website_url": "http://www.oconeebrewingco.com",
    "state": "Georgia",
    "street": "202 N West St"
  },
  {
    "id": "c9edf2c6-268f-459c-9223-f41fcf2a710c",
    "name": "Octopi Brewing / Untitled Art",
    "brewery_type": "micro",
    "address_1": "1131 Uniek Dr",
    "address_2": null,
    "address_3": null,
    "city": "Waunakee",
    "state_province": "Wisconsin",
    "postal_code": "53597-8947",
    "country": "United States",
    "longitude": -89.4223579,
    "latitude": 43.1858364,
    "phone": "6086204705",
    "website_url": "http://www.octopibrewing.com",
    "state": "Wisconsin",
    "street": "1131 Uniek Dr"
  },
  {
    "id": "0f063272-e447-4b7a-84d2-125dac5482cd",
    "name": "Oda Restaurant",
    "brewery_type": "brewpub",
    "address_1": "1500 Owens St",
    "address_2": null,
    "address_3": null,
    "city": "San Francisco",
    "state_province": "California",
    "postal_code": "94158-2334",
    "country": "United States",
    "longitude": -122.3954096,
    "latitude": 37.7687392,
    "phone": "4155589450",
    "website_url": "http://www.barodasf.com",
    "state": "California",
    "street": "1500 Owens St"
  },
  {
    "id": "78b74aa2-7f5e-4ce4-96ad-f36ffd789fe5",
    "name": "Odd Alewives Farm Brewery",
    "brewery_type": "micro",
    "address_1": "99 Old Rte One",
    "address_2": null,
    "address_3": null,
    "city": "Waldoboro",
    "state_province": "Maine",
    "postal_code": "04572",
    "country": "United States",
    "longitude": null,
    "latitude": null,
    "phone": "2077908406",
    "website_url": "http://www.oddalewives.com",
    "state": "Maine",
    "street": "99 Old Rte One"
  },
  {
    "id": "bd90a960-3620-4563-98d1-4b77f5c69a62",
    "name": "Odd Breed Wild Ales",
    "brewery_type": "micro",
    "address_1": "50 NE 1st St",
    "address_2": null,
    "address_3": null,
    "city": "Pompano Beach",
    "state_province": "Florida",
    "postal_code": "33060-6602",
    "country": "United States",
    "longitude": -80.124792,
    "latitude": 26.23234049,
    "phone": "8646506210",
    "website_url": "http://www.oddbreed.com",
    "state": "Florida",
    "street": "50 NE 1st St"
  },
  {
    "id": "6bacf2d3-9e03-438b-bc8d-601ca741400d",
    "name": "Odd Fellows Brewing Co",
    "brewery_type": "brewpub",
    "address_1": "124 Main St",
    "address_2": null,
    "address_3": null,
    "city": "Nashua",
    "state_province": "New Hampshire",
    "postal_code": "03060",
    "country": "United States",
    "longitude": null,
    "latitude": null,
    "phone": "6035218129",
    "website_url": "https://www.oddfellowsbrewery.com/",
    "state": "New Hampshire",
    "street": "124 Main St"
  },
  {
    "id": "52a1d246-495c-4d4a-9166-5fed18ae10f0",
    "name": "Odd Man Rush",
    "brewery_type": "micro",
    "address_1": "10930 Mausel St Ste A1",
    "address_2": null,
    "address_3": null,
    "city": "Eagle River",
    "state_province": "Alaska",
    "postal_code": "99577-8095",
    "country": "United States",
    "longitude": -149.580902,
    "latitude": 61.320013,
    "phone": "9076962337",
    "website_url": "http://www.oddmanrushbrewing.com",
    "state": "Alaska",
    "street": "10930 Mausel St Ste A1"
  },
  {
    "id": "e96f54c0-fca8-4a58-8cc6-8b538b18b55a",
    "name": "Odd Otter Brewing Company",
    "brewery_type": "micro",
    "address_1": "716 Pacific Ave",
    "address_2": null,
    "address_3": null,
    "city": "Tacoma",
    "state_province": "Washington",
    "postal_code": "98402-5208",
    "country": "United States",
    "longitude": -122.437927,
    "latitude": 47.250289,
    "phone": "2532794871",
    "website_url": "http://www.oddotterbrewing.com",
    "state": "Washington",
    "street": "716 Pacific Ave"
  },
  {
    "id": "3718d688-1dab-4e58-835d-b76ed69ba1cb",
    "name": "Odd Side Ales",
    "brewery_type": "micro",
    "address_1": "41 Washington Ave Ste 160",
    "address_2": null,
    "address_3": null,
    "city": "Grand Haven",
    "state_province": "Michigan",
    "postal_code": "49417-1392",
    "country": "United States",
    "longitude": null,
    "latitude": null,
    "phone": "6169357326",
    "website_url": "http://www.oddsideales.com",
    "state": "Michigan",
    "street": "41 Washington Ave Ste 160"
  }
]