[
  {
    "id": "904ae847-cf63-468e-bba7-59c4f95df604",
    "name": "Middle Ages Brewing Co Ltd",
    "brewery_type": "micro",
    "address_1": "120 Wilkinson St Ste 3",
    "address_2": null,
    "address_3": null,
    "city": "Syracuse",
    "state_province": "New York",
    "postal_code": "13204-2490",
    "country": "United States",
    "longitude": null,
    "latitude": null,
    "phone": "3154764250",
    "website_url": "http://www.middleagesbrewing.com",
    "state": "New York",
    "street": "120 Wilkinson St Ste 3"
  },
  {
    "id": "b7b96ece-e357-4fcf-b195-954b618ca4b6",
    "name": "Middle Brow Beer Company",
    "brewery_type": "micro",
    "address_1": "2840 W Armitage Ave",
    "address_2": null,
    "address_3": null,
    "city": "Chicago",
    "state_province": "Illinois",
    "postal_code": "60647",
    "country": "United States",
    "longitude": -87.6988905,
    "latitude": 41.9177811,
    "phone": "7088465511",
    "website_url": "http://www.middlebrowbeer.com",
    "state": "Illinois",
    "street": "2840 W Armitage Ave"
  },
  {
    "id": "53b5289a-b220-4c1a-8fe4-4d509fe6577d",
    "name": "Middle James Brewing Company",
    "brewery_type": "planning",
    "address_1": null,
    "address_2": null,
    "address_3": null,
    "city": "Pineville",
    "state_province": "North Carolina",
    "postal_code": "28134",
    "country": "United States",
    "longitude": null,
    "latitude": null,
    "phone": null,
    "website_url": null,
    "state": "North Carolina",
    "street": null
  },
  {
    "id": "47067a16-91aa-401c-920d-080104960ed1",
    "name": "Middleton Brewing (MBTX)",
    "brewery_type": "micro",
    "address_1": "101 Oakwood Loop",
    "address_2": null,
    "address_3": null,
    "city": "San Marcos",
    "state_province": "Texas",
    "postal_code": "78666-1762",
    "country": "United States",
    "longitude": null,
    "latitude": null,
    "phone": "5128473435",
    "website_url": "http://www.mbtx.com",
    "state": "Texas",
    "street": "101 Oakwood Loop"
  },
  {
    "id": "cf57e209-8ef4-4a27-8ef6-d538050e38a1",
    "name": "Middleton Brewing Co",
    "brewery_type": "brewpub",
    "address_1": "607 SE Everett Mall Way Ste 27A",
    "address_2": null,
    "address_3": null,
    "city": "Everett",
    "state_province": "Washington",
    "postal_code": "98208-3264",
    "country": "United States",
    "longitude": -122.224702,
    "latitude": 47.911397,
    "phone": "4252809178",
    "website_url": "https://www.facebook.com/MiddletonBrews",
    "state": "Washington",
    "street": "607 SE Everett Mall Way Ste 27A"
  },
  {
    "id": "146870a5-aad1-4b3a-9b25-c4af2a711f1a",
    "name": "Midland Brewing Co",
    "brewery_type": "brewpub",
    "address_1": "5011 N Saginaw Road",
    "address_2": null,
    "address_3": null,
    "city": "Midland",
    "state_province": "Michigan",
    "postal_code": "48642",
    "country": "United States",
    "longitude": -84.2910925,
    "latitude": 43.6408678,
    "phone": "9892597210",
    "website_url": "http://www.midlandbrewing.com",
    "state": "Michigan",
    "street": "5011 N Saginaw Road"
  },
  {
    "id": "b535a17f-5e36-4126-853d-0c13d4fac2ca",
    "name": "Midnight Brewery",
    "brewery_type": "micro",
    "address_1": "2410 Granite Ridge Rd Ste B",
    "address_2": null,
    "address_3": null,
    "city": "Rockville",
    "state_province": "Virginia",
    "postal_code": "23146-2234",
    "country": "United States",
    "longitude": null,
    "latitude": null,
    "phone": "8043569379",
    "website_url": "http://www.midnight-brewery.com",
    "state": "Virginia",
    "street": "2410 Granite Ridge Rd Ste B"
  },
  {
    "id": "9666ffc8-a890-450e-b3b0-16b5db29a5cc",
    "name": "Midnight Jack Brewing Company",
    "brewery_type": "closed",
    "address_1": "3801 Oceanic Dr Ste 101",
    "address_2": null,
    "address_3": null,
    "city": "Oceanside",
    "state_province": "California",
    "postal_code": "92056-5850",
    "country": "United States",
    "longitude": -117.304737,
    "latitude": 33.204836,
    "phone": "7606379679",
    "website_url": "http://www.midnightjackbrewing.com",
    "state": "California",
    "street": "3801 Oceanic Dr Ste 101"
  },
  {
    "id": "2a0a04dd-84ff-4372-90b1-bcbc30de80d7",
    "name": "Midnight Oil Brewing",
    "brewery_type": "micro",
    "address_1": "674 Pencader Dr",
    "address_2": null,
    "address_3": null,
    "city": "Newark",
    "state_province": "Delaware",
    "postal_code": "19702",
    "country": "United States",
    "longitude": null,
    "latitude": null,
    "phone": "3022867641",
    "website_url": null,
    "state": "Delaware",
    "street": "674 Pencader Dr"
  },
  {
    "id": "8e2237f6-6759-40b6-828f-e6975f5d0ae2",
    "name": "Midnight Oil Brewing Company",
    "brewery_type": "micro",
    "address_1": "674 Pencader Dr",
    "address_2": null,
    "address_3": null,
    "city": "Newark",
    "state_province": "Delaware",
    "postal_code": "19702-3348",
    "country": "United States",
    "longitude": null,
    "latitude": null,
    "phone": "3022867641",
    "website_url": "http://www.midnightoilbrewing.com",
    "state": "Delaware",
    "street": "674 Pencader Dr"
  },
  {
    "id": "7972a61a-494f-430d-8d26-cc72c3ad56e3",
    "name": "Midnight Pig Beer",
    "brewery_type": "brewpub",
    "address_1": "12337 S Route 59 Unit 155",
    "address_2": null,
    "address_3": null,
    "city": "Plainfield",
    "state_province": "Illinois",
    "postal_code": "60585-4614",
    "country": "United States",
    "longitude": null,
    "latitude": null,
    "phone": "8154363900",
    "website_url": "http://www.nevinsdraftco.com",
    "state": "Illinois",
    "street": "12337 S Route 59 Unit 155"
  },
  {
    "id": "1f6bc6e7-aa85-49d5-b281-ecd1cf7cc8df",
    "name": "Midnight Sun Brewing Co",
    "brewery_type": "micro",
    "address_1": "8111 Dimond Hook Dr",
    "address_2": null,
    "address_3": null,
    "city": "Anchorage",
    "state_province": "Alaska",
    "postal_code": "99507-3144",
    "country": "United States",
    "longitude": -149.8445465,
    "latitude": 61.1471249,
    "phone": "9073441179",
    "website_url": "http://www.midnightsunbrewing.com",
    "state": "Alaska",
    "street": "8111 Dimond Hook Dr"
  },
  {
    "id": "fec0e3af-f2bd-4b39-ab32-3c30fc0b1e6e",
    "name": "Midnite Mine Brewpub",
    "brewery_type": "micro",
    "address_1": "308 Wendell Ave",
    "address_2": null,
    "address_3": null,
    "city": "Fairbanks",
    "state_province": "Alaska",
    "postal_code": "99701-4838",
    "country": "United States",
    "longitude": -147.714159,
    "latitude": 64.845689,
    "phone": "9074565348",
    "website_url": null,
    "state": "Alaska",
    "street": "308 Wendell Ave"
  },
  {
    "id": "18bd0fc9-899e-4da7-a920-bfd640ba9081",
    "name": "Midriver Brewery",
    "brewery_type": "planning",
    "address_1": null,
    "address_2": null,
    "address_3": null,
    "city": "Cold Spring",
    "state_province": "New York",
    "postal_code": "10516",
    "country": "United States",
    "longitude": null,
    "latitude": null,
    "phone": "9146611790",
    "website_url": null,
    "state": "New York",
    "street": null
  },
  {
    "id": "4958cab7-db40-4cc5-a30c-f3f6db5c47e8",
    "name": "Midtown Brewing Co",
    "brewery_type": "micro",
    "address_1": "402 S Washington Sq",
    "address_2": null,
    "address_3": null,
    "city": "Lansing",
    "state_province": "Michigan",
    "postal_code": "48933-2172",
    "country": "United States",
    "longitude": null,
    "latitude": null,
    "phone": "5179771349",
    "website_url": "http://www.midtownbrewingco.com",
    "state": "Michigan",
    "street": "402 S Washington Sq"
  },
  {
    "id": "86f16af9-997d-47ee-adc8-fad50f57473d",
    "name": "Midwest Hop Producers LLC",
    "brewery_type": "planning",
    "address_1": null,
    "address_2": null,
    "address_3": null,
    "city": "Plattsmouth",
    "state_province": "Nebraska",
    "postal_code": "68048-7233",
    "country": "United States",
    "longitude": null,
    "latitude": null,
    "phone": "4022960633",
    "website_url": "http://www.midwesthopproducers.com",
    "state": "Nebraska",
    "street": null
  },
  {
    "id": "0fab9619-58f0-42d5-87bb-78cf88a2d2e2",
    "name": "Mighty Miss Brewing Co.",
    "brewery_type": "micro",
    "address_1": "525 S Washington Ave Ste B",
    "address_2": null,
    "address_3": null,
    "city": "Greenville",
    "state_province": "Mississippi",
    "postal_code": "38701-",
    "country": "United States",
    "longitude": null,
    "latitude": null,
    "phone": "6623796477",
    "website_url": "http://www.mightymissbeer.com",
    "state": "Mississippi",
    "street": "525 S Washington Ave Ste B"
  },
  {
    "id": "2ec76a90-b0eb-41c1-88b9-865fdb61db18",
    "name": "Mighty Mo Brew Co",
    "brewery_type": "brewpub",
    "address_1": "412 Central Ave",
    "address_2": null,
    "address_3": null,
    "city": "Great Falls",
    "state_province": "Montana",
    "postal_code": "59401-3116",
    "country": "United States",
    "longitude": -111.3004488,
    "latitude": 47.50518307,
    "phone": "4069520342",
    "website_url": "http://www.mightymobrewing.com",
    "state": "Montana",
    "street": "412 Central Ave"
  },
  {
    "id": "65621b87-399c-4756-915a-4a0b8f2fb89b",
    "name": "Mighty Squirrel",
    "brewery_type": "regional",
    "address_1": "1 David Ortiz Dr",
    "address_2": null,
    "address_3": null,
    "city": "Boston",
    "state_province": "Massachusetts",
    "postal_code": "02215",
    "country": "United States",
    "longitude": -71.101228347381,
    "latitude": 42.347239312681,
    "phone": "8575575700",
    "website_url": "http://www.mightysquirrel.com",
    "state": "Massachusetts",
    "street": "1 David Ortiz Dr"
  },
  {
    "id": "f856d961-d228-4dce-aa16-57eef43e6298",
    "name": "Mighty Squirrel Brewing Co.",
    "brewery_type": "regional",
    "address_1": "411 Waverley Oaks Rd",
    "address_2": null,
    "address_3": null,
    "city": "Waltham",
    "state_province": "Massachusetts",
    "postal_code": "02452",
    "country": "United States",
    "longitude": -71.201097572517,
    "latitude": 42.387657733538,
    "phone": "7818399242",
    "website_url": "http://www.mightysquirrel.com",
    "state": "Massachusetts",
    "street": "411 Waverley Oaks Rd"
  },
  {
    "id": "bd9dc3d5-c3c8-4629-83f3-94e9bf3a87e2",
    "name": "Migration Brewing Co",
    "brewery_type": "brewpub",
    "address_1": "2828 NE Glisan St",
    "address_2": null,
    "address_3": null,
    "city": "Portland",
    "state_province": "Oregon",
    "postal_code": "97232",
    "country": "United States",
    "longitude": -122.63635,
    "latitude": 45.52624,
    "phone": "5032065221",
    "website_url": "http://www.migrationbrewing.com",
    "state": "Oregon",
    "street": "2828 NE Glisan St"
  },
  {
    "id": "12a897d9-1f87-4f57-b610-7fc1328fbaa8",
    "name": "Migration Brewing Co",
    "brewery_type": "micro",
    "address_1": "1818 NE Wilkes Rd",
    "address_2": null,
    "address_3": null,
    "city": "Portland",
    "state_province": "Oregon",
    "postal_code": "97230",
    "country": "United States",
    "longitude": -122.4772531,
    "latitude": 45.5393653,
    "phone": "9712743770",
    "website_url": null,
    "state": "Oregon",
    "street": "1818 NE Wilkes Rd"
  },
  {
    "id": "d2faf757-7ac9-4864-af86-f34beff36f11",
    "name": "Mike Hess Brewing",
    "brewery_type": "micro",
    "address_1": "3812 Grim Ave",
    "address_2": null,
    "address_3": null,
    "city": "San Diego",
    "state_province": "California",
    "postal_code": "92104-3602",
    "country": "United States",
    "longitude": -117.12854,
    "latitude": 32.747711,
    "phone": "6192557136",
    "website_url": null,
    "state": "California",
    "street": "3812 Grim Ave"
  },
  {
    "id": "084aeeb4-c3dd-4f83-9d43-732e9bac41d2",
    "name": "Mike Hess Brewing - Miramar",
    "brewery_type": "micro",
    "address_1": "7955 Silverton Ave Ste 1201",
    "address_2": null,
    "address_3": null,
    "city": "San Diego",
    "state_province": "California",
    "postal_code": "92126-6357",
    "country": "United States",
    "longitude": -117.1518284,
    "latitude": 32.89080081,
    "phone": "6198876453",
    "website_url": "http://www.hessbrewing.com",
    "state": "California",
    "street": "7955 Silverton Ave Ste 1201"
  },
  {
    "id": "7b023a28-3a41-4c3c-ae2a-e75d588872b6",
    "name": "Mikerphone Brewing",
    "brewery_type": "micro",
    "address_1": "121 Garlisch Dr",
    "address_2": null,
    "address_3": null,
    "city": "Elk Grove Village",
    "state_province": "Illinois",
    "postal_code": "60007-1322",
    "country": "United States",
    "longitude": -87.96704535,
    "latitude": 42.02909208,
    "phone": "8472648904",
    "website_url": "http://www.mikerphonebrewing.com",
    "state": "Illinois",
    "street": "121 Garlisch Dr"
  },
  {
    "id": "e5d8969a-c6b8-4931-901b-0ba2222bcd63",
    "name": "Mikkeller Berlin",
    "brewery_type": "bar",
    "address_1": "Torstra\u00dfe 102",
    "address_2": null,
    "address_3": null,
    "city": "Berlin",
    "state_province": "Berlin",
    "postal_code": "10119",
    "country": "Germany",
    "longitude": 52.5285769,
    "latitude": 13.3942421,
    "phone": null,
    "website_url": "https://mikkeller.com/locations/mikkeller-berlin",
    "state": "Berlin",
    "street": "Torstra\u00dfe 102"
  },
  {
    "id": "aba13c17-b1c4-476f-8b66-eabe4d67008d",
    "name": "Mikkeller Brewing NYC",
    "brewery_type": "brewpub",
    "address_1": "12001 Roosevelt Ave",
    "address_2": null,
    "address_3": null,
    "city": "Flushing",
    "state_province": "New York",
    "postal_code": "11368-1653",
    "country": "United States",
    "longitude": null,
    "latitude": null,
    "phone": "9175720357",
    "website_url": "http://mikkellernyc.com",
    "state": "New York",
    "street": "12001 Roosevelt Ave"
  },
  {
    "id": "385a2831-a7d5-4d07-bcff-d9d3312c571c",
    "name": "Mikkeller Brewing San Diego",
    "brewery_type": "micro",
    "address_1": "9366 Cabot Dr",
    "address_2": null,
    "address_3": null,
    "city": "San Diego",
    "state_province": "California",
    "postal_code": "92126-4311",
    "country": "United States",
    "longitude": -117.144171,
    "latitude": 32.89146307,
    "phone": null,
    "website_url": null,
    "state": "California",
    "street": "9366 Cabot Dr"
  },
  {
    "id": "7770266c-6747-4a70-b4e6-fa82d252f4f2",
    "name": "Mile Post 111 Brewing",
    "brewery_type": "brewpub",
    "address_1": "407 Aplets Way",
    "address_2": null,
    "address_3": null,
    "city": "Cashmere",
    "state_province": "Washington",
    "postal_code": "98815",
    "country": "United States",
    "longitude": -120.4700494,
    "latitude": 47.5236059,
    "phone": "5098880222",
    "website_url": "http://www.milepost111brewingcompany.com",
    "state": "Washington",
    "street": "407 Aplets Way"
  },
  {
    "id": "4a6d47c5-6fd8-4e40-b1df-a831077878ab",
    "name": "Mile Wide Beer Co.",
    "brewery_type": "micro",
    "address_1": "636 Barret Ave",
    "address_2": null,
    "address_3": null,
    "city": "Louisville",
    "state_province": "Kentucky",
    "postal_code": "40204-1142",
    "country": "United States",
    "longitude": -85.7330744,
    "latitude": 38.2465656,
    "phone": "5024098139",
    "website_url": "http://www.milewidebeer.com",
    "state": "Kentucky",
    "street": "636 Barret Ave"
  },
  {
    "id": "7c8d69e8-5b1c-4de1-b8ce-e4368bc2a4e2",
    "name": "Miles Craft Ales @ Miles Wine Cellars",
    "brewery_type": "contract",
    "address_1": "168 Randall Rd",
    "address_2": null,
    "address_3": null,
    "city": "Himrod",
    "state_province": "New York",
    "postal_code": "14842-9715",
    "country": "United States",
    "longitude": null,
    "latitude": null,
    "phone": "6072437742",
    "website_url": "http://www.mileswinecellars.com",
    "state": "New York",
    "street": "168 Randall Rd"
  },
  {
    "id": "5b48ea3f-2db4-4ecf-b864-de3579651928",
    "name": "Milford Point Brewing Company",
    "brewery_type": "micro",
    "address_1": "230 Woodmont Rd Ste 29B",
    "address_2": null,
    "address_3": null,
    "city": "Milford",
    "state_province": "Connecticut",
    "postal_code": "06460",
    "country": "United States",
    "longitude": null,
    "latitude": null,
    "phone": "2037019077",
    "website_url": null,
    "state": "Connecticut",
    "street": "230 Woodmont Rd Ste 29B"
  },
  {
    "id": "d5e5313e-a58c-4076-a44a-07c37cb61d94",
    "name": "Milkhouse Brewery at Stillpoint Farm",
    "brewery_type": "micro",
    "address_1": "8253 Dollyhyde Rd",
    "address_2": null,
    "address_3": null,
    "city": "Mount Airy",
    "state_province": "Maryland",
    "postal_code": "21771-9404",
    "country": "United States",
    "longitude": null,
    "latitude": null,
    "phone": "2404011517",
    "website_url": "http://www.milkhousebrewery.com",
    "state": "Maryland",
    "street": "8253 Dollyhyde Rd"
  },
  {
    "id": "ec4a41db-5ab0-47b2-b6a8-3fbcad469400",
    "name": "Mill City Brew Werks",
    "brewery_type": "closed",
    "address_1": "339 NE Cedar St",
    "address_2": null,
    "address_3": null,
    "city": "Camas",
    "state_province": "Washington",
    "postal_code": "98607-2142",
    "country": "United States",
    "longitude": -122.404172,
    "latitude": 45.585626,
    "phone": "3602104761",
    "website_url": "http://www.mcbwbeer.com",
    "state": "Washington",
    "street": "339 NE Cedar St"
  },
  {
    "id": "6630c59f-a5f1-4d38-8a77-1a4436c232b1",
    "name": "Mill Creek Brewing Co.",
    "brewery_type": "micro",
    "address_1": "2008B Johnson Industrial Blvd",
    "address_2": null,
    "address_3": null,
    "city": "Nolensville",
    "state_province": "Tennessee",
    "postal_code": "37135-9773",
    "country": "United States",
    "longitude": -86.67009573,
    "latitude": 35.9575301,
    "phone": "6157763377",
    "website_url": "http://www.millcreekbrewingco.com",
    "state": "Tennessee",
    "street": "2008B Johnson Industrial Blvd"
  },
  {
    "id": "91ed8c2e-960f-4c44-af5b-05e3d550f382",
    "name": "Mill Creek Brewpub",
    "brewery_type": "closed",
    "address_1": "11 S Palouse St",
    "address_2": null,
    "address_3": null,
    "city": "Walla Walla",
    "state_province": "Washington",
    "postal_code": "99362-1925",
    "country": "United States",
    "longitude": -118.3349272,
    "latitude": 46.06927939,
    "phone": "5095222440",
    "website_url": "http://www.millcreek-brewpub.com",
    "state": "Washington",
    "street": "11 S Palouse St"
  },
  {
    "id": "8dc2e866-7df1-4d3c-b255-7a3848f88d46",
    "name": "Mill House Brewing Company",
    "brewery_type": "brewpub",
    "address_1": "289 Mill St",
    "address_2": null,
    "address_3": null,
    "city": "Poughkeepsie",
    "state_province": "New York",
    "postal_code": "12601-3111",
    "country": "United States",
    "longitude": -73.926472,
    "latitude": 41.705077,
    "phone": "8452345573",
    "website_url": "http://www.millhousebrewing.com",
    "state": "New York",
    "street": "289 Mill St"
  },
  {
    "id": "f7aab246-6d54-4a53-99de-d4a2a306f60e",
    "name": "Mill House Brewing Company - Production",
    "brewery_type": "micro",
    "address_1": null,
    "address_2": null,
    "address_3": null,
    "city": "Poughkeepsie",
    "state_province": "New York",
    "postal_code": "12601",
    "country": "United States",
    "longitude": null,
    "latitude": null,
    "phone": "8452345573",
    "website_url": null,
    "state": "New York",
    "street": null
  },
  {
    "id": "a04edd75-2b83-4aa5-9dc1-d89bf61f2e38",
    "name": "Mill River Brewing BBQ & Smokehouse",
    "brewery_type": "brewpub",
    "address_1": "10 Beauregard Dr",
    "address_2": null,
    "address_3": null,
    "city": "Saint Albans City",
    "state_province": "Vermont",
    "postal_code": "05478",
    "country": "United States",
    "longitude": null,
    "latitude": null,
    "phone": "8025824182",
    "website_url": "http://www.millriverbrewing.com",
    "state": "Vermont",
    "street": "10 Beauregard Dr"
  },
  {
    "id": "48e6d408-34ed-41ed-8bfb-fcd23598a36c",
    "name": "Mill Valley Beer Works",
    "brewery_type": "brewpub",
    "address_1": "173 Throckmorton Ave",
    "address_2": null,
    "address_3": null,
    "city": "Mill Valley",
    "state_province": "California",
    "postal_code": "94941-1909",
    "country": "United States",
    "longitude": -122.5493619,
    "latitude": 37.9053888,
    "phone": null,
    "website_url": "http://www.millvalleybeerworks.com",
    "state": "California",
    "street": "173 Throckmorton Ave"
  },
  {
    "id": "5bacfaa1-8019-431f-8e45-a7a999fa5871",
    "name": "Mill Whistle Brewing",
    "brewery_type": "micro",
    "address_1": "1354 Lennoxville Rd",
    "address_2": null,
    "address_3": null,
    "city": "Beaufort",
    "state_province": "North Carolina",
    "postal_code": "28616",
    "country": "United States",
    "longitude": -76.65042934,
    "latitude": 34.71738799,
    "phone": null,
    "website_url": null,
    "state": "North Carolina",
    "street": "1354 Lennoxville Rd"
  },
  {
    "id": "c240ef6b-1834-4be5-815d-7246abfcee05",
    "name": "Millcreek Brewing Company",
    "brewery_type": "brewpub",
    "address_1": "4102 W Lake Rd",
    "address_2": null,
    "address_3": null,
    "city": "Erie",
    "state_province": "Pennsylvania",
    "postal_code": "16505-1561",
    "country": "United States",
    "longitude": -80.3312655,
    "latitude": 42.029976,
    "phone": "8146162739",
    "website_url": "http://www.millcreekbrew.com",
    "state": "Pennsylvania",
    "street": "4102 W Lake Rd"
  },
  {
    "id": "c6d5739a-7f19-404c-a561-009c384535d5",
    "name": "Millennial Brewing Company",
    "brewery_type": "micro",
    "address_1": "1811 Royal Palm Ave",
    "address_2": null,
    "address_3": null,
    "city": "Fort Myers",
    "state_province": "Florida",
    "postal_code": "33901-3023",
    "country": "United States",
    "longitude": -81.8643461,
    "latitude": 26.6429182,
    "phone": "2392712255",
    "website_url": "http://www.millennialbrewing.com",
    "state": "Florida",
    "street": "1811 Royal Palm Ave"
  },
  {
    "id": "5418e274-79d7-436c-a772-df99b4fd26ce",
    "name": "MillerCoors Brewing Co - Albany",
    "brewery_type": "large",
    "address_1": "405 Cordele Rd",
    "address_2": null,
    "address_3": null,
    "city": "Albany",
    "state_province": "Georgia",
    "postal_code": "31705-2109",
    "country": "United States",
    "longitude": -84.08203126,
    "latitude": 31.58549343,
    "phone": null,
    "website_url": null,
    "state": "Georgia",
    "street": "405 Cordele Rd"
  },
  {
    "id": "b79c9be7-524c-413c-ba52-575944037985",
    "name": "MillerCoors Brewing Co - Fort Worth",
    "brewery_type": "large",
    "address_1": "7001 South Fwy",
    "address_2": null,
    "address_3": null,
    "city": "Fort Worth",
    "state_province": "Texas",
    "postal_code": "76134-4001",
    "country": "United States",
    "longitude": -97.3194181,
    "latitude": 32.6411318,
    "phone": "8175513255",
    "website_url": "http://www.millerbrewing.com",
    "state": "Texas",
    "street": "7001 South Fwy"
  },
  {
    "id": "e58e3205-d7d2-4a33-b4c4-c5bbdaca6d88",
    "name": "MillerCoors Brewing Co - Golden",
    "brewery_type": "large",
    "address_1": "311 10th St",
    "address_2": null,
    "address_3": null,
    "city": "Golden",
    "state_province": "Colorado",
    "postal_code": "80401-5811",
    "country": "United States",
    "longitude": -105.219592,
    "latitude": 39.759495,
    "phone": "3032776246",
    "website_url": null,
    "state": "Colorado",
    "street": "311 10th St"
  },
  {
    "id": "bc3fa044-4efc-4fa3-aa78-de5bdc12a930",
    "name": "MillerCoors Brewing Co - Irwindale",
    "brewery_type": "large",
    "address_1": "15801 1st St",
    "address_2": null,
    "address_3": null,
    "city": "Irwindale",
    "state_province": "California",
    "postal_code": "91706-2069",
    "country": "United States",
    "longitude": -117.9396681,
    "latitude": 34.12577411,
    "phone": "6269696225",
    "website_url": "http://www.millerbrewing.com",
    "state": "California",
    "street": "15801 1st St"
  },
  {
    "id": "083550ee-a87a-40d1-bba1-7aeab8ace401",
    "name": "MillerCoors Brewing Co - Milwaukee",
    "brewery_type": "large",
    "address_1": "4251 W State St",
    "address_2": null,
    "address_3": null,
    "city": "Milwaukee",
    "state_province": "Wisconsin",
    "postal_code": "53208-3137",
    "country": "United States",
    "longitude": -87.96633679,
    "latitude": 43.04207981,
    "phone": null,
    "website_url": null,
    "state": "Wisconsin",
    "street": "4251 W State St"
  },
  {
    "id": "b667f592-f199-4e32-b401-0b296a447bde",
    "name": "MillerCoors Brewing Co - Shenandoah Facility",
    "brewery_type": "large",
    "address_1": "5135 South East Side Hwy",
    "address_2": null,
    "address_3": null,
    "city": "Elkton",
    "state_province": "Virginia",
    "postal_code": "22827-3469",
    "country": "United States",
    "longitude": -78.68239615,
    "latitude": 38.35777975,
    "phone": "5402898201",
    "website_url": "http://www.coors.com",
    "state": "Virginia",
    "street": "5135 South East Side Hwy"
  },
  {
    "id": "11b078bc-1356-418c-b59e-544845f135b2",
    "name": "MillerCoors Brewing Co - Trenton",
    "brewery_type": "large",
    "address_1": "2525 Wayne Madison Rd",
    "address_2": null,
    "address_3": null,
    "city": "Trenton",
    "state_province": "Ohio",
    "postal_code": "45067-9760",
    "country": "United States",
    "longitude": -84.48297139,
    "latitude": 39.45673615,
    "phone": "5138964601",
    "website_url": "http://www.millerbrewing.com",
    "state": "Ohio",
    "street": "2525 Wayne Madison Rd"
  }
]