[
  {
    "id": "f80dcefb-bbb4-4a31-ac13-be85108c31f3",
    "name": "FlyBoy Brewing",
    "brewery_type": "closed",
    "address_1": "15630 Boones Ferry Rd Ste 1A",
    "address_2": null,
    "address_3": null,
    "city": "Lake Oswego",
    "state_province": "Oregon",
    "postal_code": "97035-3455",
    "country": "United States",
    "longitude": -122.7165,
    "latitude": 45.41274998,
    "phone": "5039081281",
    "website_url": "http://www.flyboybeer.com",
    "state": "Oregon",
    "street": "15630 Boones Ferry Rd Ste 1A"
  },
  {
    "id": "295b8a48-f12c-4f0c-8762-405a83a1b6e6",
    "name": "FlyBoy Brewing",
    "brewery_type": "micro",
    "address_1": "15230 SW Sequoia Parkway",
    "address_2": null,
    "address_3": null,
    "city": "Tigard",
    "state_province": "Oregon",
    "postal_code": "97224",
    "country": "United States",
    "longitude": -122.7458813,
    "latitude": 45.41087854,
    "phone": "9713170137",
    "website_url": "http://www.flyboybrewing.com",
    "state": "Oregon",
    "street": "15230 SW Sequoia Parkway"
  },
  {
    "id": "83987247-12ba-49f6-b677-6b28384d3c9d",
    "name": "Flycaster Brewing Co.",
    "brewery_type": "closed",
    "address_1": "12815 NE 124th St Ste I",
    "address_2": null,
    "address_3": null,
    "city": "Kirkland",
    "state_province": "Washington",
    "postal_code": "98034-8313",
    "country": "United States",
    "longitude": -122.169021,
    "latitude": 47.711115,
    "phone": "2069636626",
    "website_url": "https://flycasterbrewing.com",
    "state": "Washington",
    "street": "12815 NE 124th St Ste I"
  },
  {
    "id": "60dbcce5-f754-4a42-ac63-e3a246b7a0fb",
    "name": "Flyers Restaurant and Brewery",
    "brewery_type": "brewpub",
    "address_1": "32295 State Route 20",
    "address_2": null,
    "address_3": null,
    "city": "Oak Harbor",
    "state_province": "Washington",
    "postal_code": "98277-5923",
    "country": "United States",
    "longitude": -122.6528474,
    "latitude": 48.2991197,
    "phone": "3606755858",
    "website_url": "http://www.eatatflyers.com",
    "state": "Washington",
    "street": "32295 State Route 20"
  },
  {
    "id": "aecbe0a5-c680-45a0-b1dd-8bf5b04d9f3a",
    "name": "Flying Basset Brewing",
    "brewery_type": "brewpub",
    "address_1": "720 W Ray Rd",
    "address_2": null,
    "address_3": null,
    "city": "Gilbert",
    "state_province": "Arizona",
    "postal_code": "85233",
    "country": "United States",
    "longitude": -111.8054389,
    "latitude": 33.32098148,
    "phone": "4804261373",
    "website_url": "http://www.flyingbassetbrewing.com",
    "state": "Arizona",
    "street": "720 W Ray Rd"
  },
  {
    "id": "64596f88-a3f9-4d17-a51d-848b004ae4a1",
    "name": "Flying Belgian Brewery",
    "brewery_type": "micro",
    "address_1": "211 Main St",
    "address_2": null,
    "address_3": null,
    "city": "Farmingdale",
    "state_province": "New York",
    "postal_code": "11735-2675",
    "country": "United States",
    "longitude": -73.44588651,
    "latitude": 40.73359788,
    "phone": "8184577548",
    "website_url": "http://www.flyingbelgianbrewery.com",
    "state": "New York",
    "street": "211 Main St"
  },
  {
    "id": "c8b11b14-e5ba-401d-accb-d3c74a54c98e",
    "name": "Flying Bike Cooperative Brewery",
    "brewery_type": "micro",
    "address_1": "8570 Greenwood Ave N",
    "address_2": null,
    "address_3": null,
    "city": "Seattle",
    "state_province": "Washington",
    "postal_code": "98103-3614",
    "country": "United States",
    "longitude": -122.3550721,
    "latitude": 47.6920561,
    "phone": "2064287709",
    "website_url": "http://www.flyingbike.coop",
    "state": "Washington",
    "street": "8570 Greenwood Ave N"
  },
  {
    "id": "891b1209-e442-48c6-ac73-6cdae5cc128a",
    "name": "Flying Bison Brewing Co",
    "brewery_type": "micro",
    "address_1": "840 Seneca St",
    "address_2": null,
    "address_3": null,
    "city": "Buffalo",
    "state_province": "New York",
    "postal_code": "14210-1414",
    "country": "United States",
    "longitude": -78.8458326,
    "latitude": 42.8758185,
    "phone": "7168731557",
    "website_url": "http://www.flyingbisonbrewing.com",
    "state": "New York",
    "street": "840 Seneca St"
  },
  {
    "id": "f8575860-7e83-4dee-9625-b2819c053973",
    "name": "Flying Boat Brewing Company",
    "brewery_type": "micro",
    "address_1": "1776 11th Ave N",
    "address_2": null,
    "address_3": null,
    "city": "St Petersburg",
    "state_province": "Florida",
    "postal_code": "33713-5747",
    "country": "United States",
    "longitude": -82.65719969,
    "latitude": 27.78284571,
    "phone": "7278002999",
    "website_url": "http://www.flyingboatbrewing.com",
    "state": "Florida",
    "street": "1776 11th Ave N"
  },
  {
    "id": "e2b339ba-8984-497a-ba6b-91882dec1515",
    "name": "Flying Dog Brewery",
    "brewery_type": "regional",
    "address_1": "4607 Wedgewood Blvd",
    "address_2": null,
    "address_3": null,
    "city": "Frederick",
    "state_province": "Maryland",
    "postal_code": "21703-7120",
    "country": "United States",
    "longitude": -77.42679107,
    "latitude": 39.3628322,
    "phone": "3016947899",
    "website_url": "http://www.flyingdogbrewery.com",
    "state": "Maryland",
    "street": "4607 Wedgewood Blvd"
  },
  {
    "id": "942a943c-ddf3-4a7c-984b-2176a1ba8834",
    "name": "Flying Dreams Brewing Co.",
    "brewery_type": "micro",
    "address_1": "455B Park Ave",
    "address_2": null,
    "address_3": null,
    "city": "Worcester",
    "state_province": "Massachusetts",
    "postal_code": "01610",
    "country": "United States",
    "longitude": -71.82618857,
    "latitude": 42.25419957,
    "phone": "5089268251",
    "website_url": "http://www.flyingdreamsbrewing.com",
    "state": "Massachusetts",
    "street": "455B Park Ave"
  },
  {
    "id": "d2a781ba-48b3-4a49-8202-cafdde5fbd8d",
    "name": "Flying Fish Brewing Co",
    "brewery_type": "regional",
    "address_1": "900 Kennedy Blvd",
    "address_2": null,
    "address_3": null,
    "city": "Somerdale",
    "state_province": "New Jersey",
    "postal_code": "08083-1031",
    "country": "United States",
    "longitude": -75.02089526,
    "latitude": 39.85394176,
    "phone": "8565043442",
    "website_url": "http://www.flyingfish.com",
    "state": "New Jersey",
    "street": "900 Kennedy Blvd"
  },
  {
    "id": "3e264584-4208-4f8f-afcf-caa974679c1d",
    "name": "Flying Goose Brewpub",
    "brewery_type": "brewpub",
    "address_1": "40 Andover Rd",
    "address_2": null,
    "address_3": null,
    "city": "New London",
    "state_province": "New Hampshire",
    "postal_code": "03257-5901",
    "country": "United States",
    "longitude": null,
    "latitude": null,
    "phone": "6035266899",
    "website_url": "http://www.flyinggoose.com",
    "state": "New Hampshire",
    "street": "40 Andover Rd"
  },
  {
    "id": "230482be-8886-42e9-b6ae-25948beba74c",
    "name": "Flying Heart Brewing",
    "brewery_type": "micro",
    "address_1": "700 Barksdale Blvd",
    "address_2": null,
    "address_3": null,
    "city": "Bossier City",
    "state_province": "Louisiana",
    "postal_code": "71111-4502",
    "country": "United States",
    "longitude": -93.732075,
    "latitude": 32.515706,
    "phone": "3183448775",
    "website_url": "http://www.flyingheartbrewing.com",
    "state": "Louisiana",
    "street": "700 Barksdale Blvd"
  },
  {
    "id": "f803556e-bc5e-4ce2-b4c0-197818963520",
    "name": "Flying Lion Brewing",
    "brewery_type": "micro",
    "address_1": "5041 Rainier Ave S Ste 106",
    "address_2": null,
    "address_3": null,
    "city": "Seattle",
    "state_province": "Washington",
    "postal_code": "98118-1946",
    "country": "United States",
    "longitude": -122.2840136,
    "latitude": 47.5560348,
    "phone": "2066599912",
    "website_url": "http://www.flyinglionbrewing.com",
    "state": "Washington",
    "street": "5041 Rainier Ave S Ste 106"
  },
  {
    "id": "277143dd-a012-4650-9ab5-603a9b5afe5c",
    "name": "Flying Machine Brewing Company",
    "brewery_type": "planning",
    "address_1": null,
    "address_2": null,
    "address_3": null,
    "city": "Wilmington",
    "state_province": "North Carolina",
    "postal_code": "28403",
    "country": "United States",
    "longitude": null,
    "latitude": null,
    "phone": null,
    "website_url": "http://www.facebook.com/flyingmachinebrewing",
    "state": "North Carolina",
    "street": null
  },
  {
    "id": "7095f8fc-bb6c-4bd3-88e2-b4900e0ceee0",
    "name": "Flying Man Brewing Company",
    "brewery_type": "micro",
    "address_1": "2400 Patterson Industrial",
    "address_2": null,
    "address_3": null,
    "city": "Austin",
    "state_province": "Texas",
    "postal_code": "78660",
    "country": "United States",
    "longitude": null,
    "latitude": null,
    "phone": "5129104099",
    "website_url": "http://www.flyingmanbrewing.com",
    "state": "Texas",
    "street": "2400 Patterson Industrial"
  },
  {
    "id": "5bb89793-bf00-4a2b-81a5-4bba78134e12",
    "name": "Flying Mouse Brewery",
    "brewery_type": "micro",
    "address_1": "221 Precast Way",
    "address_2": null,
    "address_3": null,
    "city": "Troutville",
    "state_province": "Virginia",
    "postal_code": "24175-6099",
    "country": "United States",
    "longitude": null,
    "latitude": null,
    "phone": null,
    "website_url": null,
    "state": "Virginia",
    "street": "221 Precast Way"
  },
  {
    "id": "5714fc64-53b8-45a0-98a6-c93575828a92",
    "name": "Flying Rhino Brewing Company",
    "brewery_type": "planning",
    "address_1": null,
    "address_2": null,
    "address_3": null,
    "city": "Houston",
    "state_province": "Texas",
    "postal_code": "77077-6108",
    "country": "United States",
    "longitude": null,
    "latitude": null,
    "phone": "8326510114",
    "website_url": "http://flyingrhinobrewing.com/",
    "state": "Texas",
    "street": null
  },
  {
    "id": "220b8569-7203-42e3-8c6a-1565f5ba0f2f",
    "name": "Flying Tiger Brewery",
    "brewery_type": "micro",
    "address_1": "506 N 2nd St",
    "address_2": null,
    "address_3": null,
    "city": "Monroe",
    "state_province": "Louisiana",
    "postal_code": "71201-6234",
    "country": "United States",
    "longitude": -92.11970662,
    "latitude": 32.50586475,
    "phone": "3185471738",
    "website_url": "http://www.flyingtigerbeer.com",
    "state": "Louisiana",
    "street": "506 N 2nd St"
  },
  {
    "id": "d4af7a8e-f8de-40e8-91cd-b09c827fe215",
    "name": "Flyover Brewing Co",
    "brewery_type": "brewpub",
    "address_1": "1824 Broadway",
    "address_2": null,
    "address_3": null,
    "city": "Scottsbluff",
    "state_province": "Nebraska",
    "postal_code": "69361-2458",
    "country": "United States",
    "longitude": -103.6629749,
    "latitude": 41.8651034,
    "phone": "3085750335",
    "website_url": "https://www.flyoverbrewingcompany.com",
    "state": "Nebraska",
    "street": "1824 Broadway"
  },
  {
    "id": "56790b8f-beb7-4218-92cf-82cfbcd04b7e",
    "name": "Flytrap Brewing",
    "brewery_type": "micro",
    "address_1": "319 Walnut St",
    "address_2": null,
    "address_3": null,
    "city": "Wilmington",
    "state_province": "North Carolina",
    "postal_code": "28401-4051",
    "country": "United States",
    "longitude": -77.94545788,
    "latitude": 34.24034335,
    "phone": "9107692881",
    "website_url": "http://flytrapbrewing.com",
    "state": "North Carolina",
    "street": "319 Walnut St"
  },
  {
    "id": "da405a76-eb2d-423c-8d17-04d21b76369a",
    "name": "Flyway Brewing Co",
    "brewery_type": "brewpub",
    "address_1": "314 Maple St",
    "address_2": null,
    "address_3": null,
    "city": "North Little Rock",
    "state_province": "Arkansas",
    "postal_code": "72114-5334",
    "country": "United States",
    "longitude": null,
    "latitude": null,
    "phone": "5018123192",
    "website_url": null,
    "state": "Arkansas",
    "street": "314 Maple St"
  },
  {
    "id": "6d87f606-4479-4425-9427-9b592808ad32",
    "name": "Flywheel Brewing Company",
    "brewery_type": "micro",
    "address_1": "218 S Mulberry St Ste 103",
    "address_2": null,
    "address_3": null,
    "city": "Elizabethtown",
    "state_province": "Kentucky",
    "postal_code": "42701-1431",
    "country": "United States",
    "longitude": null,
    "latitude": null,
    "phone": null,
    "website_url": "http://www.flywheelbrewing.com",
    "state": "Kentucky",
    "street": "218 S Mulberry St Ste 103"
  },
  {
    "id": "3567b09e-51e3-4f69-8666-8a3ff46d405b",
    "name": "Foam Brewers",
    "brewery_type": "micro",
    "address_1": "112 Lake St",
    "address_2": null,
    "address_3": null,
    "city": "Burlington",
    "state_province": "Vermont",
    "postal_code": "05401-5284",
    "country": "United States",
    "longitude": -73.2200287,
    "latitude": 44.4793121,
    "phone": "8023992511",
    "website_url": "http://www.foambrewers.com",
    "state": "Vermont",
    "street": "112 Lake St"
  },
  {
    "id": "82abc19c-6022-4115-9e8e-62e33cd353c1",
    "name": "Fogbelt Brewing Co",
    "brewery_type": "brewpub",
    "address_1": "1305 Cleveland Ave",
    "address_2": null,
    "address_3": null,
    "city": "Santa Rosa",
    "state_province": "California",
    "postal_code": "95401-4211",
    "country": "United States",
    "longitude": -122.7266079,
    "latitude": 38.4490004,
    "phone": "7079783400",
    "website_url": "http://www.fogbeltbrewing.com",
    "state": "California",
    "street": "1305 Cleveland Ave"
  },
  {
    "id": "287dfebf-9ff0-4fab-b98d-720e0d7816ef",
    "name": "Foggy Noggin Brewing",
    "brewery_type": "micro",
    "address_1": "22329 53rd Ave SE",
    "address_2": null,
    "address_3": null,
    "city": "Bothell",
    "state_province": "Washington",
    "postal_code": "98021-8017",
    "country": "United States",
    "longitude": -122.161117,
    "latitude": 47.794727,
    "phone": "2065539223",
    "website_url": "http://www.foggynogginbrewing.com",
    "state": "Washington",
    "street": "22329 53rd Ave SE"
  },
  {
    "id": "529f1fc8-2f98-43d1-b8b1-897a324ea20c",
    "name": "Fogtown Brewing Company",
    "brewery_type": "micro",
    "address_1": "25 Pine St",
    "address_2": null,
    "address_3": null,
    "city": "Ellsworth",
    "state_province": "Maine",
    "postal_code": "04605-2023",
    "country": "United States",
    "longitude": -68.42259791,
    "latitude": 44.5408544,
    "phone": "6103897224",
    "website_url": "http://www.fogtownbrewing.com",
    "state": "Maine",
    "street": "25 Pine St"
  },
  {
    "id": "87b318f5-5c45-4e21-b577-5389e650453a",
    "name": "Foley Brothers Brewing Co.",
    "brewery_type": "micro",
    "address_1": "79 Stone Mill Dam Rd",
    "address_2": null,
    "address_3": null,
    "city": "Brandon",
    "state_province": "Vermont",
    "postal_code": "05733-8945",
    "country": "United States",
    "longitude": null,
    "latitude": null,
    "phone": "8024658413",
    "website_url": null,
    "state": "Vermont",
    "street": "79 Stone Mill Dam Rd"
  },
  {
    "id": "c5444860-29b6-491f-b5b6-a5b598fd5d2c",
    "name": "Folklore Brewing",
    "brewery_type": "micro",
    "address_1": "153 Mary Lou Ln",
    "address_2": null,
    "address_3": null,
    "city": "Dothan",
    "state_province": "Alabama",
    "postal_code": "36301-9521",
    "country": "United States",
    "longitude": null,
    "latitude": null,
    "phone": "3347022337",
    "website_url": "http://www.folklorebrewing.com",
    "state": "Alabama",
    "street": "153 Mary Lou Ln"
  },
  {
    "id": "231bb644-13a6-4731-b570-459ba212b3f9",
    "name": "Folksbier",
    "brewery_type": "regional",
    "address_1": "101 Luquer St # 103",
    "address_2": null,
    "address_3": null,
    "city": "Brooklyn",
    "state_province": "New York",
    "postal_code": "11231-3308",
    "country": "United States",
    "longitude": -74.00099132,
    "latitude": 40.6779358,
    "phone": null,
    "website_url": "http://www.folksbier.com",
    "state": "New York",
    "street": "101 Luquer St # 103"
  },
  {
    "id": "a33083eb-89f0-465e-979f-4990cccb47dd",
    "name": "Folsom Brewery",
    "brewery_type": "planning",
    "address_1": null,
    "address_2": null,
    "address_3": null,
    "city": "Folsom",
    "state_province": "Louisiana",
    "postal_code": "70437-",
    "country": "United States",
    "longitude": null,
    "latitude": null,
    "phone": "9853737631",
    "website_url": null,
    "state": "Louisiana",
    "street": null
  },
  {
    "id": "4ef2a5c4-c562-4405-acd7-c57dd4d2d6ac",
    "name": "Fonta Flora Brewery",
    "brewery_type": "micro",
    "address_1": "317 N Green St",
    "address_2": null,
    "address_3": null,
    "city": "Morganton",
    "state_province": "North Carolina",
    "postal_code": "28655-3324",
    "country": "United States",
    "longitude": -81.69093777,
    "latitude": 35.7476204,
    "phone": "8284750153",
    "website_url": "http://www.fontaflora.com",
    "state": "North Carolina",
    "street": "317 N Green St"
  },
  {
    "id": "7a8a42df-2b2b-4f6e-8b53-b2fabccc25a1",
    "name": "Fonta Flora Brewery At Whipoorwill Farm",
    "brewery_type": "micro",
    "address_1": "6751 NC HWY 126",
    "address_2": null,
    "address_3": null,
    "city": "Nebo",
    "state_province": "North Carolina",
    "postal_code": "28761",
    "country": "United States",
    "longitude": null,
    "latitude": null,
    "phone": "8284750153",
    "website_url": null,
    "state": "North Carolina",
    "street": "6751 NC HWY 126"
  },
  {
    "id": "3e01b66a-8c7c-41f1-aa78-d019fe805ce7",
    "name": "Foolproof Brewing Company",
    "brewery_type": "micro",
    "address_1": "241 Grotto Ave",
    "address_2": null,
    "address_3": null,
    "city": "Pawtucket",
    "state_province": "Rhode Island",
    "postal_code": "02860-3403",
    "country": "United States",
    "longitude": -71.41017837,
    "latitude": 41.86939069,
    "phone": "4017215970",
    "website_url": "http://www.foolproofbrewing.com",
    "state": "Rhode Island",
    "street": "241 Grotto Ave"
  },
  {
    "id": "c1e03ca4-dfa7-4723-8028-dd86467e3226",
    "name": "Fools Fire Brewing Company At Fermentation Lounge",
    "brewery_type": "brewpub",
    "address_1": "415 Saint Francis Street Unit 112",
    "address_2": null,
    "address_3": null,
    "city": "Tallahassee",
    "state_province": "Florida",
    "postal_code": "32301-2201",
    "country": "United States",
    "longitude": null,
    "latitude": null,
    "phone": "8507274033",
    "website_url": "http://www.foolsfire.com",
    "state": "Florida",
    "street": "415 Saint Francis Street Unit 112"
  },
  {
    "id": "22b3edd1-db8e-4573-b490-f672c7247c07",
    "name": "Foothill Hops Farm Brewery",
    "brewery_type": "micro",
    "address_1": "5024 Bear Path Rd",
    "address_2": null,
    "address_3": null,
    "city": "Munnsville",
    "state_province": "New York",
    "postal_code": "13409-4114",
    "country": "United States",
    "longitude": -75.58610382,
    "latitude": 42.96463213,
    "phone": "3154952451",
    "website_url": "http://www.foothillhops.com",
    "state": "New York",
    "street": "5024 Bear Path Rd"
  },
  {
    "id": "af5b4f9c-51d7-4813-8ed6-30aa56cb8dea",
    "name": "Foothills Brewing and Beverage Co",
    "brewery_type": "closed",
    "address_1": "25312 Kanaskat Dr",
    "address_2": null,
    "address_3": null,
    "city": "Black Diamond",
    "state_province": "Washington",
    "postal_code": "98010",
    "country": "United States",
    "longitude": -122.006345,
    "latitude": 47.328838,
    "phone": "3608862215",
    "website_url": null,
    "state": "Washington",
    "street": "25312 Kanaskat Dr"
  },
  {
    "id": "d9bbc65e-3c8c-4dd6-8489-e16a8fd46888",
    "name": "Foothills Brewing Co",
    "brewery_type": "regional",
    "address_1": "3800 Kimwell Dr",
    "address_2": null,
    "address_3": null,
    "city": "Winston Salem",
    "state_province": "North Carolina",
    "postal_code": "27103-6708",
    "country": "United States",
    "longitude": -80.32680515,
    "latitude": 36.04816426,
    "phone": "3363544030",
    "website_url": "http://www.foothillsbrewing.com",
    "state": "North Carolina",
    "street": "3800 Kimwell Dr"
  },
  {
    "id": "eb0d1615-0316-4257-8193-b0e182281f34",
    "name": "Foothills Brewing Co Brewpub",
    "brewery_type": "brewpub",
    "address_1": "638 W 4th St",
    "address_2": null,
    "address_3": null,
    "city": "Winston Salem",
    "state_province": "North Carolina",
    "postal_code": "27101-2730",
    "country": "United States",
    "longitude": -80.25085212,
    "latitude": 36.0976512,
    "phone": "3367773348",
    "website_url": "http://www.foothillsbrewing.com",
    "state": "North Carolina",
    "street": "638 W 4th St"
  },
  {
    "id": "9852462c-c574-4947-ba8a-bcfc753916be",
    "name": "For the Love of God Brewing",
    "brewery_type": "micro",
    "address_1": "2617 W Northwest Blvd",
    "address_2": null,
    "address_3": null,
    "city": "Spokane",
    "state_province": "Washington",
    "postal_code": "99205",
    "country": "United States",
    "longitude": -117.4505585,
    "latitude": 47.68614962,
    "phone": "5095988601",
    "website_url": "https://www.fortheloveofgodbrewing.com",
    "state": "Washington",
    "street": "2617 W Northwest Blvd"
  },
  {
    "id": "190e7e9c-9e20-4b26-b820-f951c75c27b3",
    "name": "Forager Brewing Company",
    "brewery_type": "brewpub",
    "address_1": "1005 6th St NW",
    "address_2": null,
    "address_3": null,
    "city": "Rochester",
    "state_province": "Minnesota",
    "postal_code": "55901-2741",
    "country": "United States",
    "longitude": -92.47868101,
    "latitude": 44.02937696,
    "phone": "5072587490",
    "website_url": "http://www.foragerbrewery.com",
    "state": "Minnesota",
    "street": "1005 6th St NW"
  },
  {
    "id": "8e789e1c-18f7-46ba-9901-3a527ad1466d",
    "name": "Forbidden Peak Brewery",
    "brewery_type": "micro",
    "address_1": "11798 Glacier Hwy",
    "address_2": null,
    "address_3": null,
    "city": "Juneau",
    "state_province": "Alaska",
    "postal_code": "99801",
    "country": "United States",
    "longitude": -134.645965,
    "latitude": 58.387811,
    "phone": "9075237787",
    "website_url": "https://forbiddenpeak.com",
    "state": "Alaska",
    "street": "11798 Glacier Hwy"
  },
  {
    "id": "ecc59506-755c-4197-bdd7-5322484cddc6",
    "name": "Forbidden Root Restaurant & Brewery",
    "brewery_type": "micro",
    "address_1": "1746 W Chicago Ave",
    "address_2": null,
    "address_3": null,
    "city": "Chicago",
    "state_province": "Illinois",
    "postal_code": "60622-5012",
    "country": "United States",
    "longitude": -87.6715393,
    "latitude": 41.8961658,
    "phone": "3129292202",
    "website_url": "http://www.forbiddenroot.com",
    "state": "Illinois",
    "street": "1746 W Chicago Ave"
  },
  {
    "id": "913d6e43-da5b-49e4-8a11-104caefcf642",
    "name": "Fordham and Old Dominion Brewing Company",
    "brewery_type": "large",
    "address_1": "1284 McD Dr",
    "address_2": null,
    "address_3": null,
    "city": "Dover",
    "state_province": "Delaware",
    "postal_code": "19901-4639",
    "country": "United States",
    "longitude": null,
    "latitude": null,
    "phone": "3026784810",
    "website_url": "http://www.fordhamanddominion.com",
    "state": "Delaware",
    "street": "1284 McD Dr"
  },
  {
    "id": "d89c9978-d12b-435b-bf5e-8ad598cb2ec1",
    "name": "Fore River Brewing Company",
    "brewery_type": "micro",
    "address_1": "45 Huntress Ave",
    "address_2": null,
    "address_3": null,
    "city": "South Portland",
    "state_province": "Maine",
    "postal_code": "04106-4115",
    "country": "United States",
    "longitude": -70.28767105,
    "latitude": 43.63249066,
    "phone": "2073700629",
    "website_url": "http://www.foreriverbrewing.com",
    "state": "Maine",
    "street": "45 Huntress Ave"
  },
  {
    "id": "537756a0-6dbd-4a47-93cf-e1e0882c6a47",
    "name": "Foreign Objects Beer Company",
    "brewery_type": "micro",
    "address_1": null,
    "address_2": null,
    "address_3": null,
    "city": "New Paltz",
    "state_province": "New York",
    "postal_code": "12561-3401",
    "country": "United States",
    "longitude": null,
    "latitude": null,
    "phone": "6092871397",
    "website_url": "http://www.foreignobjectsbeer.com",
    "state": "New York",
    "street": null
  },
  {
    "id": "ad02f33d-c7f7-48d6-b744-5a0360960541",
    "name": "Forest & Main Brewery and Pub",
    "brewery_type": "brewpub",
    "address_1": "61 N Main St",
    "address_2": null,
    "address_3": null,
    "city": "Ambler",
    "state_province": "Pennsylvania",
    "postal_code": "19002-5728",
    "country": "United States",
    "longitude": -75.2250879,
    "latitude": 40.1553233,
    "phone": "2155421776",
    "website_url": "http://www.forestandmain.com",
    "state": "Pennsylvania",
    "street": "61 N Main St"
  },
  {
    "id": "d1066da0-cbff-433c-ba06-9183f189e1fd",
    "name": "Forest City Brewery",
    "brewery_type": "brewpub",
    "address_1": "2135 Columbus Rd Ste A",
    "address_2": null,
    "address_3": null,
    "city": "Cleveland",
    "state_province": "Ohio",
    "postal_code": "44113-4243",
    "country": "United States",
    "longitude": null,
    "latitude": null,
    "phone": null,
    "website_url": "http://www.forestcitybrewery.com",
    "state": "Ohio",
    "street": "2135 Columbus Rd Ste A"
  },
  {
    "id": "338ef688-5a3f-4bcc-bfd6-02e17f7eea19",
    "name": "Forest City Brewing",
    "brewery_type": "micro",
    "address_1": "180 Johnson St.",
    "address_2": null,
    "address_3": null,
    "city": "Middlefield",
    "state_province": "Connecticut",
    "postal_code": "06455",
    "country": "United States",
    "longitude": null,
    "latitude": null,
    "phone": "8607882138",
    "website_url": null,
    "state": "Connecticut",
    "street": "180 Johnson St."
  }
]