[
  {
    "id": "a06d2559-f43d-4818-9c51-2b6ed78ded6a",
    "name": "Woodland Farms Brewery",
    "brewery_type": "micro",
    "address_1": "306 Route 1, Suite C",
    "address_2": null,
    "address_3": null,
    "city": "Kittery",
    "state_province": "Maine",
    "postal_code": "03904",
    "country": "United States",
    "longitude": null,
    "latitude": null,
    "phone": "2079943911",
    "website_url": "http://www.wfbrewery.com",
    "state": "Maine",
    "street": "306 Route 1, Suite C"
  },
  {
    "id": "0106f90d-19de-4031-bbed-ed732be5a9ae",
    "name": "Woodland Republic Brewing & Blending",
    "brewery_type": "planning",
    "address_1": "412 5th St",
    "address_2": null,
    "address_3": null,
    "city": "Rapid City",
    "state_province": "South Dakota",
    "postal_code": "57701-2742",
    "country": "United States",
    "longitude": -103.2244639,
    "latitude": 44.08150095,
    "phone": null,
    "website_url": "http://woodlandrepublicbrewing.com",
    "state": "South Dakota",
    "street": "412 5th St"
  },
  {
    "id": "3cf6f95a-0aae-4bfa-8904-f47aeb945414",
    "name": "Woodman's Brewery",
    "brewery_type": "closed",
    "address_1": "195 Peaked Hill Rd",
    "address_2": null,
    "address_3": null,
    "city": "Bristol",
    "state_province": "New Hampshire",
    "postal_code": "03222-3331",
    "country": "United States",
    "longitude": -71.70955815,
    "latitude": 43.60711645,
    "phone": "6037443669",
    "website_url": "http://www.facebook.com/woodmansbrewery",
    "state": "New Hampshire",
    "street": "195 Peaked Hill Rd"
  },
  {
    "id": "1fe76ab0-0f65-4142-841b-b58672d507bb",
    "name": "Woods Bar & Brewery",
    "brewery_type": "brewpub",
    "address_1": "1701 Telegraph Ave",
    "address_2": null,
    "address_3": null,
    "city": "Oakland",
    "state_province": "California",
    "postal_code": "94612-2107",
    "country": "United States",
    "longitude": -122.2704253,
    "latitude": 37.8069575,
    "phone": "4155091695",
    "website_url": "http://www.woodsbeer.com",
    "state": "California",
    "street": "1701 Telegraph Ave"
  },
  {
    "id": "1319b1fc-4d16-4d55-94a7-201b960ddea6",
    "name": "Woods Beer Company",
    "brewery_type": "brewpub",
    "address_1": "1701 Telegraph Ave",
    "address_2": null,
    "address_3": null,
    "city": "Oakland",
    "state_province": "California",
    "postal_code": "94612-2107",
    "country": "United States",
    "longitude": -122.2704253,
    "latitude": 37.8069575,
    "phone": "4158149212",
    "website_url": "http://woodsbeer.com",
    "state": "California",
    "street": "1701 Telegraph Ave"
  },
  {
    "id": "8a058b3f-9a57-469d-9f1f-c31c3ae064a5",
    "name": "Woods Boss Brewing Company",
    "brewery_type": "micro",
    "address_1": "2210 California St",
    "address_2": null,
    "address_3": null,
    "city": "Denver",
    "state_province": "Colorado",
    "postal_code": "80205-2824",
    "country": "United States",
    "longitude": -104.9845374,
    "latitude": 39.7509153,
    "phone": "9149609225",
    "website_url": "http://www.woodsbossbrew.com",
    "state": "Colorado",
    "street": "2210 California St"
  },
  {
    "id": "eb859746-2153-4704-bae9-a39ba7e725c7",
    "name": "Woods Cabin Brewery",
    "brewery_type": "planning",
    "address_1": null,
    "address_2": null,
    "address_3": null,
    "city": "Yarrow Point",
    "state_province": "Washington",
    "postal_code": "98004",
    "country": "United States",
    "longitude": null,
    "latitude": null,
    "phone": "4258945483",
    "website_url": null,
    "state": "Washington",
    "street": null
  },
  {
    "id": "c95c466f-2ae4-4ea0-9c32-1877d686c264",
    "name": "Woods Cervecer\u00c3\u00ada",
    "brewery_type": "brewpub",
    "address_1": "3801 18th St",
    "address_2": null,
    "address_3": null,
    "city": "San Francisco",
    "state_province": "California",
    "postal_code": "94114-2615",
    "country": "United States",
    "longitude": -122.4285438,
    "latitude": 37.761163,
    "phone": "4152739295",
    "website_url": "http://www.cerveceriasf.com",
    "state": "California",
    "street": "3801 18th St"
  },
  {
    "id": "6e9dcd2b-fc79-49e3-8a6c-009a726fd771",
    "name": "Woodstacker Beer Company",
    "brewery_type": "micro",
    "address_1": "850 Elm St",
    "address_2": null,
    "address_3": null,
    "city": "Manchester",
    "state_province": "New Hampshire",
    "postal_code": "03101",
    "country": "United States",
    "longitude": -71.46309,
    "latitude": 42.99003,
    "phone": null,
    "website_url": "https://woodstackerbeerco.com/",
    "state": "New Hampshire",
    "street": "850 Elm St"
  },
  {
    "id": "a75e7e8a-4f8a-4f67-b33f-7aa2c25b3913",
    "name": "Woodstock Brewhouse",
    "brewery_type": "brewpub",
    "address_1": "123 E Court St",
    "address_2": null,
    "address_3": null,
    "city": "Woodstock",
    "state_province": "Virginia",
    "postal_code": "22664-1761",
    "country": "United States",
    "longitude": -78.50414235,
    "latitude": 38.88142648,
    "phone": "5404592739",
    "website_url": "http://www.woodstockbrewhouse.com",
    "state": "Virginia",
    "street": "123 E Court St"
  },
  {
    "id": "a83ffb66-54d3-41f7-828a-4cdf2aad7c38",
    "name": "Woodstock Brewing",
    "brewery_type": "micro",
    "address_1": "5581 NY-28",
    "address_2": null,
    "address_3": null,
    "city": "Phoenicia",
    "state_province": "New York",
    "postal_code": "12464",
    "country": "United States",
    "longitude": null,
    "latitude": null,
    "phone": "8456880054",
    "website_url": "http://www.drinkwoodstock.com",
    "state": "New York",
    "street": "5581 NY-28"
  },
  {
    "id": "48898f65-cd5b-4a64-b775-d9f8b8fd6627",
    "name": "Woodstock Inn Brewery",
    "brewery_type": "micro",
    "address_1": "135 Main St",
    "address_2": null,
    "address_3": null,
    "city": "North Woodstock",
    "state_province": "New Hampshire",
    "postal_code": "03262",
    "country": "United States",
    "longitude": -71.6865275,
    "latitude": 44.0316675,
    "phone": "6037453951",
    "website_url": "http://www.woodstockinnnh.com",
    "state": "New Hampshire",
    "street": "135 Main St"
  },
  {
    "id": "e5eb754a-eb95-4a9f-81f4-3f0a294f2c3c",
    "name": "Woodward Avenue Brewers",
    "brewery_type": "brewpub",
    "address_1": "22646 Woodward Ave",
    "address_2": null,
    "address_3": null,
    "city": "Ferndale",
    "state_province": "Michigan",
    "postal_code": "48220-1810",
    "country": "United States",
    "longitude": -83.13333109,
    "latitude": 42.4596444,
    "phone": "2485463696",
    "website_url": "http://www.thewabsite.com",
    "state": "Michigan",
    "street": "22646 Woodward Ave"
  },
  {
    "id": "9ebe71f4-6a99-4b06-8f89-f9ecfe891f44",
    "name": "Woodwright Brewing Company",
    "brewery_type": "micro",
    "address_1": "985 Douglas Ave",
    "address_2": null,
    "address_3": null,
    "city": "Dunedin",
    "state_province": "Florida",
    "postal_code": "34698-4945",
    "country": "United States",
    "longitude": -82.78780975,
    "latitude": 28.01539972,
    "phone": "7272388717",
    "website_url": null,
    "state": "Florida",
    "street": "985 Douglas Ave"
  },
  {
    "id": "47592661-12ba-445d-8b50-9d8e05bf1f28",
    "name": "Woody's Brewery",
    "brewery_type": "brewpub",
    "address_1": "1257 Oregon St",
    "address_2": null,
    "address_3": null,
    "city": "Redding",
    "state_province": "California",
    "postal_code": "96001-0414",
    "country": "United States",
    "longitude": -122.3953367,
    "latitude": 40.585948,
    "phone": "5307681034",
    "website_url": "http://www.woodysbrewing.com",
    "state": "California",
    "street": "1257 Oregon St"
  },
  {
    "id": "5a81d70c-7d2b-4f40-b878-e8c4e147ce92",
    "name": "Wooly Pig Farm Brewery",
    "brewery_type": "micro",
    "address_1": "23631 Township Road 167",
    "address_2": null,
    "address_3": null,
    "city": "Fresno",
    "state_province": "Ohio",
    "postal_code": "43824-9704",
    "country": "United States",
    "longitude": -81.73572372,
    "latitude": 40.2914144,
    "phone": "7406935050",
    "website_url": "http://www.woolypigfarmbrewery.com",
    "state": "Ohio",
    "street": "23631 Township Road 167"
  },
  {
    "id": "fd99a363-f02a-4197-8ffc-bd7031ab9b45",
    "name": "WopsHops Brewing Company",
    "brewery_type": "brewpub",
    "address_1": "419 Sanford Ave",
    "address_2": null,
    "address_3": null,
    "city": "Sanford",
    "state_province": "Florida",
    "postal_code": "32771-1970",
    "country": "United States",
    "longitude": -81.26485422,
    "latitude": 28.80875529,
    "phone": "4078787819",
    "website_url": "http://www.wopshopsbrewing.com",
    "state": "Florida",
    "street": "419 Sanford Ave"
  },
  {
    "id": "a8c90d87-a9e7-45b5-a8db-c58ed9780676",
    "name": "Working Class Brewery",
    "brewery_type": "micro",
    "address_1": "17448 Lorain Ave",
    "address_2": null,
    "address_3": null,
    "city": "Cleveland",
    "state_province": "Ohio",
    "postal_code": "44111-4028",
    "country": "United States",
    "longitude": -81.820461,
    "latitude": 41.44993,
    "phone": "2164175112",
    "website_url": "http://www.workingclassbrewery.com",
    "state": "Ohio",
    "street": "17448 Lorain Ave"
  },
  {
    "id": "5f057cf6-831b-43d0-911b-1f95b54b1b21",
    "name": "Working Draft Beer Company",
    "brewery_type": "micro",
    "address_1": "1129 E Wilson St",
    "address_2": null,
    "address_3": null,
    "city": "Madison",
    "state_province": "Wisconsin",
    "postal_code": "53703-3758",
    "country": "United States",
    "longitude": -89.3652802,
    "latitude": 43.0833378,
    "phone": null,
    "website_url": "http://www.workingdraftbeer.com",
    "state": "Wisconsin",
    "street": "1129 E Wilson St"
  },
  {
    "id": "52dc80a4-9171-4589-9257-60f04cece644",
    "name": "Working Man Brewing Co",
    "brewery_type": "closed",
    "address_1": "5542 Brisa St Ste F",
    "address_2": null,
    "address_3": null,
    "city": "Livermore",
    "state_province": "California",
    "postal_code": "94550-2524",
    "country": "United States",
    "longitude": -121.7251276,
    "latitude": 37.69755354,
    "phone": "9252699622",
    "website_url": "http://www.workingmanbrewing.com",
    "state": "California",
    "street": "5542 Brisa St Ste F"
  },
  {
    "id": "a7aeca98-8bf2-430e-9579-a09ee6bb8e0e",
    "name": "Workshop Brewing Co",
    "brewery_type": "brewpub",
    "address_1": "221 Garland St Ste A",
    "address_2": null,
    "address_3": null,
    "city": "Traverse City",
    "state_province": "Michigan",
    "postal_code": "49684-2372",
    "country": "United States",
    "longitude": null,
    "latitude": null,
    "phone": "12314218966",
    "website_url": "http://www.traversecityworkshop.com",
    "state": "Michigan",
    "street": "221 Garland St Ste A"
  },
  {
    "id": "7bbe8ee2-c1ed-458f-923a-93d6e2dea8db",
    "name": "World's End Brewpub",
    "brewery_type": "planning",
    "address_1": null,
    "address_2": null,
    "address_3": null,
    "city": "Grand Lake",
    "state_province": "Colorado",
    "postal_code": "80447",
    "country": "United States",
    "longitude": null,
    "latitude": null,
    "phone": "3035515637",
    "website_url": "http://www.ourplacebrewhaus.com",
    "state": "Colorado",
    "street": null
  },
  {
    "id": "9ee6e94f-60fb-4770-b250-6801cec8c770",
    "name": "Wormtown Brewery",
    "brewery_type": "micro",
    "address_1": "72 Shrewsbury St",
    "address_2": null,
    "address_3": null,
    "city": "Worcester",
    "state_province": "Massachusetts",
    "postal_code": "01604-4625",
    "country": "United States",
    "longitude": -71.7912262,
    "latitude": 42.2634992,
    "phone": "7742391555",
    "website_url": "http://www.wormtownbrewery.com",
    "state": "Massachusetts",
    "street": "72 Shrewsbury St"
  },
  {
    "id": "3ece8bec-fdbd-43cb-a063-363b3203c1e2",
    "name": "Wort Hog Brewing Company LLC",
    "brewery_type": "brewpub",
    "address_1": "50A S 3rd St",
    "address_2": null,
    "address_3": null,
    "city": "Warrenton",
    "state_province": "Virginia",
    "postal_code": "20186-3340",
    "country": "United States",
    "longitude": -77.7951382,
    "latitude": 38.7117948,
    "phone": "5403002739",
    "website_url": "http://www.worthogbreweryllc.com",
    "state": "Virginia",
    "street": "50A S 3rd St"
  },
  {
    "id": "0928f004-3195-40fc-a6e9-a985df23768b",
    "name": "Worth Brewing Co",
    "brewery_type": "brewpub",
    "address_1": "835 Central Ave",
    "address_2": null,
    "address_3": null,
    "city": "Northwood",
    "state_province": "Iowa",
    "postal_code": "50459-1519",
    "country": "United States",
    "longitude": -93.219581,
    "latitude": 43.444038,
    "phone": "6413249899",
    "website_url": "http://www.worthbrewing.com",
    "state": "Iowa",
    "street": "835 Central Ave"
  },
  {
    "id": "e55b790d-78bd-4014-8157-ed339067b014",
    "name": "Worthy Brewing Company",
    "brewery_type": "micro",
    "address_1": "495 NE Bellevue Dr",
    "address_2": null,
    "address_3": null,
    "city": "Bend",
    "state_province": "Oregon",
    "postal_code": "97701-7412",
    "country": "United States",
    "longitude": -121.2603915,
    "latitude": 44.0553542,
    "phone": "5416394772",
    "website_url": "http://www.worthybrewing.com",
    "state": "Oregon",
    "street": "495 NE Bellevue Dr"
  },
  {
    "id": "68d84faa-3c71-4fa0-b643-6d4dc8a12f86",
    "name": "Wren House Brewing Company",
    "brewery_type": "micro",
    "address_1": "2125 N 24th St",
    "address_2": null,
    "address_3": null,
    "city": "Phoenix",
    "state_province": "Arizona",
    "postal_code": "85008-2713",
    "country": "United States",
    "longitude": -112.0301125,
    "latitude": 33.516633,
    "phone": "6022449184",
    "website_url": "http://www.wrenhousebrewing.com",
    "state": "Arizona",
    "street": "2125 N 24th St"
  },
  {
    "id": "2ae64f6a-c243-4554-9000-0cf70b7d220a",
    "name": "Wrightsville Beach Brewery",
    "brewery_type": "brewpub",
    "address_1": "6201 Oleander Dr",
    "address_2": null,
    "address_3": null,
    "city": "Wilmington",
    "state_province": "North Carolina",
    "postal_code": "28403-3535",
    "country": "United States",
    "longitude": -77.836851,
    "latitude": 34.210452,
    "phone": "9102564938",
    "website_url": "http://www.wbbeer.com",
    "state": "North Carolina",
    "street": "6201 Oleander Dr"
  },
  {
    "id": "882efb69-a366-4fb2-a4c6-2062a7920139",
    "name": "WT Brews LLC",
    "brewery_type": "micro",
    "address_1": "3 W Genesee St",
    "address_2": null,
    "address_3": null,
    "city": "Baldwinsville",
    "state_province": "New York",
    "postal_code": "13027-1104",
    "country": "United States",
    "longitude": -76.33288571,
    "latitude": 43.15855314,
    "phone": "3158573266",
    "website_url": "http://www.wtbrews.com",
    "state": "New York",
    "street": "3 W Genesee St"
  },
  {
    "id": "1f10ffbf-b7bc-4704-bc6e-8101de47917f",
    "name": "Wyndridge Farm Brewing",
    "brewery_type": "brewpub",
    "address_1": "885 S Pleasant Ave",
    "address_2": null,
    "address_3": null,
    "city": "Dallastown",
    "state_province": "Pennsylvania",
    "postal_code": "17313-9650",
    "country": "United States",
    "longitude": -76.644864,
    "latitude": 39.893878,
    "phone": "7172449900",
    "website_url": "http://www.wyndridge.com",
    "state": "Pennsylvania",
    "street": "885 S Pleasant Ave"
  },
  {
    "id": "e1daa6b8-1bfe-4833-bb30-908c58eb8ec2",
    "name": "Wynkoop Brewing Co",
    "brewery_type": "brewpub",
    "address_1": "1634 18th St",
    "address_2": null,
    "address_3": null,
    "city": "Denver",
    "state_province": "Colorado",
    "postal_code": "80202-1212",
    "country": "United States",
    "longitude": -104.9984831,
    "latitude": 39.7535446,
    "phone": "3032972700",
    "website_url": "http://www.wynkoop.com",
    "state": "Colorado",
    "street": "1634 18th St"
  },
  {
    "id": "87003934-0deb-4c4e-bc31-a6fcff7943d2",
    "name": "Wynwood Brewing Company",
    "brewery_type": "micro",
    "address_1": "565 NW 24th St",
    "address_2": null,
    "address_3": null,
    "city": "Miami",
    "state_province": "Florida",
    "postal_code": "33127-4327",
    "country": "United States",
    "longitude": -80.2044925,
    "latitude": 25.8003759,
    "phone": "3056405043",
    "website_url": "http://www.wynwoodbrewing.com",
    "state": "Florida",
    "street": "565 NW 24th St"
  },
  {
    "id": "a686b7b6-d94f-42a4-ad0e-f60db23011e7",
    "name": "WYOld West Brewing Company",
    "brewery_type": "brewpub",
    "address_1": "221 N Bent St",
    "address_2": null,
    "address_3": null,
    "city": "Powell",
    "state_province": "Wyoming",
    "postal_code": "82435-2335",
    "country": "United States",
    "longitude": -108.7574813,
    "latitude": 44.75451993,
    "phone": "3077646200",
    "website_url": "http://www.wyoldwest.com",
    "state": "Wyoming",
    "street": "221 N Bent St"
  },
  {
    "id": "fc80b53a-b5b3-47ce-8f23-3e1b3a61a8e4",
    "name": "WYOld West Taproom",
    "brewery_type": "micro",
    "address_1": "1022 13th St",
    "address_2": null,
    "address_3": null,
    "city": "Cody",
    "state_province": "Wyoming",
    "postal_code": "82414-3631",
    "country": "United States",
    "longitude": -109.06243705508,
    "latitude": 44.538910366924,
    "phone": "3075863550",
    "website_url": "http://www.wyoldwest.com",
    "state": "Wyoming",
    "street": "1022 13th St"
  },
  {
    "id": "7d77be76-ec7f-416d-a4c0-d9db268fe2dc",
    "name": "Wyoming Territory Brewing / Eric Bischoff Family Brewing",
    "brewery_type": "closed",
    "address_1": null,
    "address_2": null,
    "address_3": null,
    "city": "Cody",
    "state_province": "Wyoming",
    "postal_code": "82414",
    "country": "United States",
    "longitude": null,
    "latitude": null,
    "phone": null,
    "website_url": "http://www.buffalobillcodybeer.com",
    "state": "Wyoming",
    "street": null
  },
  {
    "id": "d2aeedba-6cfe-493d-b393-f32ae8986490",
    "name": "Xarlie",
    "brewery_type": "brewpub",
    "address_1": "IC2 \u00ad Lagoa",
    "address_2": "Lugar de Barrac\u00e3o",
    "address_3": null,
    "city": "Colmeias",
    "state_province": "Leiria",
    "postal_code": "2420-195",
    "country": "Portugal",
    "longitude": 39.828582682961,
    "latitude": -8.7216317590372,
    "phone": "+351 244 004 021",
    "website_url": "https://xarlie.pt",
    "state": "Leiria",
    "street": "IC2 \u00ad Lagoa"
  },
  {
    "id": "415a40f3-4590-49ad-93fc-e68f58442b40",
    "name": "Xicha Brewing Co.",
    "brewery_type": "brewpub",
    "address_1": "576 Patterson Street NW, Suite 140",
    "address_2": null,
    "address_3": null,
    "city": "Salem",
    "state_province": "Oregon",
    "postal_code": "97304",
    "country": "United States",
    "longitude": -123.0552621,
    "latitude": 44.94650388,
    "phone": "5039908292",
    "website_url": "https://www.xichabrewing.com",
    "state": "Oregon",
    "street": "576 Patterson Street NW, Suite 140"
  },
  {
    "id": "2d5d6ee4-8f8d-4235-9015-75d2df768cfa",
    "name": "Ximix Craft Exploration",
    "brewery_type": "closed",
    "address_1": "13723 1/2 Harvard Pl",
    "address_2": null,
    "address_3": null,
    "city": "Gardena",
    "state_province": "California",
    "postal_code": "90249-2527",
    "country": "United States",
    "longitude": -118.3076153,
    "latitude": 33.90628796,
    "phone": "7603332351",
    "website_url": "http://www.ximixcraft.com",
    "state": "California",
    "street": "13723 1/2 Harvard Pl"
  },
  {
    "id": "32e48cef-1c43-4445-bba4-d8d5c7e626dd",
    "name": "Y Bridge Brewing Company",
    "brewery_type": "micro",
    "address_1": "1417 Linden Ave",
    "address_2": null,
    "address_3": null,
    "city": "Zanesville",
    "state_province": "Ohio",
    "postal_code": "43701",
    "country": "United States",
    "longitude": -82.00422961,
    "latitude": 39.95603429,
    "phone": "7408684265",
    "website_url": null,
    "state": "Ohio",
    "street": "1417 Linden Ave"
  },
  {
    "id": "ed9f39d7-92a6-43a1-b243-9faabe362ee5",
    "name": "Yachats Brewing",
    "brewery_type": "brewpub",
    "address_1": "PO Box 308",
    "address_2": null,
    "address_3": null,
    "city": "Yachats",
    "state_province": "Oregon",
    "postal_code": "97498-0308",
    "country": "United States",
    "longitude": -124.1039247,
    "latitude": 44.31213446,
    "phone": null,
    "website_url": null,
    "state": "Oregon",
    "street": "PO Box 308"
  },
  {
    "id": "f8991c88-0d32-48b0-b6bc-bd73161d1336",
    "name": "Yakima Craft Brewing Co",
    "brewery_type": "micro",
    "address_1": "2920 River Rd Ste 6",
    "address_2": null,
    "address_3": null,
    "city": "Yakima",
    "state_province": "Washington",
    "postal_code": "98902-7332",
    "country": "United States",
    "longitude": null,
    "latitude": null,
    "phone": "5096547357",
    "website_url": "http://www.yakimacraftbrewing.com",
    "state": "Washington",
    "street": "2920 River Rd Ste 6"
  },
  {
    "id": "9c27cd66-3d4a-4a63-96a5-5cf8106aa85d",
    "name": "Yakima Valley Hops",
    "brewery_type": "micro",
    "address_1": "702 N 1st Ave Ste D",
    "address_2": null,
    "address_3": null,
    "city": "Yakima",
    "state_province": "Washington",
    "postal_code": "98902-2121",
    "country": "United States",
    "longitude": -120.51422085779,
    "latitude": 46.610196273663,
    "phone": "2086494677",
    "website_url": null,
    "state": "Washington",
    "street": "702 N 1st Ave Ste D"
  },
  {
    "id": "0fd7c528-fc25-44a0-8895-61b07138ebf3",
    "name": "Yalobusha Brewing Company",
    "brewery_type": "micro",
    "address_1": "102 S Main St",
    "address_2": null,
    "address_3": null,
    "city": "Water Valley",
    "state_province": "Mississippi",
    "postal_code": "38965-2906",
    "country": "United States",
    "longitude": -89.6366568,
    "latitude": 34.1422633,
    "phone": null,
    "website_url": "http://www.yalobrew.com",
    "state": "Mississippi",
    "street": "102 S Main St"
  },
  {
    "id": "ddd1e565-b732-4d50-832c-ac98d056c460",
    "name": "Yampa Valley Brewing Company",
    "brewery_type": "micro",
    "address_1": "106 E Jefferson Ave Unit B",
    "address_2": null,
    "address_3": null,
    "city": "Hayden",
    "state_province": "Colorado",
    "postal_code": "81639",
    "country": "United States",
    "longitude": null,
    "latitude": null,
    "phone": "9702768014",
    "website_url": "http://www.yampavalleybrew.com",
    "state": "Colorado",
    "street": "106 E Jefferson Ave Unit B"
  },
  {
    "id": "c5372484-366c-45b2-81d9-bf141c9587aa",
    "name": "Yankee Tank Brewing Company",
    "brewery_type": "micro",
    "address_1": "807 E 23rd St Ste J",
    "address_2": null,
    "address_3": null,
    "city": "Lawrence",
    "state_province": "Kansas",
    "postal_code": "66046-4952",
    "country": "United States",
    "longitude": null,
    "latitude": null,
    "phone": "7852339333",
    "website_url": "http://yankeetankbrewing.com",
    "state": "Kansas",
    "street": "807 E 23rd St Ste J"
  },
  {
    "id": "a125dc73-3d86-477e-ab26-b8de21f7ecce",
    "name": "Yard Owl Craft Brewery",
    "brewery_type": "brewpub",
    "address_1": "19 Osprey Ln",
    "address_2": null,
    "address_3": null,
    "city": "Gardiner",
    "state_province": "New York",
    "postal_code": "12525-5339",
    "country": "United States",
    "longitude": -74.14716916,
    "latitude": 41.69154658,
    "phone": "8456338576",
    "website_url": "http://www.yardowlcraftbrewery.com",
    "state": "New York",
    "street": "19 Osprey Ln"
  },
  {
    "id": "1a86c24c-f5bf-4aad-90a2-71db07f18b6c",
    "name": "Yards Brewing Co",
    "brewery_type": "regional",
    "address_1": "901 N Delaware Ave",
    "address_2": null,
    "address_3": null,
    "city": "Philadelphia",
    "state_province": "Pennsylvania",
    "postal_code": "19123-3110",
    "country": "United States",
    "longitude": -75.1324016,
    "latitude": 39.9655175,
    "phone": "2156342600",
    "website_url": "http://www.yardsbrewing.com",
    "state": "Pennsylvania",
    "street": "901 N Delaware Ave"
  },
  {
    "id": "b39f4d9c-8aa9-48d9-9c07-e26da7557ea3",
    "name": "Yaxx Brewing Company",
    "brewery_type": "planning",
    "address_1": null,
    "address_2": null,
    "address_3": null,
    "city": "Waco",
    "state_province": "Texas",
    "postal_code": "76712-3284",
    "country": "United States",
    "longitude": null,
    "latitude": null,
    "phone": "8014730669",
    "website_url": null,
    "state": "Texas",
    "street": null
  },
  {
    "id": "dfad1416-6baf-4bdd-9001-99a54fee5870",
    "name": "Yazoo Brewing Co",
    "brewery_type": "regional",
    "address_1": "910 Division St",
    "address_2": null,
    "address_3": null,
    "city": "Nashville",
    "state_province": "Tennessee",
    "postal_code": "37203-4111",
    "country": "United States",
    "longitude": -86.78355595,
    "latitude": 36.15090195,
    "phone": "6158914649",
    "website_url": "http://www.yazoobrew.com",
    "state": "Tennessee",
    "street": "910 Division St"
  },
  {
    "id": "0c27013d-74f0-4bc5-93e6-c95fa605ea81",
    "name": "Ye Olde Brothers Brewery",
    "brewery_type": "brewpub",
    "address_1": "4458 Highway 87",
    "address_2": null,
    "address_3": null,
    "city": "Navarre",
    "state_province": "Florida",
    "postal_code": "32566-9658",
    "country": "United States",
    "longitude": null,
    "latitude": null,
    "phone": "8506841495",
    "website_url": "http://www.yeoldbrothersbrewery.com",
    "state": "Florida",
    "street": "4458 Highway 87"
  }
]