[
  {
    "id": "d1fd0d69-4522-4f03-836a-d35960dda89f",
    "name": "SaltFire Brewing Co.",
    "brewery_type": "micro",
    "address_1": "2199 S West Temple",
    "address_2": null,
    "address_3": null,
    "city": "Salt Lake City",
    "state_province": "Utah",
    "postal_code": "84115-2529",
    "country": "United States",
    "longitude": -111.8937514,
    "latitude": 40.7227984,
    "phone": "3859550504",
    "website_url": "https://www.saltfirebrewing.com",
    "state": "Utah",
    "street": "2199 S West Temple"
  },
  {
    "id": "7f0a3ebf-1467-4a6c-af59-561fa81ff1d0",
    "name": "Saltmarsh Brewery",
    "brewery_type": "planning",
    "address_1": null,
    "address_2": null,
    "address_3": null,
    "city": "Foxboro",
    "state_province": "Massachusetts",
    "postal_code": "02035-2299",
    "country": "United States",
    "longitude": null,
    "latitude": null,
    "phone": "6177996627",
    "website_url": "http://adam@saltmarshbrewery.com",
    "state": "Massachusetts",
    "street": null
  },
  {
    "id": "efdc475f-8e3c-42f7-8e69-7d5fda684097",
    "name": "Saltwater Brewery",
    "brewery_type": "micro",
    "address_1": "1701 W Atlantic Ave",
    "address_2": null,
    "address_3": null,
    "city": "Delray Beach",
    "state_province": "Florida",
    "postal_code": "33444-1566",
    "country": "United States",
    "longitude": -80.0913747,
    "latitude": 26.4619509,
    "phone": "6092808464",
    "website_url": "http://www.saltwaterbrewery.com",
    "state": "Florida",
    "street": "1701 W Atlantic Ave"
  },
  {
    "id": "a0cb0659-7da0-4ad1-92bb-36e5a2760408",
    "name": "Salty Nut Brewery",
    "brewery_type": "micro",
    "address_1": "2406 Clinton Ave W",
    "address_2": null,
    "address_3": null,
    "city": "Huntsville",
    "state_province": "Alabama",
    "postal_code": "35805-3014",
    "country": "United States",
    "longitude": -86.5932014,
    "latitude": 34.7277523,
    "phone": "2567138877",
    "website_url": "http://www.saltynutbrewery.com",
    "state": "Alabama",
    "street": "2406 Clinton Ave W"
  },
  {
    "id": "22b97f6b-cd22-42f9-99cf-01554417b7a2",
    "name": "Salty Turtle Beer Company",
    "brewery_type": "micro",
    "address_1": "103 Triton Ln",
    "address_2": null,
    "address_3": null,
    "city": "Surf City",
    "state_province": "North Carolina",
    "postal_code": "28445",
    "country": "United States",
    "longitude": null,
    "latitude": null,
    "phone": "9108032019",
    "website_url": "http://www.saltyturtlebeer.com",
    "state": "North Carolina",
    "street": "103 Triton Ln"
  },
  {
    "id": "7613627e-54af-4cea-9279-9ae4ef452fe1",
    "name": "Salud Cerveceria",
    "brewery_type": "brewpub",
    "address_1": "3306-B N Davidson St",
    "address_2": null,
    "address_3": null,
    "city": "Charlotte",
    "state_province": "North Carolina",
    "postal_code": "28205-1036",
    "country": "United States",
    "longitude": null,
    "latitude": null,
    "phone": "7045782941",
    "website_url": "http://www.saludbeershop.com",
    "state": "North Carolina",
    "street": "3306-B N Davidson St"
  },
  {
    "id": "a37dcce1-fdd5-4651-9415-27070366fb19",
    "name": "Sam Bond's Brewing Co",
    "brewery_type": "brewpub",
    "address_1": "540 E 8th Ave",
    "address_2": null,
    "address_3": null,
    "city": "Eugene",
    "state_province": "Oregon",
    "postal_code": "97401-3344",
    "country": "United States",
    "longitude": -123.0843307,
    "latitude": 44.05093611,
    "phone": "5412468162",
    "website_url": "http://www.sambondsbrewing.com",
    "state": "Oregon",
    "street": "540 E 8th Ave"
  },
  {
    "id": "a7fd2fe1-0473-4e71-ac50-2c8a9eeed67e",
    "name": "Samuel Adams Pennsylvania Brewing Co",
    "brewery_type": "regional",
    "address_1": "7880 Penn Dr",
    "address_2": null,
    "address_3": null,
    "city": "Breinigsville",
    "state_province": "Pennsylvania",
    "postal_code": "18031-1508",
    "country": "United States",
    "longitude": null,
    "latitude": null,
    "phone": "6103956811",
    "website_url": null,
    "state": "Pennsylvania",
    "street": "7880 Penn Dr"
  },
  {
    "id": "7713be83-2ff6-4dc5-a28e-a4f629978402",
    "name": "San Diego Brewing Co",
    "brewery_type": "brewpub",
    "address_1": "10450 Friars Rd Ste L",
    "address_2": null,
    "address_3": null,
    "city": "San Diego",
    "state_province": "California",
    "postal_code": "92120-2311",
    "country": "United States",
    "longitude": null,
    "latitude": null,
    "phone": "6192842739",
    "website_url": "http://www.sandiegobrewing.com",
    "state": "California",
    "street": "10450 Friars Rd Ste L"
  },
  {
    "id": "38bb7b37-a035-4e52-bc15-a0ea83eaadce",
    "name": "San Fernando Brewing Co.",
    "brewery_type": "micro",
    "address_1": "425 Park Ave",
    "address_2": null,
    "address_3": null,
    "city": "San Fernando",
    "state_province": "California",
    "postal_code": "91340-2525",
    "country": "United States",
    "longitude": -118.4322067,
    "latitude": 34.2828803,
    "phone": "8187456175",
    "website_url": "http://www.sanfernandobrewingcompany.com",
    "state": "California",
    "street": "425 Park Ave"
  },
  {
    "id": "6a2f7b58-6a84-4646-8362-13b9627e3f44",
    "name": "San Francisco Brewing Co",
    "brewery_type": "proprietor",
    "address_1": "3150 Polk St",
    "address_2": null,
    "address_3": null,
    "city": "San Francisco",
    "state_province": "California",
    "postal_code": "94109",
    "country": "United States",
    "longitude": -122.4231232,
    "latitude": 37.80583356,
    "phone": "4154842337",
    "website_url": "http://www.sfbrewingco.com",
    "state": "California",
    "street": "3150 Polk St"
  },
  {
    "id": "3fa2f628-3f13-49be-a49c-b6177d912497",
    "name": "San Gabriel River Brewery Inc",
    "brewery_type": "micro",
    "address_1": "500 Chaparral Dr",
    "address_2": null,
    "address_3": null,
    "city": "Liberty Hill",
    "state_province": "Texas",
    "postal_code": "78642-4610",
    "country": "United States",
    "longitude": null,
    "latitude": null,
    "phone": "5126279384",
    "website_url": "http://www.sangabrielriverbrewery.com",
    "state": "Texas",
    "street": "500 Chaparral Dr"
  },
  {
    "id": "81ab1434-2c88-4803-9cf3-6f1339c785bf",
    "name": "San Jacinto Brewing Company",
    "brewery_type": "planning",
    "address_1": null,
    "address_2": null,
    "address_3": null,
    "city": "Montgomery",
    "state_province": "Texas",
    "postal_code": "77316-9200",
    "country": "United States",
    "longitude": null,
    "latitude": null,
    "phone": "2813808200",
    "website_url": null,
    "state": "Texas",
    "street": null
  },
  {
    "id": "7b341956-e6d2-42ac-8bd9-92768a5b3813",
    "name": "San Juan Island Brewing Company",
    "brewery_type": "brewpub",
    "address_1": "410 A St",
    "address_2": null,
    "address_3": null,
    "city": "Friday Harbor",
    "state_province": "Washington",
    "postal_code": "98250",
    "country": "United States",
    "longitude": -123.0150233,
    "latitude": 48.53276541,
    "phone": "3603782017",
    "website_url": "http://www.sanjuanbrew.com",
    "state": "Washington",
    "street": "410 A St"
  },
  {
    "id": "b700e34a-5e67-416c-8815-af29b022e719",
    "name": "San Luis Valley Brewing Co",
    "brewery_type": "brewpub",
    "address_1": "631 Main St",
    "address_2": null,
    "address_3": null,
    "city": "Alamosa",
    "state_province": "Colorado",
    "postal_code": "81101-2557",
    "country": "United States",
    "longitude": -105.8742898,
    "latitude": 37.4681813,
    "phone": "7195872337",
    "website_url": "http://www.slvbrewco.com",
    "state": "Colorado",
    "street": "631 Main St"
  },
  {
    "id": "4c2264d2-8a00-45a5-8b96-32afe58d4901",
    "name": "San Marcos Brewery and Grill",
    "brewery_type": "closed",
    "address_1": "1080 W San Marcos Blvd Ste 180",
    "address_2": null,
    "address_3": null,
    "city": "San Marcos",
    "state_province": "California",
    "postal_code": "92078-4099",
    "country": "United States",
    "longitude": -117.190881,
    "latitude": 33.13459973,
    "phone": "7604710050",
    "website_url": null,
    "state": "California",
    "street": "1080 W San Marcos Blvd Ste 180"
  },
  {
    "id": "c9931839-cd28-466a-8cde-d26a831b71bd",
    "name": "San Pedro Brewing Co",
    "brewery_type": "brewpub",
    "address_1": "331 W 6th St",
    "address_2": null,
    "address_3": null,
    "city": "San Pedro",
    "state_province": "California",
    "postal_code": "90731-3317",
    "country": "United States",
    "longitude": -118.2842712,
    "latitude": 33.7386421,
    "phone": "3108315663",
    "website_url": "http://www.sanpedrobrewing.com",
    "state": "California",
    "street": "331 W 6th St"
  },
  {
    "id": "c5b7b93b-7ce2-4e53-8515-12ec1bd8475d",
    "name": "Sanctuary Brewing Company",
    "brewery_type": "micro",
    "address_1": "147 1st Ave E",
    "address_2": null,
    "address_3": null,
    "city": "Hendersonville",
    "state_province": "North Carolina",
    "postal_code": "28792-5191",
    "country": "United States",
    "longitude": -82.45881412,
    "latitude": 35.31453259,
    "phone": "8285959956",
    "website_url": "http://www.sanctuarybrewco.com",
    "state": "North Carolina",
    "street": "147 1st Ave E"
  },
  {
    "id": "b2d75de8-293f-4e95-a6fb-fce2df0d81f8",
    "name": "Sanctuary Spirits",
    "brewery_type": "micro",
    "address_1": "902 E Saginaw Hwy",
    "address_2": null,
    "address_3": null,
    "city": "Grand Ledge",
    "state_province": "Michigan",
    "postal_code": "48837-9419",
    "country": "United States",
    "longitude": -84.73453638,
    "latitude": 42.7407777,
    "phone": "5179251930",
    "website_url": "http://www.sanctuaryspirits.com",
    "state": "Michigan",
    "street": "902 E Saginaw Hwy"
  },
  {
    "id": "572aab42-ff5c-4136-86ae-82c8f3218f6f",
    "name": "Sanctum Alehouse",
    "brewery_type": "brewpub",
    "address_1": "2638 Main St Ste M",
    "address_2": null,
    "address_3": null,
    "city": "Chula Vista",
    "state_province": "California",
    "postal_code": "91911",
    "country": "United States",
    "longitude": -117.0767872,
    "latitude": 32.59580926,
    "phone": null,
    "website_url": null,
    "state": "California",
    "street": "2638 Main St Ste M"
  },
  {
    "id": "278660c9-4773-468f-aa9f-19216b762d37",
    "name": "Sanctum Brewing Co",
    "brewery_type": "closed",
    "address_1": "560 E Commercial St Ste 21",
    "address_2": null,
    "address_3": null,
    "city": "Pomona",
    "state_province": "California",
    "postal_code": "91767-5649",
    "country": "United States",
    "longitude": -117.7405025,
    "latitude": 34.05970244,
    "phone": "9093450253",
    "website_url": "http://www.sanctumbrewing.com",
    "state": "California",
    "street": "560 E Commercial St Ste 21"
  },
  {
    "id": "5dbae73d-6b77-43fe-ac8b-034105c154a0",
    "name": "Sand City Brewing Co.",
    "brewery_type": "micro",
    "address_1": "60 Main St",
    "address_2": null,
    "address_3": null,
    "city": "Northport",
    "state_province": "New York",
    "postal_code": "11768-1722",
    "country": "United States",
    "longitude": -73.3508587,
    "latitude": 40.8998983,
    "phone": "9177965672",
    "website_url": "http://www.sandcitybeer.com",
    "state": "New York",
    "street": "60 Main St"
  },
  {
    "id": "cf190fc8-5842-4e12-8fd3-80b1fda0bf4e",
    "name": "Sand Creek Brewing Co",
    "brewery_type": "micro",
    "address_1": "320 Pierce St",
    "address_2": null,
    "address_3": null,
    "city": "Black River Falls",
    "state_province": "Wisconsin",
    "postal_code": "54615",
    "country": "United States",
    "longitude": -90.85115523,
    "latitude": 44.29279126,
    "phone": "7152847553",
    "website_url": "http://www.sandcreekbrewing.com",
    "state": "Wisconsin",
    "street": "320 Pierce St"
  },
  {
    "id": "6e944425-d2e8-4005-8d04-2d68bacf6d73",
    "name": "Sand Mtn brewery",
    "brewery_type": "planning",
    "address_1": null,
    "address_2": null,
    "address_3": null,
    "city": "Section",
    "state_province": "Alabama",
    "postal_code": "35771",
    "country": "United States",
    "longitude": -85.986644,
    "latitude": 34.5789747,
    "phone": "2564180658",
    "website_url": "http://Www.sandmtnbrewery.com",
    "state": "Alabama",
    "street": null
  },
  {
    "id": "75b2ab04-6d86-4928-8953-d60c4b1c172e",
    "name": "Sandhill Crane Vineyards",
    "brewery_type": "micro",
    "address_1": "4724 Walz Rd",
    "address_2": null,
    "address_3": null,
    "city": "Jackson",
    "state_province": "Michigan",
    "postal_code": "49201-9613",
    "country": "United States",
    "longitude": null,
    "latitude": null,
    "phone": "5177640679",
    "website_url": "http://www.sandhillcranevineyards.com",
    "state": "Michigan",
    "street": "4724 Walz Rd"
  },
  {
    "id": "e6a58a3a-06ff-4f7e-a54d-a025199a176f",
    "name": "Sandude Brewing Co",
    "brewery_type": "micro",
    "address_1": "1401 Freitas Park",
    "address_2": null,
    "address_3": null,
    "city": "Turlock",
    "state_province": "California",
    "postal_code": "95380-6254",
    "country": "United States",
    "longitude": -120.859873,
    "latitude": 37.479896,
    "phone": "2096781547",
    "website_url": null,
    "state": "California",
    "street": "1401 Freitas Park"
  },
  {
    "id": "1cb033df-d217-475d-8b40-90af3a179934",
    "name": "Sandy Springs Brewing Company",
    "brewery_type": "brewpub",
    "address_1": "232 N Market St",
    "address_2": null,
    "address_3": null,
    "city": "Minerva",
    "state_province": "Ohio",
    "postal_code": "44657-1616",
    "country": "United States",
    "longitude": -81.10382014,
    "latitude": 40.72956679,
    "phone": "3304516926",
    "website_url": "http://www.sandyspringsbrewery.com",
    "state": "Ohio",
    "street": "232 N Market St"
  },
  {
    "id": "e0e79155-5263-49c9-b001-df29d38fe160",
    "name": "Sandy Valley Brewing Co",
    "brewery_type": "micro",
    "address_1": "3660 Linhorst Rd",
    "address_2": null,
    "address_3": null,
    "city": "Hillsboro",
    "state_province": "MIssouri",
    "postal_code": "63050",
    "country": "United States",
    "longitude": -90.476661,
    "latitude": 38.30122,
    "phone": "6364755008",
    "website_url": "http://www.sandyvalleybrewingcompany.com",
    "state": "MIssouri",
    "street": "3660 Linhorst Rd"
  },
  {
    "id": "2199b077-5cfa-4a8a-81bb-2be99e73338e",
    "name": "Sanford Brewing Company",
    "brewery_type": "brewpub",
    "address_1": "400 Sanford Ave",
    "address_2": null,
    "address_3": null,
    "city": "Sanford",
    "state_province": "Florida",
    "postal_code": "32771-1971",
    "country": "United States",
    "longitude": -81.265044,
    "latitude": 28.808877,
    "phone": "4077326419",
    "website_url": "http://www.sanfordbrewing.com",
    "state": "Florida",
    "street": "400 Sanford Ave"
  },
  {
    "id": "59639100-39ec-491e-bbe4-680013452e0b",
    "name": "Sanitas Brewing Co",
    "brewery_type": "micro",
    "address_1": "3550 Frontier Ave Ste A",
    "address_2": null,
    "address_3": null,
    "city": "Boulder",
    "state_province": "Colorado",
    "postal_code": "80301-2430",
    "country": "United States",
    "longitude": null,
    "latitude": null,
    "phone": "2152667762",
    "website_url": "http://www.sanitasbrewing.com/",
    "state": "Colorado",
    "street": "3550 Frontier Ave Ste A"
  },
  {
    "id": "d8a76528-8e19-4663-8fe1-84b7b9ed11a4",
    "name": "Sanitas Brewing Co - Englewood",
    "brewery_type": "micro",
    "address_1": "200 W Belleview Ave Unit 100",
    "address_2": null,
    "address_3": null,
    "city": "Englewood",
    "state_province": "Colorado",
    "postal_code": "80110",
    "country": "United States",
    "longitude": -104.9904986,
    "latitude": 39.6236966,
    "phone": null,
    "website_url": "http://www.sanitasbrewing.com/",
    "state": "Colorado",
    "street": "200 W Belleview Ave Unit 100"
  },
  {
    "id": "bdd2577c-fb11-4237-a32a-a9d0f3f680d2",
    "name": "Santa Barbara Brewing Co",
    "brewery_type": "brewpub",
    "address_1": "501 State St",
    "address_2": null,
    "address_3": null,
    "city": "Santa Barbara",
    "state_province": "California",
    "postal_code": "93101-1601",
    "country": "United States",
    "longitude": -119.7526684,
    "latitude": 34.4404959,
    "phone": "8057301040",
    "website_url": "http://www.sbbrewco.com",
    "state": "California",
    "street": "501 State St"
  },
  {
    "id": "b02f2e1a-349c-40f4-bca2-69aeaf0e3a68",
    "name": "Santa Clara Valley Brewing",
    "brewery_type": "micro",
    "address_1": "101 E Alma Ave",
    "address_2": null,
    "address_3": null,
    "city": "San Jose",
    "state_province": "California",
    "postal_code": "95112-5944",
    "country": "United States",
    "longitude": -121.8738718,
    "latitude": 37.31635308,
    "phone": "4082885181",
    "website_url": "http://www.scvbrewing.com",
    "state": "California",
    "street": "101 E Alma Ave"
  },
  {
    "id": "c9e0d728-076b-4867-a9d9-a2f20ff24e25",
    "name": "Santa Cruz Aleworks",
    "brewery_type": "closed",
    "address_1": "150 Dubois St Ste E",
    "address_2": null,
    "address_3": null,
    "city": "Santa Cruz",
    "state_province": "California",
    "postal_code": "95060-2114",
    "country": "United States",
    "longitude": -122.0385924,
    "latitude": 36.98680136,
    "phone": "8314251182",
    "website_url": "http://www.santacruzaleworks.com",
    "state": "California",
    "street": "150 Dubois St Ste E"
  },
  {
    "id": "446040d3-601c-4f9e-be86-ba4280b89b33",
    "name": "Santa Cruz Mountain Brewing",
    "brewery_type": "brewpub",
    "address_1": "402 Ingalls St Ste 27",
    "address_2": null,
    "address_3": null,
    "city": "Santa Cruz",
    "state_province": "California",
    "postal_code": "95060-5869",
    "country": "United States",
    "longitude": -122.0481007,
    "latitude": 36.95925318,
    "phone": null,
    "website_url": null,
    "state": "California",
    "street": "402 Ingalls St Ste 27"
  },
  {
    "id": "3a366221-e927-47b5-a137-a553b82c3245",
    "name": "Santa Fe Brewing Co",
    "brewery_type": "regional",
    "address_1": "35 Fire Place",
    "address_2": null,
    "address_3": null,
    "city": "Santa Fe",
    "state_province": "New Mexico",
    "postal_code": "87508-4493",
    "country": "United States",
    "longitude": -106.0515883,
    "latitude": 35.59654205,
    "phone": "5054243333",
    "website_url": "http://www.santafebrewing.com",
    "state": "New Mexico",
    "street": "35 Fire Place"
  },
  {
    "id": "abf360a2-84d7-491c-a372-e6eabc07f4a0",
    "name": "Santa Maria Brewing Co",
    "brewery_type": "micro",
    "address_1": "7935 San Luis Ave",
    "address_2": null,
    "address_3": null,
    "city": "Atascadero",
    "state_province": "California",
    "postal_code": "93422",
    "country": "United States",
    "longitude": -120.6576002,
    "latitude": 35.47776332,
    "phone": "8055457702",
    "website_url": "http://www.santamariabrewingco.com",
    "state": "California",
    "street": "7935 San Luis Ave"
  },
  {
    "id": "ede87167-b083-49b4-880e-6c8167e1662d",
    "name": "Santa Maria Brewing Co",
    "brewery_type": "brewpub",
    "address_1": "115 Cuyama Ln",
    "address_2": null,
    "address_3": null,
    "city": "Nipomo",
    "state_province": "California",
    "postal_code": "93444",
    "country": "United States",
    "longitude": -120.4364431,
    "latitude": 34.99599466,
    "phone": "8059251555",
    "website_url": "http://www.santamariabrewingco.com",
    "state": "California",
    "street": "115 Cuyama Ln"
  },
  {
    "id": "05f35e24-25fa-4cd8-9701-4b1ef9d6bc8b",
    "name": "Santa Maria Brewing Co",
    "brewery_type": "closed",
    "address_1": "1451 Fairway Dr",
    "address_2": null,
    "address_3": null,
    "city": "Santa Maria",
    "state_province": "California",
    "postal_code": "93455-1404",
    "country": "United States",
    "longitude": -120.4628795,
    "latitude": 34.91399145,
    "phone": null,
    "website_url": "http://www.santamariabrewingco.com",
    "state": "California",
    "street": "1451 Fairway Dr"
  },
  {
    "id": "804be063-5e93-4657-a2ee-b89d73f11a00",
    "name": "Santa Monica Brew Works",
    "brewery_type": "micro",
    "address_1": "1920 Colorado Ave Ste C",
    "address_2": null,
    "address_3": null,
    "city": "Santa Monica",
    "state_province": "California",
    "postal_code": "90404-3414",
    "country": "United States",
    "longitude": -118.4765129,
    "latitude": 34.02565745,
    "phone": "3108287629",
    "website_url": "http://www.santamonicabrewworks.com",
    "state": "California",
    "street": "1920 Colorado Ave Ste C"
  },
  {
    "id": "dd5de877-b112-412e-a58e-5b704fd71f92",
    "name": "Santai",
    "brewery_type": "bar",
    "address_1": "697D East Coast Road",
    "address_2": null,
    "address_3": null,
    "city": "Singapore",
    "state_province": "Singapore",
    "postal_code": "459060",
    "country": "Singapore",
    "longitude": 1.3120292964811,
    "latitude": 103.9221119,
    "phone": "+65 9732 4742",
    "website_url": null,
    "state": "Singapore",
    "street": "697D East Coast Road"
  },
  {
    "id": "85619fb4-6a1c-48b5-8280-4962b2eb67df",
    "name": "SanTan Brewing Co",
    "brewery_type": "regional",
    "address_1": "8 S San Marcos Pl",
    "address_2": null,
    "address_3": null,
    "city": "Chandler",
    "state_province": "Arizona",
    "postal_code": "85225-7862",
    "country": "United States",
    "longitude": -111.8423459,
    "latitude": 33.3032436,
    "phone": "4809178700",
    "website_url": "http://www.santanbrewing.com",
    "state": "Arizona",
    "street": "8 S San Marcos Pl"
  },
  {
    "id": "6b294403-76c6-411c-b991-6d9c853f514f",
    "name": "SanTan Brewing Co",
    "brewery_type": "planning",
    "address_1": null,
    "address_2": null,
    "address_3": null,
    "city": "Phoenix",
    "state_province": "Arizona",
    "postal_code": "85014-2435",
    "country": "United States",
    "longitude": -112.0773456,
    "latitude": 33.4485866,
    "phone": null,
    "website_url": null,
    "state": "Arizona",
    "street": null
  },
  {
    "id": "a48a79db-2554-4e84-8112-088ceaa4f2ad",
    "name": "SanTan Brewing Co - Uptown Chandler",
    "brewery_type": "micro",
    "address_1": "495 E. Warner Rd.",
    "address_2": null,
    "address_3": null,
    "city": "Chandler",
    "state_province": "Arizona",
    "postal_code": "85225",
    "country": "United States",
    "longitude": -111.8384052,
    "latitude": 33.3352048,
    "phone": "4809178700",
    "website_url": null,
    "state": "Arizona",
    "street": "495 E. Warner Rd."
  },
  {
    "id": "229523be-7783-46ed-a5cc-ff15ea7f01eb",
    "name": "Sante Adairius Rustic Ales",
    "brewery_type": "micro",
    "address_1": "103 Kennedy Dr",
    "address_2": null,
    "address_3": null,
    "city": "Capitola",
    "state_province": "California",
    "postal_code": "95010-3641",
    "country": "United States",
    "longitude": -121.9405748,
    "latitude": 36.9822865,
    "phone": "8313454867",
    "website_url": "http://www.rusticales.com",
    "state": "California",
    "street": "103 Kennedy Dr"
  },
  {
    "id": "fcebcda3-2a5d-48a2-8cfb-2e86214550e2",
    "name": "Santiam Brewing Co",
    "brewery_type": "micro",
    "address_1": "2544 19th St SE",
    "address_2": null,
    "address_3": null,
    "city": "Salem",
    "state_province": "Oregon",
    "postal_code": "97302-1501",
    "country": "United States",
    "longitude": -123.0209084,
    "latitude": 44.91644665,
    "phone": "5035075257",
    "website_url": "http://www.santiambrewing.com",
    "state": "Oregon",
    "street": "2544 19th St SE"
  },
  {
    "id": "b1cb9fee-8488-43dd-9073-5cb426b580fc",
    "name": "Sapphire Mountain Brewing Co",
    "brewery_type": "contract",
    "address_1": "50 Slicers Ave",
    "address_2": null,
    "address_3": null,
    "city": "Sapphire",
    "state_province": "North Carolina",
    "postal_code": "28774-9405",
    "country": "United States",
    "longitude": null,
    "latitude": null,
    "phone": "8287430220",
    "website_url": "http://www.sapphiremountainbrewingcompany.com",
    "state": "North Carolina",
    "street": "50 Slicers Ave"
  },
  {
    "id": "a29dd725-49eb-4f82-b7c0-28ae9cdf21b2",
    "name": "Sapporo Brewery USA",
    "brewery_type": "large",
    "address_1": null,
    "address_2": null,
    "address_3": null,
    "city": "La Crosse",
    "state_province": "Wisconsin",
    "postal_code": "54601",
    "country": "United States",
    "longitude": null,
    "latitude": null,
    "phone": null,
    "website_url": null,
    "state": "Wisconsin",
    "street": null
  },
  {
    "id": "9d2d554a-e0e4-49d9-9fc7-617440346398",
    "name": "Saranac Brewery / Matt Brewing Co",
    "brewery_type": "regional",
    "address_1": "811 Edward St",
    "address_2": null,
    "address_3": null,
    "city": "Utica",
    "state_province": "New York",
    "postal_code": "13502-4001",
    "country": "United States",
    "longitude": -75.24414622,
    "latitude": 43.10355567,
    "phone": "3156242400",
    "website_url": "http://www.saranac.com",
    "state": "New York",
    "street": "811 Edward St"
  },
  {
    "id": "86e2d1b2-4613-441a-a543-e762718d3153",
    "name": "Sarasota Brewing Co",
    "brewery_type": "brewpub",
    "address_1": "6607 Gateway Ave",
    "address_2": null,
    "address_3": null,
    "city": "Sarasota",
    "state_province": "Florida",
    "postal_code": "34231-5805",
    "country": "United States",
    "longitude": -82.5163259,
    "latitude": 27.26007897,
    "phone": "9419252337",
    "website_url": "http://www.sarasotabrewing.com",
    "state": "Florida",
    "street": "6607 Gateway Ave"
  }
]