[
  {
    "id": "ca92dd91-e748-41dc-a471-e87554a91a06",
    "name": "Deep Draft Brewing",
    "brewery_type": "micro",
    "address_1": "3536 W Belfair Valley Rd",
    "address_2": null,
    "address_3": null,
    "city": "Bremerton",
    "state_province": "Washington",
    "postal_code": "98312-4928",
    "country": "United States",
    "longitude": -122.698446,
    "latitude": 47.53034342,
    "phone": "3605504438",
    "website_url": "https://www.deepdraftbrew.com/",
    "state": "Washington",
    "street": "3536 W Belfair Valley Rd"
  },
  {
    "id": "1998961a-6504-470f-af2a-15cef23e71b0",
    "name": "Deep Ellum Brewing Co",
    "brewery_type": "regional",
    "address_1": "2821 Saint Louis St",
    "address_2": null,
    "address_3": null,
    "city": "Dallas",
    "state_province": "Texas",
    "postal_code": "75226-1904",
    "country": "United States",
    "longitude": -96.78156845,
    "latitude": 32.78062733,
    "phone": "2148883322",
    "website_url": "http://www.deepellumbrewing.com",
    "state": "Texas",
    "street": "2821 Saint Louis St"
  },
  {
    "id": "a20aa253-c1dc-4922-a3f5-7e905f774d8d",
    "name": "Deep River Brewing Company",
    "brewery_type": "micro",
    "address_1": "700 W Main St Ste 102",
    "address_2": null,
    "address_3": null,
    "city": "Clayton",
    "state_province": "North Carolina",
    "postal_code": "27520-1657",
    "country": "United States",
    "longitude": null,
    "latitude": null,
    "phone": "9193683243",
    "website_url": "http://www.deepriverbrewing.com",
    "state": "North Carolina",
    "street": "700 W Main St Ste 102"
  },
  {
    "id": "26540a50-0fa6-4fcc-85e0-5079d118c6ee",
    "name": "Deep Roots Brewing",
    "brewery_type": "planning",
    "address_1": null,
    "address_2": null,
    "address_3": null,
    "city": "Phoenix",
    "state_province": "Arizona",
    "postal_code": "85007-3115",
    "country": "United States",
    "longitude": -112.0773456,
    "latitude": 33.4485866,
    "phone": "6023306790",
    "website_url": "http://www.deeprootsbrewing.com",
    "state": "Arizona",
    "street": null
  },
  {
    "id": "a50dfe25-5de9-4b5f-8a1a-b04a489e26ea",
    "name": "Deep Sleep Brewing Company LLC",
    "brewery_type": "closed",
    "address_1": "6891 Whiskey Creek Rd.",
    "address_2": null,
    "address_3": null,
    "city": "Washington",
    "state_province": "Missouri",
    "postal_code": "63090",
    "country": "United States",
    "longitude": null,
    "latitude": null,
    "phone": "3142395801",
    "website_url": null,
    "state": "Missouri",
    "street": "6891 Whiskey Creek Rd."
  },
  {
    "id": "c9e5fb87-9609-4683-81ea-a90dc6c8b50f",
    "name": "Deep Space Brewing / Out of This World Pizza",
    "brewery_type": "brewpub",
    "address_1": "6255 NE Century Blvd",
    "address_2": null,
    "address_3": null,
    "city": "Hillsboro",
    "state_province": "Oregon",
    "postal_code": "97124-8621",
    "country": "United States",
    "longitude": -122.912049,
    "latitude": 45.564963,
    "phone": "5036298700",
    "website_url": null,
    "state": "Oregon",
    "street": "6255 NE Century Blvd"
  },
  {
    "id": "8476a30e-0e24-40a2-907e-92109c972a03",
    "name": "DeepWater Brewing Company",
    "brewery_type": "micro",
    "address_1": "33 Tenney Hl",
    "address_2": null,
    "address_3": null,
    "city": "Blue Hill",
    "state_province": "Maine",
    "postal_code": "04614",
    "country": "United States",
    "longitude": null,
    "latitude": null,
    "phone": "2073742411",
    "website_url": "http://www.arborvine.com",
    "state": "Maine",
    "street": "33 Tenney Hl"
  },
  {
    "id": "4000af9a-d444-4ec9-9561-8dfab554e043",
    "name": "Deer Creek Brewery",
    "brewery_type": "micro",
    "address_1": "17661 Cumberland Rd",
    "address_2": null,
    "address_3": null,
    "city": "Noblesville",
    "state_province": "Indiana",
    "postal_code": "46060-",
    "country": "United States",
    "longitude": -85.9962796,
    "latitude": 40.0443978,
    "phone": "3176748266",
    "website_url": "http://www.deercreekbrewery.com",
    "state": "Indiana",
    "street": "17661 Cumberland Rd"
  },
  {
    "id": "a3f25ad0-001b-4e6b-8dd3-cbcbd0962654",
    "name": "Dees Brothers Brewery",
    "brewery_type": "planning",
    "address_1": null,
    "address_2": null,
    "address_3": null,
    "city": "Orlando",
    "state_province": "Florida",
    "postal_code": "32807-1633",
    "country": "United States",
    "longitude": null,
    "latitude": null,
    "phone": "4072575104",
    "website_url": "http://www.deesbrosbrew.com",
    "state": "Florida",
    "street": null
  },
  {
    "id": "7606b693-f67c-4f45-8d3c-8b81d2c9b415",
    "name": "Defeat River Brewery",
    "brewery_type": "micro",
    "address_1": "473 Fir Avenue",
    "address_2": null,
    "address_3": null,
    "city": "Reedsport",
    "state_province": "Oregon",
    "postal_code": "97467",
    "country": "United States",
    "longitude": -124.0974021,
    "latitude": 43.70234471,
    "phone": "5418088862",
    "website_url": "http://www.defeatriverbrewery.com",
    "state": "Oregon",
    "street": "473 Fir Avenue"
  },
  {
    "id": "7b891d71-9462-467d-ad32-54fd732162ea",
    "name": "Defiance Brewing Co.",
    "brewery_type": "micro",
    "address_1": "2050 E US Highway 40",
    "address_2": null,
    "address_3": null,
    "city": "Hays",
    "state_province": "Kansas",
    "postal_code": "67601-9310",
    "country": "United States",
    "longitude": null,
    "latitude": null,
    "phone": "7853012337",
    "website_url": "http://www.defiancebeer.com",
    "state": "Kansas",
    "street": "2050 E US Highway 40"
  },
  {
    "id": "47b0b67c-099f-47ba-a549-4144f69c0234",
    "name": "Defiant Brewing Co",
    "brewery_type": "brewpub",
    "address_1": "6 E Dexter Plz",
    "address_2": null,
    "address_3": null,
    "city": "Pearl River",
    "state_province": "New York",
    "postal_code": "10965-2360",
    "country": "United States",
    "longitude": -74.02302217,
    "latitude": 41.06015492,
    "phone": "8459208602",
    "website_url": "http://www.defiantbrewing.com",
    "state": "New York",
    "street": "6 E Dexter Plz"
  },
  {
    "id": "8f2ea1f7-965f-4106-ab3c-46efecfb941e",
    "name": "Definitive Brewing Company",
    "brewery_type": "micro",
    "address_1": "35 Industrial Way",
    "address_2": null,
    "address_3": null,
    "city": "Portland",
    "state_province": "Maine",
    "postal_code": "04103-1071",
    "country": "United States",
    "longitude": -70.3142737,
    "latitude": 43.70629522,
    "phone": null,
    "website_url": "http://www.definitivebrewing.com",
    "state": "Maine",
    "street": "35 Industrial Way"
  },
  {
    "id": "0338af09-60df-4e16-9fd6-89d3033c9cc2",
    "name": "Deft Brewing",
    "brewery_type": "micro",
    "address_1": "5328 Banks St",
    "address_2": null,
    "address_3": null,
    "city": "San Diego",
    "state_province": "California",
    "postal_code": "92110-4008",
    "country": "United States",
    "longitude": -117.1993433,
    "latitude": 32.76435432,
    "phone": "8589995728",
    "website_url": "http://www.deftbrewing.com",
    "state": "California",
    "street": "5328 Banks St"
  },
  {
    "id": "121c725d-bf10-4f10-8e7f-73bbbd76fbd2",
    "name": "Del Cielo Brewing Co.",
    "brewery_type": "micro",
    "address_1": "701 Escobar St Ste A",
    "address_2": null,
    "address_3": null,
    "city": "Martinez",
    "state_province": "California",
    "postal_code": "94553-1150",
    "country": "United States",
    "longitude": -122.1369329,
    "latitude": 38.01845197,
    "phone": "9253301229",
    "website_url": "http://www.delcielobrewing.com",
    "state": "California",
    "street": "701 Escobar St Ste A"
  },
  {
    "id": "199fdb4e-b2aa-4f46-a43e-832a6f07b879",
    "name": "Delafield Brewhaus",
    "brewery_type": "brewpub",
    "address_1": "3832 Hillside Dr",
    "address_2": null,
    "address_3": null,
    "city": "Delafield",
    "state_province": "Wisconsin",
    "postal_code": "53018-2174",
    "country": "United States",
    "longitude": -88.350304,
    "latitude": 43.048373,
    "phone": "2626467821",
    "website_url": "http://www.delafield-brewhaus.com",
    "state": "Wisconsin",
    "street": "3832 Hillside Dr"
  },
  {
    "id": "0ab6f6fc-b741-4c2e-8e03-6987401a3837",
    "name": "Delicious Science Brewing",
    "brewery_type": "closed",
    "address_1": "11626 Sterling Ave Ste G",
    "address_2": null,
    "address_3": null,
    "city": "Riverside",
    "state_province": "California",
    "postal_code": "92503-4991",
    "country": "United States",
    "longitude": -117.4850052,
    "latitude": 33.89543379,
    "phone": "9513522739",
    "website_url": "http://www.delicioussciencebreing.com",
    "state": "California",
    "street": "11626 Sterling Ave Ste G"
  },
  {
    "id": "e272df56-966d-4587-8e7c-46adda39ccba",
    "name": "Delta Sunshine Brewing Company",
    "brewery_type": "planning",
    "address_1": null,
    "address_2": null,
    "address_3": null,
    "city": "Memphis",
    "state_province": "Tennessee",
    "postal_code": "38120-8859",
    "country": "United States",
    "longitude": null,
    "latitude": null,
    "phone": "9016748330",
    "website_url": null,
    "state": "Tennessee",
    "street": null
  },
  {
    "id": "7dc2107f-007b-4435-a23b-9d4278512460",
    "name": "Deluxe Brewing Co",
    "brewery_type": "micro",
    "address_1": "PO Box 3358",
    "address_2": null,
    "address_3": null,
    "city": "Albany",
    "state_province": "Oregon",
    "postal_code": "97321-0713",
    "country": "United States",
    "longitude": -123.0981451,
    "latitude": 44.63937563,
    "phone": "5419287699",
    "website_url": "http://www.deluxebrewing.com",
    "state": "Oregon",
    "street": "PO Box 3358"
  },
  {
    "id": "d28cea89-9e32-40a6-8a98-684ca83c54ca",
    "name": "Demented Brewing Co.",
    "brewery_type": "micro",
    "address_1": "600 Lincoln Blvd",
    "address_2": null,
    "address_3": null,
    "city": "Middlesex",
    "state_province": "New Jersey",
    "postal_code": "08846-2443",
    "country": "United States",
    "longitude": -74.4946842,
    "latitude": 40.5707752,
    "phone": "7326298260",
    "website_url": "http://www.dementedbrewing.com",
    "state": "New Jersey",
    "street": "600 Lincoln Blvd"
  },
  {
    "id": "a78baae3-6e1e-496a-b014-544a5dc5d8d0",
    "name": "Democracy Brewing",
    "brewery_type": "brewpub",
    "address_1": "35 Temple Pl",
    "address_2": null,
    "address_3": null,
    "city": "Boston",
    "state_province": "Massachusetts",
    "postal_code": "02111",
    "country": "United States",
    "longitude": -71.06231578,
    "latitude": 42.35529623,
    "phone": "8572172739",
    "website_url": "http://www.democracybrewing.com",
    "state": "Massachusetts",
    "street": "35 Temple Pl"
  },
  {
    "id": "da34f414-042a-4e65-ad6e-3069b6a205d0",
    "name": "Dempsey's Brew Pub and Restaurant - Baltimore",
    "brewery_type": "brewpub",
    "address_1": "333 W Camden St",
    "address_2": null,
    "address_3": null,
    "city": "Baltimore",
    "state_province": "Maryland",
    "postal_code": "21201",
    "country": "United States",
    "longitude": -76.62013833,
    "latitude": 39.28518467,
    "phone": "4108437901",
    "website_url": "http://www.dempseysbaltimore.com",
    "state": "Maryland",
    "street": "333 W Camden St"
  },
  {
    "id": "0d2f7fc6-727f-47ac-a931-00117b5aa2db",
    "name": "Dempsey's Restaurant And Brewery",
    "brewery_type": "brewpub",
    "address_1": "50 E Washington St",
    "address_2": null,
    "address_3": null,
    "city": "Petaluma",
    "state_province": "California",
    "postal_code": "94952-3115",
    "country": "United States",
    "longitude": -122.6391907,
    "latitude": 38.2348199,
    "phone": "7077659694",
    "website_url": "http://www.dempseys.com",
    "state": "California",
    "street": "50 E Washington St"
  },
  {
    "id": "cff33451-0f08-4488-9233-0f3f5876a1a5",
    "name": "Dempseys Brewery, Pub",
    "brewery_type": "brewpub",
    "address_1": "127 N Broadway",
    "address_2": null,
    "address_3": null,
    "city": "Watertown",
    "state_province": "South Dakota",
    "postal_code": "57201-3525",
    "country": "United States",
    "longitude": -97.11389409,
    "latitude": 44.90302636,
    "phone": "6058829760",
    "website_url": "http://www.dempseybrewpub.com",
    "state": "South Dakota",
    "street": "127 N Broadway"
  },
  {
    "id": "6cfdd1a7-5875-490d-ac21-972b403aaf56",
    "name": "Denali Brewing Company",
    "brewery_type": "micro",
    "address_1": "37083 Talkeetna Spur Rd",
    "address_2": null,
    "address_3": null,
    "city": "Talkeetna",
    "state_province": "Alaska",
    "postal_code": "99676",
    "country": "United States",
    "longitude": -150.029188,
    "latitude": 62.161453,
    "phone": "9077332536",
    "website_url": "http://www.denalibrewing.com",
    "state": "Alaska",
    "street": "37083 Talkeetna Spur Rd"
  },
  {
    "id": "1a390f44-9b37-4c41-b482-c974f068092a",
    "name": "Denizens Brewing Company",
    "brewery_type": "brewpub",
    "address_1": "1115 E West Hwy",
    "address_2": null,
    "address_3": null,
    "city": "Silver Spring",
    "state_province": "Maryland",
    "postal_code": "20910-4852",
    "country": "United States",
    "longitude": -77.02848142,
    "latitude": 38.98957715,
    "phone": "3015579818",
    "website_url": "http://www.denizensbrewingco.com",
    "state": "Maryland",
    "street": "1115 E West Hwy"
  },
  {
    "id": "887a5d64-2fa8-4695-9265-8bc11cfd686f",
    "name": "DeNovo Beverage of Monmouth",
    "brewery_type": "micro",
    "address_1": "105 S A St",
    "address_2": null,
    "address_3": null,
    "city": "Monmouth",
    "state_province": "Illinois",
    "postal_code": "61462-1706",
    "country": "United States",
    "longitude": -90.64964464,
    "latitude": 40.9112055,
    "phone": null,
    "website_url": "http://www.denovobrewing.co",
    "state": "Illinois",
    "street": "105 S A St"
  },
  {
    "id": "72d8f50e-0dff-46ec-9251-e79c917786b2",
    "name": "Dented Face Brewing Company",
    "brewery_type": "planning",
    "address_1": null,
    "address_2": null,
    "address_3": null,
    "city": "Delta",
    "state_province": "Colorado",
    "postal_code": "81416",
    "country": "United States",
    "longitude": null,
    "latitude": null,
    "phone": null,
    "website_url": null,
    "state": "Colorado",
    "street": null
  },
  {
    "id": "fc88252f-a4fb-4016-a929-6111f6c15eb5",
    "name": "Denton County Brewing Company",
    "brewery_type": "micro",
    "address_1": "200 E McKinney St",
    "address_2": null,
    "address_3": null,
    "city": "Denton",
    "state_province": "Texas",
    "postal_code": "76201-4230",
    "country": "United States",
    "longitude": -97.131672,
    "latitude": 33.216517,
    "phone": "9404350710",
    "website_url": "http://www.dentoncountybrewingco.com",
    "state": "Texas",
    "street": "200 E McKinney St"
  },
  {
    "id": "4405d177-19d8-44d4-bbf2-3b94894d460c",
    "name": "Denver Beer Co",
    "brewery_type": "micro",
    "address_1": "1695 Platte St",
    "address_2": null,
    "address_3": null,
    "city": "Denver",
    "state_province": "Colorado",
    "postal_code": "80202-1123",
    "country": "United States",
    "longitude": -105.0072502,
    "latitude": 39.7583143,
    "phone": "3034332739",
    "website_url": "http://www.denverbeerco.com",
    "state": "Colorado",
    "street": "1695 Platte St"
  },
  {
    "id": "eb2ea321-605f-44aa-9d83-5887126370ee",
    "name": "Denver Beer Co - Littleton",
    "brewery_type": "micro",
    "address_1": "2409 Main St",
    "address_2": null,
    "address_3": null,
    "city": "Littleton",
    "state_province": "Colorado",
    "postal_code": "80120",
    "country": "United States",
    "longitude": -105.0165076,
    "latitude": 39.6138263,
    "phone": "7205239146",
    "website_url": "https://denverbeerco.com/taprooms/littleton/",
    "state": "Colorado",
    "street": "2409 Main St"
  },
  {
    "id": "4b5c7db7-9157-47f7-ac78-299248150164",
    "name": "Denver Beer Co Canworks",
    "brewery_type": "micro",
    "address_1": "4455 Jason St",
    "address_2": null,
    "address_3": null,
    "city": "Denver",
    "state_province": "Colorado",
    "postal_code": "80211-2412",
    "country": "United States",
    "longitude": -105.0008302,
    "latitude": 39.7769429,
    "phone": "7202954781",
    "website_url": null,
    "state": "Colorado",
    "street": "4455 Jason St"
  },
  {
    "id": "29c1c73e-3eac-4a09-8fd2-16967e838f9e",
    "name": "Denver Beer Co Olde Town Arvada",
    "brewery_type": "micro",
    "address_1": "5768 Olde Wadsworth Blvd",
    "address_2": null,
    "address_3": null,
    "city": "Arvada",
    "state_province": "Colorado",
    "postal_code": "80002-2549",
    "country": "United States",
    "longitude": -105.0814554,
    "latitude": 39.801625,
    "phone": "7208925367",
    "website_url": "https://denverbeerco.com/taprooms/olde-town-arvada/",
    "state": "Colorado",
    "street": "5768 Olde Wadsworth Blvd"
  },
  {
    "id": "1890caa7-06e0-4bb9-8a98-2c1a21480ae7",
    "name": "Departed Soles Brewing",
    "brewery_type": "micro",
    "address_1": "150 Bay Street, Commercial Side",
    "address_2": null,
    "address_3": null,
    "city": "Jersey City",
    "state_province": "New Jersey",
    "postal_code": "07302-2900",
    "country": "United States",
    "longitude": null,
    "latitude": null,
    "phone": "2014798578",
    "website_url": "http://www.departedsoles.com",
    "state": "New Jersey",
    "street": "150 Bay Street, Commercial Side"
  },
  {
    "id": "6d646324-bf6f-49c8-b9d9-e2d2cf508e2f",
    "name": "Department Coffee",
    "brewery_type": "contract",
    "address_1": "1940 N 30th Rd",
    "address_2": null,
    "address_3": null,
    "city": "Hollywood",
    "state_province": "Florida",
    "postal_code": "33021-4401",
    "country": "United States",
    "longitude": -80.16836199,
    "latitude": 26.02618324,
    "phone": "3235382955",
    "website_url": "http://www.depatmentcoffee.com",
    "state": "Florida",
    "street": "1940 N 30th Rd"
  },
  {
    "id": "574d5320-9db5-4b09-a017-5d0eeb92dba3",
    "name": "Depot Deli and Lounge",
    "brewery_type": "brewpub",
    "address_1": "101 N Railroad St",
    "address_2": null,
    "address_3": null,
    "city": "Shenandoah",
    "state_province": "Iowa",
    "postal_code": "51601-1158",
    "country": "United States",
    "longitude": -95.376823,
    "latitude": 40.765042,
    "phone": "7122464444",
    "website_url": "http://www.depotdeli.com",
    "state": "Iowa",
    "street": "101 N Railroad St"
  },
  {
    "id": "80e88a16-8dd6-4d29-a518-32ecd2ffdfe3",
    "name": "Depot Saloon",
    "brewery_type": "brewpub",
    "address_1": "9 S Race St",
    "address_2": null,
    "address_3": null,
    "city": "Greenville",
    "state_province": "Pennsylvania",
    "postal_code": "16125-2213",
    "country": "United States",
    "longitude": -80.390239,
    "latitude": 41.40444,
    "phone": "7245884201",
    "website_url": "http://www.depotsaloon.com",
    "state": "Pennsylvania",
    "street": "9 S Race St"
  },
  {
    "id": "afa9d016-15d3-4fd1-b8f1-ede356fc0da7",
    "name": "Depot Street Brewing Co",
    "brewery_type": "micro",
    "address_1": "904 Depot St",
    "address_2": null,
    "address_3": null,
    "city": "Jonesborough",
    "state_province": "Tennessee",
    "postal_code": "37659-5662",
    "country": "United States",
    "longitude": -82.48054524,
    "latitude": 36.28765395,
    "phone": "4237537628",
    "website_url": "http://www.depotstreetbrewing.com",
    "state": "Tennessee",
    "street": "904 Depot St"
  },
  {
    "id": "afcd66d0-520e-456b-a377-caeda279a70e",
    "name": "Der Blokken Brewery",
    "brewery_type": "closed",
    "address_1": "1100 Perry Ave Unit C",
    "address_2": null,
    "address_3": null,
    "city": "Bremerton",
    "state_province": "Washington",
    "postal_code": "98310-4945",
    "country": "United States",
    "longitude": null,
    "latitude": null,
    "phone": "3603772344",
    "website_url": "http://www.derblokken.com",
    "state": "Washington",
    "street": "1100 Perry Ave Unit C"
  },
  {
    "id": "09c632a5-61d8-4653-abd0-e2f55da61d8a",
    "name": "Derive Brewing company",
    "brewery_type": "micro",
    "address_1": "2808 N. High St.",
    "address_2": null,
    "address_3": null,
    "city": "Columbus",
    "state_province": "Ohio",
    "postal_code": "43206",
    "country": "United States",
    "longitude": -83.01185,
    "latitude": 40.01939,
    "phone": "614-732-4186",
    "website_url": "https://www.derivebeer.com/",
    "state": "Ohio",
    "street": "2808 N. High St."
  },
  {
    "id": "03345ba6-46c2-4ab9-88f5-d872169e99cc",
    "name": "Descendants Brewing Company",
    "brewery_type": "brewpub",
    "address_1": "61 Bridge St",
    "address_2": null,
    "address_3": null,
    "city": "Milford",
    "state_province": "New Jersey",
    "postal_code": "08848-1264",
    "country": "United States",
    "longitude": -75.095372,
    "latitude": 40.568461,
    "phone": null,
    "website_url": null,
    "state": "New Jersey",
    "street": "61 Bridge St"
  },
  {
    "id": "9e06a19e-312b-4d45-b264-cecf6e51a783",
    "name": "Deschutes Brewery",
    "brewery_type": "regional",
    "address_1": "901 SW Simpson Ave",
    "address_2": null,
    "address_3": null,
    "city": "Bend",
    "state_province": "Oregon",
    "postal_code": "97702-3118",
    "country": "United States",
    "longitude": -121.3246184,
    "latitude": 44.04780638,
    "phone": "5413858606",
    "website_url": "http://www.deschutesbrewery.com",
    "state": "Oregon",
    "street": "901 SW Simpson Ave"
  },
  {
    "id": "481d796e-a8aa-4253-b188-960dd7862ddc",
    "name": "Deschutes Brewery & Public House",
    "brewery_type": "brewpub",
    "address_1": "1044 NW Bond St",
    "address_2": null,
    "address_3": null,
    "city": "Bend",
    "state_province": "Oregon",
    "postal_code": "97703-2002",
    "country": "United States",
    "longitude": -121.3113845,
    "latitude": 44.05941415,
    "phone": "5413829242",
    "website_url": "http://www.deschutesbrewery.com",
    "state": "Oregon",
    "street": "1044 NW Bond St"
  },
  {
    "id": "620e6a25-dd43-4c59-9598-226c62829135",
    "name": "Deschutes Brewery & Public House",
    "brewery_type": "brewpub",
    "address_1": "210 NW 11th Ave",
    "address_2": null,
    "address_3": null,
    "city": "Portland",
    "state_province": "Oregon",
    "postal_code": "97209-2929",
    "country": "United States",
    "longitude": -122.6818808,
    "latitude": 45.52468,
    "phone": "5032964906",
    "website_url": "http://www.deschutesbrewery.com",
    "state": "Oregon",
    "street": "210 NW 11th Ave"
  },
  {
    "id": "0e67f77f-badf-42fe-98c0-c746c6e9140c",
    "name": "Desert Barn Brewing Co.",
    "brewery_type": "brewpub",
    "address_1": "11352 Hesperia Rd Ste B",
    "address_2": null,
    "address_3": null,
    "city": "Hesperia",
    "state_province": "California",
    "postal_code": "92345-2165",
    "country": "United States",
    "longitude": null,
    "latitude": null,
    "phone": null,
    "website_url": null,
    "state": "California",
    "street": "11352 Hesperia Rd Ste B"
  },
  {
    "id": "9c367e3f-82fc-4d51-bc2c-05c6aa90d708",
    "name": "Desert Eagle Brewing Company",
    "brewery_type": "micro",
    "address_1": "150 W Main St",
    "address_2": null,
    "address_3": null,
    "city": "Mesa",
    "state_province": "Arizona",
    "postal_code": "85201-7310",
    "country": "United States",
    "longitude": -111.8568311,
    "latitude": 33.4148261,
    "phone": "4806562662",
    "website_url": "http://www.deserteaglebrewing.com",
    "state": "Arizona",
    "street": "150 W Main St"
  },
  {
    "id": "3c7bbeb4-bb5b-4cdf-a5e9-e5ded84078c8",
    "name": "Desert Edge Brewery",
    "brewery_type": "brewpub",
    "address_1": "551 E 600 S",
    "address_2": null,
    "address_3": null,
    "city": "Salt Lake City",
    "state_province": "Utah",
    "postal_code": "84102-2717",
    "country": "United States",
    "longitude": -111.8750211,
    "latitude": 40.75639108,
    "phone": "8015218917",
    "website_url": "http://www.desertedgebrewery.com",
    "state": "Utah",
    "street": "551 E 600 S"
  },
  {
    "id": "f6253cbe-624f-4eb4-8aa5-5e6e0eca41ae",
    "name": "Desert Monks Brewing Co.",
    "brewery_type": "planning",
    "address_1": null,
    "address_2": null,
    "address_3": null,
    "city": "Gilbert",
    "state_province": "Arizona",
    "postal_code": "85296-3480",
    "country": "United States",
    "longitude": -111.7890239,
    "latitude": 33.3528259,
    "phone": "4805257444",
    "website_url": "https://www.desertmonksbrewing.com/",
    "state": "Arizona",
    "street": null
  },
  {
    "id": "cd625c02-0023-4fdd-803c-34a1343d37da",
    "name": "Desert Valley Brewing Co.",
    "brewery_type": "micro",
    "address_1": "2809 Broadbent Pkwy NE, Suite D C/O The Craftroom",
    "address_2": null,
    "address_3": null,
    "city": "Albuquerque",
    "state_province": "New Mexico",
    "postal_code": "87107-1613",
    "country": "United States",
    "longitude": null,
    "latitude": null,
    "phone": "5057171985",
    "website_url": null,
    "state": "New Mexico",
    "street": "2809 Broadbent Pkwy NE, Suite D C/O The Craftroom"
  },
  {
    "id": "17f2475a-d7b2-4565-b9c3-cfccbb44a5cf",
    "name": "Desi Firangi",
    "brewery_type": "bar",
    "address_1": "97 East Coast Road",
    "address_2": null,
    "address_3": null,
    "city": "Singapore",
    "state_province": "Singapore",
    "postal_code": "428794",
    "country": "Singapore",
    "longitude": 1.3058652675834,
    "latitude": 103.9041354,
    "phone": "+65 8518 4250",
    "website_url": "https://www.desifirangi.sg/",
    "state": "Singapore",
    "street": "97 East Coast Road"
  }
]