[
  {
    "id": "5916f082-a258-478f-9586-9096ee1d159d",
    "name": "Fat Hill Brewing",
    "brewery_type": "micro",
    "address_1": "17 N Federal Ave",
    "address_2": null,
    "address_3": null,
    "city": "Mason City",
    "state_province": "Iowa",
    "postal_code": "50401-3250",
    "country": "United States",
    "longitude": -93.20096509,
    "latitude": 43.15203459,
    "phone": "9524126272",
    "website_url": "http://FatHillBrewing.com",
    "state": "Iowa",
    "street": "17 N Federal Ave"
  },
  {
    "id": "04ae9ae6-162a-4a1d-8c06-cbfe1b484d2b",
    "name": "Fat Orange Cat Brew Co",
    "brewery_type": "micro",
    "address_1": null,
    "address_2": null,
    "address_3": null,
    "city": "East Hampton",
    "state_province": "Connecticut",
    "postal_code": "06424-1636",
    "country": "United States",
    "longitude": null,
    "latitude": null,
    "phone": "8608818045",
    "website_url": "http://www.fatorangecatbrewco.com",
    "state": "Connecticut",
    "street": null
  },
  {
    "id": "14dd447c-9aa5-4fd8-bdd0-f8febf45176c",
    "name": "Fat Point Brewing",
    "brewery_type": "micro",
    "address_1": "611 Charlotte St",
    "address_2": null,
    "address_3": null,
    "city": "Punta Gorda",
    "state_province": "Florida",
    "postal_code": "33950-4115",
    "country": "United States",
    "longitude": null,
    "latitude": null,
    "phone": "8003807405",
    "website_url": "http://www.fatpoint.com",
    "state": "Florida",
    "street": "611 Charlotte St"
  },
  {
    "id": "391fbfc6-0b81-4b96-8fe2-8f886f4527aa",
    "name": "Fat Toad Brewing Company",
    "brewery_type": "micro",
    "address_1": "3986 W 530 Rd",
    "address_2": null,
    "address_3": null,
    "city": "Pryor",
    "state_province": "Oklahoma",
    "postal_code": "74361",
    "country": "United States",
    "longitude": -95.3276131,
    "latitude": 36.2498069,
    "phone": "9188641308",
    "website_url": "http://www.fattoadbrewing.com",
    "state": "Oklahoma",
    "street": "3986 W 530 Rd"
  },
  {
    "id": "82221e83-b64e-43c2-9593-0ec456674870",
    "name": "FATE Brewing Company",
    "brewery_type": "brewpub",
    "address_1": "1600 38th St Ste 100",
    "address_2": null,
    "address_3": null,
    "city": "Boulder",
    "state_province": "Colorado",
    "postal_code": "80301-2610",
    "country": "United States",
    "longitude": -105.2454818,
    "latitude": 40.0149794,
    "phone": null,
    "website_url": null,
    "state": "Colorado",
    "street": "1600 38th St Ste 100"
  },
  {
    "id": "0b8ec1a7-bd72-439d-a741-71d61f851aa8",
    "name": "Father John's Microbrewery",
    "brewery_type": "brewpub",
    "address_1": "301 W Butler St",
    "address_2": null,
    "address_3": null,
    "city": "Bryan",
    "state_province": "Ohio",
    "postal_code": "43506-1608",
    "country": "United States",
    "longitude": -84.553828,
    "latitude": 41.473192,
    "phone": "4196331313",
    "website_url": "http://www.fatherjohnsbrewery.com",
    "state": "Ohio",
    "street": "301 W Butler St"
  },
  {
    "id": "e9e4a440-843a-43d3-b481-52a7e5307444",
    "name": "Fathom & League Hop Yard Brewery",
    "brewery_type": "micro",
    "address_1": "360 Grandview Dr",
    "address_2": null,
    "address_3": null,
    "city": "Sequim",
    "state_province": "Washington",
    "postal_code": "98382-7875",
    "country": "United States",
    "longitude": null,
    "latitude": null,
    "phone": "3602860278",
    "website_url": "http://www.fathomandleaguebrewery.com",
    "state": "Washington",
    "street": "360 Grandview Dr"
  },
  {
    "id": "ef476d83-b75b-4637-9adf-e5ceb03df535",
    "name": "Fatty's Beer Works",
    "brewery_type": "contract",
    "address_1": "1436 Meeting Street Rd",
    "address_2": null,
    "address_3": null,
    "city": "Charleston",
    "state_province": "South Carolina",
    "postal_code": "29405-9342",
    "country": "United States",
    "longitude": -79.950716,
    "latitude": 32.816629,
    "phone": "8439745330",
    "website_url": "http://www.followfatty.com",
    "state": "South Carolina",
    "street": "1436 Meeting Street Rd"
  },
  {
    "id": "e01bf1ae-7f9b-4c7e-9f4f-8b9f46ba8457",
    "name": "Faultline Brewing Co",
    "brewery_type": "brewpub",
    "address_1": "1235 Oakmead Pkwy",
    "address_2": null,
    "address_3": null,
    "city": "Sunnyvale",
    "state_province": "California",
    "postal_code": "94085-4040",
    "country": "United States",
    "longitude": -121.9895755,
    "latitude": 37.38688662,
    "phone": "4087362739",
    "website_url": null,
    "state": "California",
    "street": "1235 Oakmead Pkwy"
  },
  {
    "id": "6b709f6c-f30d-44bd-843e-3dd0a99fb05d",
    "name": "Faults Brewing",
    "brewery_type": "planning",
    "address_1": null,
    "address_2": null,
    "address_3": null,
    "city": "Anchorage",
    "state_province": "Alaska",
    "postal_code": "99509-0312",
    "country": "United States",
    "longitude": -149.8948523,
    "latitude": 61.2163129,
    "phone": "9073019922",
    "website_url": null,
    "state": "Alaska",
    "street": null
  },
  {
    "id": "5b2dc61f-9074-4e9e-bd6f-16593b342f9c",
    "name": "Faust Hotel Restaurant and Brew Pub",
    "brewery_type": "micro",
    "address_1": "499 S Castell Ave",
    "address_2": null,
    "address_3": null,
    "city": "New Braunfels",
    "state_province": "Texas",
    "postal_code": "78130-7618",
    "country": "United States",
    "longitude": -98.12031,
    "latitude": 29.698525,
    "phone": "8306257791",
    "website_url": "http://www.faustbrewing.com",
    "state": "Texas",
    "street": "499 S Castell Ave"
  },
  {
    "id": "cdbeb166-5eaf-4a66-9ca5-1cf6b55df680",
    "name": "Fawken Beer Company",
    "brewery_type": "planning",
    "address_1": null,
    "address_2": null,
    "address_3": null,
    "city": "Columbia",
    "state_province": "Tennessee",
    "postal_code": "38401-2030",
    "country": "United States",
    "longitude": null,
    "latitude": null,
    "phone": "6156636116",
    "website_url": null,
    "state": "Tennessee",
    "street": null
  },
  {
    "id": "400d6684-fd2d-4a17-9745-ccfb28a2a871",
    "name": "Fayetteville Brewing Company",
    "brewery_type": "planning",
    "address_1": null,
    "address_2": null,
    "address_3": null,
    "city": "Fayetteville",
    "state_province": "Arkansas",
    "postal_code": "72704-7402",
    "country": "United States",
    "longitude": -94.1574328,
    "latitude": 36.0625843,
    "phone": "4792631905",
    "website_url": "http://www.fayettebrew.com",
    "state": "Arkansas",
    "street": null
  },
  {
    "id": "4f86b0c5-c7a2-4cfa-8fa3-40afca62a741",
    "name": "Fearless Brewing Co",
    "brewery_type": "brewpub",
    "address_1": "326 S Broadway St",
    "address_2": null,
    "address_3": null,
    "city": "Estacada",
    "state_province": "Oregon",
    "postal_code": "97023-7000",
    "country": "United States",
    "longitude": -122.3350759,
    "latitude": 45.2870468,
    "phone": "5036302337",
    "website_url": "http://www.fearless.beer",
    "state": "Oregon",
    "street": "326 S Broadway St"
  },
  {
    "id": "39a29354-6247-4e93-bc5d-5f1ee33b24ab",
    "name": "Feather Falls Brewing Co",
    "brewery_type": "brewpub",
    "address_1": "3 Alverda Dr",
    "address_2": null,
    "address_3": null,
    "city": "Oroville",
    "state_province": "California",
    "postal_code": "95966-9379",
    "country": "United States",
    "longitude": -121.521407,
    "latitude": 39.46576,
    "phone": "5305344059",
    "website_url": "http://www.featherfallscasino.com",
    "state": "California",
    "street": "3 Alverda Dr"
  },
  {
    "id": "d26eddc8-d40c-4448-8eea-011b109966c2",
    "name": "Feather River Brewing Co",
    "brewery_type": "micro",
    "address_1": "14665 Forest Ridge Rd",
    "address_2": null,
    "address_3": null,
    "city": "Magalia",
    "state_province": "California",
    "postal_code": "95954-0443",
    "country": "United States",
    "longitude": -121.5777621,
    "latitude": 39.84088592,
    "phone": "5308730734",
    "website_url": "http://www.featherriverbrewing.com",
    "state": "California",
    "street": "14665 Forest Ridge Rd"
  },
  {
    "id": "e202f7ae-1d8f-42ff-b427-8d1460490b56",
    "name": "Feathered Friend Brewing",
    "brewery_type": "micro",
    "address_1": "231 S Main St",
    "address_2": null,
    "address_3": null,
    "city": "Concord",
    "state_province": "New Hampshire",
    "postal_code": "03301",
    "country": "United States",
    "longitude": -71.53136,
    "latitude": 43.1945,
    "phone": "6037152347",
    "website_url": "https://www.featheredfriendbrewing.com/",
    "state": "New Hampshire",
    "street": "231 S Main St"
  },
  {
    "id": "502b4291-c1be-403f-aeb4-0e5434def665",
    "name": "Feathered Serpent Brewery",
    "brewery_type": "planning",
    "address_1": null,
    "address_2": null,
    "address_3": null,
    "city": "San Dimas",
    "state_province": "California",
    "postal_code": "91773-1477",
    "country": "United States",
    "longitude": -117.8067257,
    "latitude": 34.1066756,
    "phone": "3237079238",
    "website_url": null,
    "state": "California",
    "street": null
  },
  {
    "id": "2b08803c-7d1c-4eb9-bb76-6c8b744482f3",
    "name": "Feckin Brewery",
    "brewery_type": "micro",
    "address_1": "415 S McLoughlin Blvd",
    "address_2": null,
    "address_3": null,
    "city": "Oregon City",
    "state_province": "Oregon",
    "postal_code": "97045-3101",
    "country": "United States",
    "longitude": -122.6217909,
    "latitude": 45.3474038,
    "phone": "5038805608",
    "website_url": "http://www.fecknbrew.com",
    "state": "Oregon",
    "street": "415 S McLoughlin Blvd"
  },
  {
    "id": "fedb74bd-dba3-42c7-8214-dc462f596369",
    "name": "Federation Brewing",
    "brewery_type": "micro",
    "address_1": "420 3rd St Unit A",
    "address_2": null,
    "address_3": null,
    "city": "Oakland",
    "state_province": "California",
    "postal_code": "94607-3809",
    "country": "United States",
    "longitude": -122.2752148,
    "latitude": 37.79677436,
    "phone": null,
    "website_url": "http://www.federationbrewing.com",
    "state": "California",
    "street": "420 3rd St Unit A"
  },
  {
    "id": "18fa7337-3df9-4a49-902d-3983251d6058",
    "name": "Feed Store Beer Co",
    "brewery_type": "planning",
    "address_1": null,
    "address_2": null,
    "address_3": null,
    "city": "Bloomfield",
    "state_province": "Indiana",
    "postal_code": "47424-1137",
    "country": "United States",
    "longitude": null,
    "latitude": null,
    "phone": "8123814343",
    "website_url": "http://www.feedstorebeer.com",
    "state": "Indiana",
    "street": null
  },
  {
    "id": "c2edeb1a-5721-4b01-afe1-82af71c79821",
    "name": "Fegley's Brew Works",
    "brewery_type": "brewpub",
    "address_1": "812 Hamilton St",
    "address_2": null,
    "address_3": null,
    "city": "Allentown",
    "state_province": "Pennsylvania",
    "postal_code": "18101-2437",
    "country": "United States",
    "longitude": -75.4575021,
    "latitude": 40.6060468,
    "phone": null,
    "website_url": null,
    "state": "Pennsylvania",
    "street": "812 Hamilton St"
  },
  {
    "id": "9266dfe0-081f-43f5-ba21-0c838257fdd6",
    "name": "Felicia's Atomic Brewhouse and Bakery",
    "brewery_type": "brewpub",
    "address_1": "45 E Main St",
    "address_2": null,
    "address_3": null,
    "city": "Trumansburg",
    "state_province": "New York",
    "postal_code": "14886",
    "country": "United States",
    "longitude": -76.65512,
    "latitude": 42.539886,
    "phone": "6072094229",
    "website_url": "http://www.atomicbrewhouse.com",
    "state": "New York",
    "street": "45 E Main St"
  },
  {
    "id": "55a2e9a7-753a-4299-a65a-fbe19b76f5cd",
    "name": "Fenceline Beer Lab",
    "brewery_type": "brewpub",
    "address_1": "107 S Main Ave",
    "address_2": null,
    "address_3": null,
    "city": "Huxley",
    "state_province": "Iowa",
    "postal_code": "50124-9311",
    "country": "United States",
    "longitude": -93.606476,
    "latitude": 41.892071,
    "phone": "5154106814",
    "website_url": "https://www.fencelinebeerlab.com",
    "state": "Iowa",
    "street": "107 S Main Ave"
  },
  {
    "id": "187aa8b1-c795-42b5-aedb-c8947f5a7442",
    "name": "Fenders Brewing Company",
    "brewery_type": "micro",
    "address_1": "212 W Van Dorn St",
    "address_2": null,
    "address_3": null,
    "city": "Polk City",
    "state_province": "Iowa",
    "postal_code": "50226-2297",
    "country": "United States",
    "longitude": -93.71392,
    "latitude": 41.77079882,
    "phone": null,
    "website_url": "http://fendersbrewing.com",
    "state": "Iowa",
    "street": "212 W Van Dorn St"
  },
  {
    "id": "2a824990-9f77-4b8a-ae7b-76aba05c5504",
    "name": "Fenton Winery & Brewery",
    "brewery_type": "brewpub",
    "address_1": "1370 N Long Lake Rd",
    "address_2": null,
    "address_3": null,
    "city": "Fenton",
    "state_province": "Michigan",
    "postal_code": "48430-8867",
    "country": "United States",
    "longitude": -83.70470876,
    "latitude": 42.85155557,
    "phone": "8103734194",
    "website_url": "http://www.fentonwinery.com",
    "state": "Michigan",
    "street": "1370 N Long Lake Rd"
  },
  {
    "id": "8c2b58e7-e1fc-495d-adda-5be4c18fb4e1",
    "name": "Feral Public House",
    "brewery_type": "brewpub",
    "address_1": "1109 Washington St",
    "address_2": null,
    "address_3": null,
    "city": "Vancouver",
    "state_province": "Washington",
    "postal_code": "98660",
    "country": "United States",
    "longitude": -122.6723137,
    "latitude": 45.63010593,
    "phone": "3608365255",
    "website_url": "http://www.heathenbrewing.com",
    "state": "Washington",
    "street": "1109 Washington St"
  },
  {
    "id": "7cb31a73-07b5-42ea-949e-18d43b99c153",
    "name": "Ferguson Brewing Co",
    "brewery_type": "brewpub",
    "address_1": "418 S Florissant Rd",
    "address_2": null,
    "address_3": null,
    "city": "Saint Louis",
    "state_province": "Missouri",
    "postal_code": "63135-2716",
    "country": "United States",
    "longitude": -90.3023163,
    "latitude": 38.7383895,
    "phone": "3142547359",
    "website_url": "http://www.fergusonbrewing.com",
    "state": "Missouri",
    "street": "418 S Florissant Rd"
  },
  {
    "id": "5d495cd7-11f9-4a81-95de-71b96deca5dd",
    "name": "Fermaentra",
    "brewery_type": "micro",
    "address_1": "1715 E Evans Ave",
    "address_2": null,
    "address_3": null,
    "city": "Denver",
    "state_province": "Colorado",
    "postal_code": "80210-4601",
    "country": "United States",
    "longitude": -104.9428631,
    "latitude": 39.6784277,
    "phone": "3039550736",
    "website_url": "http://www.fermaentra.com",
    "state": "Colorado",
    "street": "1715 E Evans Ave"
  },
  {
    "id": "95cc8853-1ec3-4810-8e41-8f6d4031acbd",
    "name": "Ferment.Drink.Repeat",
    "brewery_type": "micro",
    "address_1": "2636 San Bruno Ave",
    "address_2": null,
    "address_3": null,
    "city": "San Francisco",
    "state_province": "California",
    "postal_code": "94134-1507",
    "country": "United States",
    "longitude": -122.4039991,
    "latitude": 37.72833678,
    "phone": null,
    "website_url": null,
    "state": "California",
    "street": "2636 San Bruno Ave"
  },
  {
    "id": "e8f67941-37fa-41bd-8c4b-ca598a144217",
    "name": "Fermentery Form",
    "brewery_type": "micro",
    "address_1": "161 Cecil B Moore Ave",
    "address_2": null,
    "address_3": null,
    "city": "Philadelphia",
    "state_province": "Pennsylvania",
    "postal_code": "19122-3234",
    "country": "United States",
    "longitude": -75.136886,
    "latitude": 39.976092,
    "phone": "2675183676",
    "website_url": "http://www.fermenteryform.com",
    "state": "Pennsylvania",
    "street": "161 Cecil B Moore Ave"
  },
  {
    "id": "c049573d-94ac-4d4a-b092-099b4f464a18",
    "name": "Fernson Brewing Company",
    "brewery_type": "micro",
    "address_1": "1400 E Robur Dr",
    "address_2": null,
    "address_3": null,
    "city": "Sioux Falls",
    "state_province": "South Dakota",
    "postal_code": "57104-0582",
    "country": "United States",
    "longitude": -96.70852613,
    "latitude": 43.60785297,
    "phone": "6057893822",
    "website_url": "http://fernson.com",
    "state": "South Dakota",
    "street": "1400 E Robur Dr"
  },
  {
    "id": "5d9015c7-f11d-4741-a3d4-edfe5ad625d1",
    "name": "Fernson Downtown",
    "brewery_type": "brewpub",
    "address_1": "332 S Phillips Ave",
    "address_2": null,
    "address_3": null,
    "city": "Sioux Falls",
    "state_province": "South Dakota",
    "postal_code": "57104-6319",
    "country": "United States",
    "longitude": -96.72658415,
    "latitude": 43.54377963,
    "phone": "6057892012",
    "website_url": "http://fernson.com",
    "state": "South Dakota",
    "street": "332 S Phillips Ave"
  },
  {
    "id": "d143a579-cd07-4eb2-a825-f64b5957ac81",
    "name": "Ferrari Beer Company",
    "brewery_type": "micro",
    "address_1": "160 Ashford Ave",
    "address_2": null,
    "address_3": null,
    "city": "Dobbs Ferry",
    "state_province": "New York",
    "postal_code": "10522-1906",
    "country": "United States",
    "longitude": -73.86161615,
    "latitude": 41.01452326,
    "phone": "9146937340",
    "website_url": "http://www.ferraribeer.com",
    "state": "New York",
    "street": "160 Ashford Ave"
  },
  {
    "id": "f3f48ba8-b407-4b1e-bc0d-369c97f3263b",
    "name": "Ferus Artisan Ales",
    "brewery_type": "planning",
    "address_1": null,
    "address_2": null,
    "address_3": null,
    "city": "Trussville",
    "state_province": "Alabama",
    "postal_code": "35173-1480",
    "country": "United States",
    "longitude": -86.6084342,
    "latitude": 33.6196266,
    "phone": "2053680240",
    "website_url": null,
    "state": "Alabama",
    "street": null
  },
  {
    "id": "d57db05d-f227-458d-b3cd-10fc76c182f1",
    "name": "Fetch Brewing Co",
    "brewery_type": "micro",
    "address_1": "100 W Colby St",
    "address_2": null,
    "address_3": null,
    "city": "Whitehall",
    "state_province": "Michigan",
    "postal_code": "49461-1015",
    "country": "United States",
    "longitude": -86.3494848,
    "latitude": 43.4097727,
    "phone": "2312157168",
    "website_url": "http://www.fetchbrewing.com",
    "state": "Michigan",
    "street": "100 W Colby St"
  },
  {
    "id": "e31797d6-3cb0-41e8-b0b8-1c00ac264fc7",
    "name": "Fetching Lab Brewing Co.",
    "brewery_type": "micro",
    "address_1": "1578 County Road 423 Suite B",
    "address_2": null,
    "address_3": null,
    "city": "Alvin",
    "state_province": "Texas",
    "postal_code": "77511",
    "country": "United States",
    "longitude": null,
    "latitude": null,
    "phone": "2814147355",
    "website_url": "http://www.fetchinglabbrewery@gmail.com",
    "state": "Texas",
    "street": "1578 County Road 423 Suite B"
  },
  {
    "id": "fe7b7c55-5132-4a41-bb73-47d930337b1b",
    "name": "Fetish Brewing Co",
    "brewery_type": "micro",
    "address_1": "325 Ice Ave",
    "address_2": null,
    "address_3": null,
    "city": "Lancaster",
    "state_province": "Pennsylvania",
    "postal_code": "17602-1930",
    "country": "United States",
    "longitude": -76.30114271,
    "latitude": 40.052413,
    "phone": null,
    "website_url": "http://fetishbrewing.tumblr.com",
    "state": "Pennsylvania",
    "street": "325 Ice Ave"
  },
  {
    "id": "4ecfebcb-93eb-4bb3-a794-6e1e57ca3842",
    "name": "Ffats Brewing Co",
    "brewery_type": "closed",
    "address_1": "36447 Main St",
    "address_2": null,
    "address_3": null,
    "city": "Whitehall",
    "state_province": "Wisconsin",
    "postal_code": "54773-9108",
    "country": "United States",
    "longitude": -91.3167513,
    "latitude": 44.3712155,
    "phone": "7155383162",
    "website_url": "http://www.ffatsbrewing.com",
    "state": "Wisconsin",
    "street": "36447 Main St"
  },
  {
    "id": "c9b5c1c8-4248-4e77-bc0a-b83eaca79d6d",
    "name": "FH Beerworks",
    "brewery_type": "micro",
    "address_1": "521 S Tejon St",
    "address_2": null,
    "address_3": null,
    "city": "Colorado Springs",
    "state_province": "Colorado",
    "postal_code": "80903-3928",
    "country": "United States",
    "longitude": -104.8237318,
    "latitude": 38.8260086,
    "phone": "7196406814",
    "website_url": null,
    "state": "Colorado",
    "street": "521 S Tejon St"
  },
  {
    "id": "d919af32-ba3f-4594-844a-dadcdd0a1cf5",
    "name": "FH Beerworks East",
    "brewery_type": "planning",
    "address_1": null,
    "address_2": null,
    "address_3": null,
    "city": "Colorado Springs",
    "state_province": "Colorado",
    "postal_code": "80915",
    "country": "United States",
    "longitude": null,
    "latitude": null,
    "phone": "7196406814",
    "website_url": null,
    "state": "Colorado",
    "street": null
  },
  {
    "id": "9c92b8c8-750c-4ac9-b9fd-e5b708bb249d",
    "name": "Fibonacci Brewing Company",
    "brewery_type": "micro",
    "address_1": "1445 Compton Rd",
    "address_2": null,
    "address_3": null,
    "city": "Cincinnati",
    "state_province": "Ohio",
    "postal_code": "45231-3559",
    "country": "United States",
    "longitude": -84.4805528,
    "latitude": 39.218908,
    "phone": "5138321422",
    "website_url": "http://fibbrew.com",
    "state": "Ohio",
    "street": "1445 Compton Rd"
  },
  {
    "id": "6eacc4a0-3173-4e08-901b-6135ccf60690",
    "name": "Fiction Beer Company",
    "brewery_type": "micro",
    "address_1": "7101 E Colfax Ave",
    "address_2": null,
    "address_3": null,
    "city": "Denver",
    "state_province": "Colorado",
    "postal_code": "80220-1805",
    "country": "United States",
    "longitude": -104.8854207,
    "latitude": 39.7402188,
    "phone": "7204567163",
    "website_url": "http://www.fictionbeer.com",
    "state": "Colorado",
    "street": "7101 E Colfax Ave"
  },
  {
    "id": "888304f6-73fc-44ee-99f4-bf7c04cd39b8",
    "name": "Fiddlehead Brewing",
    "brewery_type": "regional",
    "address_1": "6305 Shelburne Rd",
    "address_2": null,
    "address_3": null,
    "city": "Shelburne",
    "state_province": "Vermont",
    "postal_code": "05482-4437",
    "country": "United States",
    "longitude": -73.2326193,
    "latitude": 44.3660621,
    "phone": "8023992994",
    "website_url": "http://www.fiddleheadbrewing.com",
    "state": "Vermont",
    "street": "6305 Shelburne Rd"
  },
  {
    "id": "8c42eb4a-367c-4fca-bffa-5b82aaf268c5",
    "name": "Fiddlin' Fish Brewing Company",
    "brewery_type": "micro",
    "address_1": "772 N Trade St.",
    "address_2": null,
    "address_3": null,
    "city": "Winston Salem",
    "state_province": "North Carolina",
    "postal_code": "27101",
    "country": "United States",
    "longitude": null,
    "latitude": null,
    "phone": "3364079671",
    "website_url": "http://www.fiddlinfish.com",
    "state": "North Carolina",
    "street": "772 N Trade St."
  },
  {
    "id": "1c37475d-7010-4392-9edf-c566bc7fc5c1",
    "name": "Field Brewing",
    "brewery_type": "planning",
    "address_1": null,
    "address_2": null,
    "address_3": null,
    "city": "Westfield",
    "state_province": "Indiana",
    "postal_code": "46074-9494",
    "country": "United States",
    "longitude": null,
    "latitude": null,
    "phone": "3174300253",
    "website_url": "http://www.fieldbrewing.com",
    "state": "Indiana",
    "street": null
  },
  {
    "id": "5871b814-9d72-47ba-9733-82f43d0b79d9",
    "name": "Fields & Ivy Brewery",
    "brewery_type": "planning",
    "address_1": null,
    "address_2": null,
    "address_3": null,
    "city": "Olathe",
    "state_province": "Kansas",
    "postal_code": "66061-7464",
    "country": "United States",
    "longitude": null,
    "latitude": null,
    "phone": "9136710349",
    "website_url": null,
    "state": "Kansas",
    "street": null
  },
  {
    "id": "c40afcb2-b873-44c5-93e8-5d718be8830c",
    "name": "Fieldwork Brewing Co",
    "brewery_type": "regional",
    "address_1": "1160 6th St",
    "address_2": null,
    "address_3": null,
    "city": "Berkeley",
    "state_province": "California",
    "postal_code": "94710-1247",
    "country": "United States",
    "longitude": -122.3022147,
    "latitude": 37.88157297,
    "phone": "5108981203",
    "website_url": "http://www.fieldworkbrewing.com",
    "state": "California",
    "street": "1160 6th St"
  },
  {
    "id": "c3a96041-0f74-4538-9daf-a8eb7594fd5f",
    "name": "Fife Lake Brewery",
    "brewery_type": "planning",
    "address_1": null,
    "address_2": null,
    "address_3": null,
    "city": "Fife Lake",
    "state_province": "Michigan",
    "postal_code": "49633-9319",
    "country": "United States",
    "longitude": null,
    "latitude": null,
    "phone": "2313926757",
    "website_url": null,
    "state": "Michigan",
    "street": null
  },
  {
    "id": "1c918f90-f603-4fc1-bca8-4029b1acd90d",
    "name": "Fife Street Brewing",
    "brewery_type": "micro",
    "address_1": "180 Summers St",
    "address_2": null,
    "address_3": null,
    "city": "Charleston",
    "state_province": "West Virginia",
    "postal_code": "25301-2132",
    "country": "United States",
    "longitude": -81.640094653733,
    "latitude": 38.394956975814,
    "phone": "3043463433",
    "website_url": "http://www.fifestreetbrewing.com",
    "state": "West Virginia",
    "street": "180 Summers St"
  }
]