[
  {
    "id": "8c42a9fc-a6c9-4c26-a0d3-0bf8c94be918",
    "name": "Big Data Brewing Company LLC",
    "brewery_type": "planning",
    "address_1": null,
    "address_2": null,
    "address_3": null,
    "city": "Sterling",
    "state_province": "Virginia",
    "postal_code": "20165-7227",
    "country": "United States",
    "longitude": null,
    "latitude": null,
    "phone": "5713088293",
    "website_url": "http://www.bigdatabrewco.com/",
    "state": "Virginia",
    "street": null
  },
  {
    "id": "5db014b6-be92-4c4d-b95e-f5156550ad05",
    "name": "Big Ditch Brewing Company",
    "brewery_type": "micro",
    "address_1": "55 E Huron St",
    "address_2": null,
    "address_3": null,
    "city": "Buffalo",
    "state_province": "New York",
    "postal_code": "14203-1632",
    "country": "United States",
    "longitude": -78.8709352,
    "latitude": 42.888031,
    "phone": "7168545050",
    "website_url": "http://www.bigditchbrewing.com",
    "state": "New York",
    "street": "55 E Huron St"
  },
  {
    "id": "2c048f27-d9fc-4117-ae9a-c3c79ea2470e",
    "name": "Big Dog's Brewing Co",
    "brewery_type": "brewpub",
    "address_1": "4547 N Rancho Dr Ste A",
    "address_2": null,
    "address_3": null,
    "city": "Las Vegas",
    "state_province": "Nevada",
    "postal_code": "89130-3432",
    "country": "United States",
    "longitude": null,
    "latitude": null,
    "phone": "7023683715",
    "website_url": "http://www.bigdogsbrews.com",
    "state": "Nevada",
    "street": "4547 N Rancho Dr Ste A"
  },
  {
    "id": "36840152-444d-4615-b422-752e0e0bf044",
    "name": "Big Draft Brewing",
    "brewery_type": "micro",
    "address_1": "697 Main St E",
    "address_2": null,
    "address_3": null,
    "city": "White Sulphur Springs",
    "state_province": "West Virginia",
    "postal_code": "24986-3003",
    "country": "United States",
    "longitude": -80.3001175,
    "latitude": 37.7945598,
    "phone": "3049152442",
    "website_url": "https://bigdraftbrewing.com/",
    "state": "West Virginia",
    "street": "697 Main St E"
  },
  {
    "id": "0aff7bc2-29eb-4127-b80c-d5fc3e05274a",
    "name": "Big Elm Brewing",
    "brewery_type": "micro",
    "address_1": "65 Silver St",
    "address_2": null,
    "address_3": null,
    "city": "Sheffield",
    "state_province": "Massachusetts",
    "postal_code": "01257",
    "country": "United States",
    "longitude": -73.351236,
    "latitude": 42.093595,
    "phone": "4132292348",
    "website_url": "http://www.bigelmbrewery.com",
    "state": "Massachusetts",
    "street": "65 Silver St"
  },
  {
    "id": "4e558cde-490f-4c49-b0c0-28d3abb9458b",
    "name": "Big Frog Brewing Company",
    "brewery_type": "micro",
    "address_1": "2122 Dayton Blvd",
    "address_2": null,
    "address_3": null,
    "city": "Red Bank",
    "state_province": "Tennessee",
    "postal_code": "37415-6414",
    "country": "United States",
    "longitude": -85.31017603,
    "latitude": 35.0916037,
    "phone": "4238039046",
    "website_url": "http://www.bigfrogbrewery.com",
    "state": "Tennessee",
    "street": "2122 Dayton Blvd"
  },
  {
    "id": "b1040378-9992-4329-90d8-989fabdf5097",
    "name": "Big Grove Brewery",
    "brewery_type": "micro",
    "address_1": "1225 S Gilbert St",
    "address_2": null,
    "address_3": null,
    "city": "Iowa City",
    "state_province": "Iowa",
    "postal_code": "52240-4507",
    "country": "United States",
    "longitude": -91.53189828,
    "latitude": 41.64713299,
    "phone": "3195941891",
    "website_url": "http://www.biggrovebrewery.com",
    "state": "Iowa",
    "street": "1225 S Gilbert St"
  },
  {
    "id": "7541c361-f556-481e-905f-172dab289cce",
    "name": "Big Grove Brewery & Tap Room",
    "brewery_type": "brewpub",
    "address_1": "1225 S Gilbert St",
    "address_2": null,
    "address_3": null,
    "city": "Iowa City",
    "state_province": "Iowa",
    "postal_code": "52240-4507",
    "country": "United States",
    "longitude": -91.53189828,
    "latitude": 41.64713299,
    "phone": "3196242337",
    "website_url": null,
    "state": "Iowa",
    "street": "1225 S Gilbert St"
  },
  {
    "id": "f59742d0-8848-414d-a1e1-59b428315374",
    "name": "Big Hart Brewing Company",
    "brewery_type": "brewpub",
    "address_1": "4086 W Polk Rd",
    "address_2": null,
    "address_3": null,
    "city": "Hart",
    "state_province": "Michigan",
    "postal_code": "49420-8172",
    "country": "United States",
    "longitude": null,
    "latitude": null,
    "phone": "2313018226",
    "website_url": "http://www.bighartbrewing.com",
    "state": "Michigan",
    "street": "4086 W Polk Rd"
  },
  {
    "id": "eefcf946-59e2-4ad0-ac41-955cffa9f701",
    "name": "Big Head Brewing Co.",
    "brewery_type": "micro",
    "address_1": "6204 W State St",
    "address_2": null,
    "address_3": null,
    "city": "Milwaukee",
    "state_province": "Wisconsin",
    "postal_code": "53213-2906",
    "country": "United States",
    "longitude": -87.9201437,
    "latitude": 43.0429687,
    "phone": "6082359636",
    "website_url": "http://www.bigheadbrewingco.com",
    "state": "Wisconsin",
    "street": "6204 W State St"
  },
  {
    "id": "f5a551d7-6af0-418e-bec2-0f16044bb3f2",
    "name": "Big Horse Brewpub",
    "brewery_type": "brewpub",
    "address_1": "115 State St",
    "address_2": null,
    "address_3": null,
    "city": "Hood River",
    "state_province": "Oregon",
    "postal_code": "97031-2315",
    "country": "United States",
    "longitude": -121.5120956,
    "latitude": 45.7079528,
    "phone": "5413864411",
    "website_url": "http://www.bighorsebrewpub.com",
    "state": "Oregon",
    "street": "115 State St"
  },
  {
    "id": "f8f6a528-f887-48dd-a161-1ad325233a3e",
    "name": "Big House Brew Pub",
    "brewery_type": "brewpub",
    "address_1": "11 S Palouse St",
    "address_2": null,
    "address_3": null,
    "city": "Walla Walla",
    "state_province": "Washington",
    "postal_code": "99362-1925",
    "country": "United States",
    "longitude": -118.334839,
    "latitude": 46.06937,
    "phone": "5095222440",
    "website_url": "https://www.bighousebrewpub.com",
    "state": "Washington",
    "street": "11 S Palouse St"
  },
  {
    "id": "dcc9cdb6-415f-4783-aa42-c5cfb7664dc6",
    "name": "Big Inlet Brewing",
    "brewery_type": "planning",
    "address_1": null,
    "address_2": null,
    "address_3": null,
    "city": "Mayville",
    "state_province": "New York",
    "postal_code": "14757-9730",
    "country": "United States",
    "longitude": null,
    "latitude": null,
    "phone": "7165737564",
    "website_url": "http://www.biginletbrewing.com",
    "state": "New York",
    "street": null
  },
  {
    "id": "d2699492-6d8c-492d-a52d-e71342e717ca",
    "name": "Big Island Brewhaus",
    "brewery_type": "brewpub",
    "address_1": "64-1066 Mamalahoa Hwy Unit 5",
    "address_2": null,
    "address_3": null,
    "city": "Kamuela",
    "state_province": "Hawaii",
    "postal_code": "96743-7309",
    "country": "United States",
    "longitude": -155.661471,
    "latitude": 20.025552,
    "phone": "8088871717",
    "website_url": "http://www.bigislandbrewhaus.com",
    "state": "Hawaii",
    "street": "64-1066 Mamalahoa Hwy Unit 5"
  },
  {
    "id": "4383b079-c8fe-49c0-9999-9ff23a8f4f8e",
    "name": "Big Lake Brewing",
    "brewery_type": "micro",
    "address_1": "13 W 7th St",
    "address_2": null,
    "address_3": null,
    "city": "Holland",
    "state_province": "Michigan",
    "postal_code": "49423-2821",
    "country": "United States",
    "longitude": -86.10791587,
    "latitude": 42.79149405,
    "phone": "6167968888",
    "website_url": "http://www.biglakebrewing.com",
    "state": "Michigan",
    "street": "13 W 7th St"
  },
  {
    "id": "0a229c47-5c8f-46e8-bf5c-e9866e006341",
    "name": "Big Lake Brewing Production Facility",
    "brewery_type": "micro",
    "address_1": "166 E 19th St",
    "address_2": null,
    "address_3": null,
    "city": "Holland",
    "state_province": "Michigan",
    "postal_code": "49423-4230",
    "country": "United States",
    "longitude": -86.09988824,
    "latitude": 42.78029471,
    "phone": null,
    "website_url": null,
    "state": "Michigan",
    "street": "166 E 19th St"
  },
  {
    "id": "4445772e-e9d6-41c3-80cd-d5f4b70e7825",
    "name": "Big Leaf Brewing",
    "brewery_type": "micro",
    "address_1": "1320 Durkees Ferry Rd",
    "address_2": null,
    "address_3": null,
    "city": "West Terre Haute",
    "state_province": "Indiana",
    "postal_code": "47885-9626",
    "country": "United States",
    "longitude": null,
    "latitude": null,
    "phone": "8122812187",
    "website_url": null,
    "state": "Indiana",
    "street": "1320 Durkees Ferry Rd"
  },
  {
    "id": "eccf5719-1dea-4661-b675-e862c8f3d475",
    "name": "Big Lick Brewing Company",
    "brewery_type": "micro",
    "address_1": "409 Salem Ave SW",
    "address_2": null,
    "address_3": null,
    "city": "Roanoke",
    "state_province": "Virginia",
    "postal_code": "24016",
    "country": "United States",
    "longitude": -79.94873144,
    "latitude": 37.2724144,
    "phone": "5405628383",
    "website_url": "http://www.biglickbrewingco.com",
    "state": "Virginia",
    "street": "409 Salem Ave SW"
  },
  {
    "id": "36215801-9e64-49fa-9ad8-b80649d7de07",
    "name": "Big Lost Meadery and Brewery",
    "brewery_type": "micro",
    "address_1": "105 Warren Ave",
    "address_2": null,
    "address_3": null,
    "city": "Gillette",
    "state_province": "Wyoming",
    "postal_code": "82716-3727",
    "country": "United States",
    "longitude": -105.5046114,
    "latitude": 44.2866583,
    "phone": "3076708100",
    "website_url": "http://www.biglostmeadery.com",
    "state": "Wyoming",
    "street": "105 Warren Ave"
  },
  {
    "id": "f00adb8d-12dc-45ef-852e-57d10d79f7ff",
    "name": "Big Lug Canteen",
    "brewery_type": "brewpub",
    "address_1": "1435 E 86th St",
    "address_2": null,
    "address_3": null,
    "city": "Indianapolis",
    "state_province": "Indiana",
    "postal_code": "46240-1911",
    "country": "United States",
    "longitude": -86.079957,
    "latitude": 39.912628,
    "phone": null,
    "website_url": null,
    "state": "Indiana",
    "street": "1435 E 86th St"
  },
  {
    "id": "13508268-325c-40ae-b1da-c7a4a295c6cb",
    "name": "Big Muddy Brewing Co",
    "brewery_type": "micro",
    "address_1": "1430 N 7th St",
    "address_2": null,
    "address_3": null,
    "city": "Murphysboro",
    "state_province": "Illinois",
    "postal_code": "62966-3938",
    "country": "United States",
    "longitude": -89.33204055,
    "latitude": 37.78182292,
    "phone": "6186848833",
    "website_url": "http://www.bigmuddybrewing.com",
    "state": "Illinois",
    "street": "1430 N 7th St"
  },
  {
    "id": "62b7e476-a41e-4d17-a57a-e3658fc9224c",
    "name": "Big Rack Brew Haus",
    "brewery_type": "micro",
    "address_1": "2475 Hiatt Apple Trl",
    "address_2": null,
    "address_3": null,
    "city": "Winterset",
    "state_province": "Iowa",
    "postal_code": "50273-8113",
    "country": "United States",
    "longitude": -93.923386,
    "latitude": 41.286503,
    "phone": null,
    "website_url": "http://www.bigrackbrewhaus.com",
    "state": "Iowa",
    "street": "2475 Hiatt Apple Trl"
  },
  {
    "id": "068bdaad-c6e9-47b2-a3f8-fbdf24c059b6",
    "name": "Big Rip Brewing Company",
    "brewery_type": "micro",
    "address_1": "216 E 9th Ave",
    "address_2": null,
    "address_3": null,
    "city": "North Kansas City",
    "state_province": "Missouri",
    "postal_code": "64116-4315",
    "country": "United States",
    "longitude": -94.57786,
    "latitude": 39.1261133,
    "phone": "8168660747",
    "website_url": "http://www.bigripbrewing.com",
    "state": "Missouri",
    "street": "216 E 9th Ave"
  },
  {
    "id": "8db35211-a4ca-44d7-a6dd-a31c3e2ead66",
    "name": "Big River Brewery, LLC",
    "brewery_type": "micro",
    "address_1": "505 W Nolana Loop",
    "address_2": null,
    "address_3": null,
    "city": "Pharr",
    "state_province": "Texas",
    "postal_code": "78577-8345",
    "country": "United States",
    "longitude": null,
    "latitude": null,
    "phone": "9565661455",
    "website_url": null,
    "state": "Texas",
    "street": "505 W Nolana Loop"
  },
  {
    "id": "002012b4-afef-4e35-95bf-56930dbc599e",
    "name": "Big River Grille & Brewing Works - Chattanooga",
    "brewery_type": "brewpub",
    "address_1": "222 Broad St",
    "address_2": null,
    "address_3": null,
    "city": "Chattanooga",
    "state_province": "Tennessee",
    "postal_code": "37402-1009",
    "country": "United States",
    "longitude": -85.31070875,
    "latitude": 35.05387554,
    "phone": "4232672739",
    "website_url": "http://www.craftworksrestaurants.com",
    "state": "Tennessee",
    "street": "222 Broad St"
  },
  {
    "id": "077585a3-1bbb-46fa-90ac-6494765afc75",
    "name": "Big River Grille & Brewing Works - Disney",
    "brewery_type": "brewpub",
    "address_1": "2101 Epcot Resorts Blvd",
    "address_2": null,
    "address_3": null,
    "city": "Lake Buena Vista",
    "state_province": "Florida",
    "postal_code": "32830-8442",
    "country": "United States",
    "longitude": null,
    "latitude": null,
    "phone": "4075600253",
    "website_url": "http://www.craftworksrestaurants.com",
    "state": "Florida",
    "street": "2101 Epcot Resorts Blvd"
  },
  {
    "id": "f0570db4-92b3-4b86-8b98-9628d917ffcc",
    "name": "Big Rock Chop House & Brewery",
    "brewery_type": "contract",
    "address_1": "245 S Eton St",
    "address_2": null,
    "address_3": null,
    "city": "Birmingham",
    "state_province": "Michigan",
    "postal_code": "48009-6577",
    "country": "United States",
    "longitude": -83.19603911,
    "latitude": 42.54693868,
    "phone": "2486477774",
    "website_url": "http://www.bigrockchophouse.com",
    "state": "Michigan",
    "street": "245 S Eton St"
  },
  {
    "id": "6f458334-b27f-4637-bbef-08902a118637",
    "name": "Big Sexy Brewing Company",
    "brewery_type": "micro",
    "address_1": "5861 88th St Ste 800",
    "address_2": null,
    "address_3": null,
    "city": "Sacramento",
    "state_province": "California",
    "postal_code": "95828-1131",
    "country": "United States",
    "longitude": -121.3757237,
    "latitude": 38.52149864,
    "phone": "9163747332",
    "website_url": "http://www.bigsexybrewing.com",
    "state": "California",
    "street": "5861 88th St Ste 800"
  },
  {
    "id": "96e9ab03-28cd-4240-9ad6-5e49f716d1a0",
    "name": "Big Sioux Brewing Company",
    "brewery_type": "planning",
    "address_1": null,
    "address_2": null,
    "address_3": null,
    "city": "Humboldt",
    "state_province": "South Dakota",
    "postal_code": "57035-6106",
    "country": "United States",
    "longitude": null,
    "latitude": null,
    "phone": null,
    "website_url": null,
    "state": "South Dakota",
    "street": null
  },
  {
    "id": "9f87a804-b9ce-4264-9cc1-c8f6edfdb83f",
    "name": "Big Sky Brewing Co",
    "brewery_type": "regional",
    "address_1": "5417 Trumpeter Way",
    "address_2": null,
    "address_3": null,
    "city": "Missoula",
    "state_province": "Montana",
    "postal_code": "59808-8680",
    "country": "United States",
    "longitude": -114.0730248,
    "latitude": 46.9224156,
    "phone": "4065492777",
    "website_url": "http://www.bigskybrew.com",
    "state": "Montana",
    "street": "5417 Trumpeter Way"
  },
  {
    "id": "d5e9205f-ff1f-4cd2-9eec-2844197449f1",
    "name": "Big Slide Brewery",
    "brewery_type": "brewpub",
    "address_1": "5686 Cascade Road",
    "address_2": null,
    "address_3": null,
    "city": "Lake Placid",
    "state_province": "New York",
    "postal_code": "12946",
    "country": "United States",
    "longitude": -73.96977615,
    "latitude": 44.26461237,
    "phone": "5185237844",
    "website_url": "http://www.bigslidebrewery.com",
    "state": "New York",
    "street": "5686 Cascade Road"
  },
  {
    "id": "20a11408-a1f1-408c-89c0-aef4faef79c4",
    "name": "Big Storm Brewing",
    "brewery_type": "micro",
    "address_1": "839 Miramar St",
    "address_2": null,
    "address_3": null,
    "city": "Cape Coral",
    "state_province": "Florida",
    "postal_code": "33904-9046",
    "country": "United States",
    "longitude": -81.9557454,
    "latitude": 26.5609342,
    "phone": null,
    "website_url": null,
    "state": "Florida",
    "street": "839 Miramar St"
  },
  {
    "id": "881c39be-bb1c-4517-ad04-f6bd052fd74c",
    "name": "Big Storm Brewing",
    "brewery_type": "micro",
    "address_1": "2330 Success Dr",
    "address_2": null,
    "address_3": null,
    "city": "Odessa",
    "state_province": "Florida",
    "postal_code": "33556",
    "country": "United States",
    "longitude": -82.62618762,
    "latitude": 28.19192178,
    "phone": "7273762890",
    "website_url": null,
    "state": "Florida",
    "street": "2330 Success Dr"
  },
  {
    "id": "491566c3-b7e2-42f6-a400-545ef0ceffdb",
    "name": "Big Storm Brewing Co.",
    "brewery_type": "micro",
    "address_1": "12707 49th St N",
    "address_2": null,
    "address_3": null,
    "city": "Clearwater",
    "state_province": "Florida",
    "postal_code": "33762-4604",
    "country": "United States",
    "longitude": null,
    "latitude": null,
    "phone": "7274970666",
    "website_url": "http://www.bigstormbrewery.com",
    "state": "Florida",
    "street": "12707 49th St N"
  },
  {
    "id": "9002d0c7-e0c1-4db2-ba73-fb31043ea41f",
    "name": "Big Stump Brewing Company",
    "brewery_type": "micro",
    "address_1": "1716 L St",
    "address_2": null,
    "address_3": null,
    "city": "Sacramento",
    "state_province": "California",
    "postal_code": "95811-4024",
    "country": "United States",
    "longitude": -121.4263334,
    "latitude": 38.68887875,
    "phone": "9166687433",
    "website_url": "http://www.bigstumpbrewco.com/",
    "state": "California",
    "street": "1716 L St"
  },
  {
    "id": "dc1b146d-741e-426b-8216-a65911e0f76a",
    "name": "Big Texan Brewery",
    "brewery_type": "brewpub",
    "address_1": "7701 Interstate 40 Access Rd",
    "address_2": null,
    "address_3": null,
    "city": "Amarillo",
    "state_province": "Texas",
    "postal_code": "79118-6915",
    "country": "United States",
    "longitude": null,
    "latitude": null,
    "phone": "8063726000",
    "website_url": "http://www.bigtexan.com",
    "state": "Texas",
    "street": "7701 Interstate 40 Access Rd"
  },
  {
    "id": "797e1d68-c1e1-478c-bc92-9561c7d951b5",
    "name": "Big Thompson Brewery",
    "brewery_type": "micro",
    "address_1": "114 E 15th St",
    "address_2": null,
    "address_3": null,
    "city": "Loveland",
    "state_province": "Colorado",
    "postal_code": "80538-3832",
    "country": "United States",
    "longitude": -105.0746687,
    "latitude": 40.40811243,
    "phone": null,
    "website_url": null,
    "state": "Colorado",
    "street": "114 E 15th St"
  },
  {
    "id": "dc4706e6-80e6-4c6e-adc1-504f0711adbc",
    "name": "Big Thorn Farm and Brewery",
    "brewery_type": "micro",
    "address_1": "14274 E 600 North Rd",
    "address_2": null,
    "address_3": null,
    "city": "Georgetown",
    "state_province": "Illinois",
    "postal_code": "61846-7594",
    "country": "United States",
    "longitude": null,
    "latitude": null,
    "phone": "2175970156",
    "website_url": "http://www.bigthornfarm.com",
    "state": "Illinois",
    "street": "14274 E 600 North Rd"
  },
  {
    "id": "77e31ad7-17aa-4c92-9200-ab12888aaacd",
    "name": "Big Timber Brewing",
    "brewery_type": "micro",
    "address_1": "1210 S Davis Ave",
    "address_2": null,
    "address_3": null,
    "city": "Elkins",
    "state_province": "West Virginia",
    "postal_code": "26241-3437",
    "country": "United States",
    "longitude": -79.85143109,
    "latitude": 38.91765609,
    "phone": "3046375008",
    "website_url": "http://www.bigtimberbrewing.com",
    "state": "West Virginia",
    "street": "1210 S Davis Ave"
  },
  {
    "id": "a1964010-0e7c-4bd0-9da1-1aef938faf44",
    "name": "Big Time Brewery",
    "brewery_type": "brewpub",
    "address_1": "4133 University Way NE",
    "address_2": null,
    "address_3": null,
    "city": "Seattle",
    "state_province": "Washington",
    "postal_code": "98105-6213",
    "country": "United States",
    "longitude": -122.3135759,
    "latitude": 47.65785225,
    "phone": "2065454509",
    "website_url": "http://www.bigtimebrewery.com",
    "state": "Washington",
    "street": "4133 University Way NE"
  },
  {
    "id": "83b19e83-5855-4e53-88e4-987ab398d8ae",
    "name": "Big Top Brewing Company",
    "brewery_type": "micro",
    "address_1": "6111 Porter Way Unit B",
    "address_2": null,
    "address_3": null,
    "city": "Sarasota",
    "state_province": "Florida",
    "postal_code": "34232-6224",
    "country": "United States",
    "longitude": null,
    "latitude": null,
    "phone": null,
    "website_url": "http://Bigtopbrewing.com",
    "state": "Florida",
    "street": "6111 Porter Way Unit B"
  },
  {
    "id": "04fdb76b-b189-4234-a26e-caa9a43d55f0",
    "name": "Big Truck Brewery",
    "brewery_type": "planning",
    "address_1": null,
    "address_2": null,
    "address_3": null,
    "city": "Parkton",
    "state_province": "Maryland",
    "postal_code": "21120-9004",
    "country": "United States",
    "longitude": null,
    "latitude": null,
    "phone": "4436775451",
    "website_url": "http://www.bigtruckfarms.com",
    "state": "Maryland",
    "street": null
  },
  {
    "id": "00eddf9c-e274-4d9a-8957-457e3ea570ac",
    "name": "Big Tupper Brewing",
    "brewery_type": "brewpub",
    "address_1": "12 Cliff Ave",
    "address_2": null,
    "address_3": null,
    "city": "Tupper Lake",
    "state_province": "New York",
    "postal_code": "12986-1719",
    "country": "United States",
    "longitude": -74.46576367,
    "latitude": 44.223293,
    "phone": "5183596350",
    "website_url": "http://www.bigtupperbrewing.com",
    "state": "New York",
    "street": "12 Cliff Ave"
  },
  {
    "id": "76b27550-7e67-4aae-9e70-384e5c84bc79",
    "name": "Big Ugly Brewing Co",
    "brewery_type": "micro",
    "address_1": "1296 Battlefield Blvd S",
    "address_2": null,
    "address_3": null,
    "city": "Chesapeake",
    "state_province": "Virginia",
    "postal_code": "23322-4378",
    "country": "United States",
    "longitude": -76.22847989,
    "latitude": 36.67862015,
    "phone": "7576092739",
    "website_url": "http://www.biguglybrewing.com",
    "state": "Virginia",
    "street": "1296 Battlefield Blvd S"
  },
  {
    "id": "e9e4c64c-bd3f-4c43-aab3-9b685f70d9b0",
    "name": "Big Water Brewery",
    "brewery_type": "micro",
    "address_1": "24 Robie Rd",
    "address_2": null,
    "address_3": null,
    "city": "Salisbury",
    "state_province": "New Hampshire",
    "postal_code": "03268-5423",
    "country": "United States",
    "longitude": -71.717004,
    "latitude": 43.409129,
    "phone": "6036486068",
    "website_url": "http://www.bigwaterbrewery.net",
    "state": "New Hampshire",
    "street": "24 Robie Rd"
  },
  {
    "id": "fcae18a9-9809-487e-a8e8-21125010ce4a",
    "name": "Big Wood Brewery",
    "brewery_type": "micro",
    "address_1": "2222 4th St Ste REAR",
    "address_2": null,
    "address_3": null,
    "city": "White Bear Lake",
    "state_province": "Minnesota",
    "postal_code": "55110-3045",
    "country": "United States",
    "longitude": null,
    "latitude": null,
    "phone": "6123602986",
    "website_url": "http://www.bigwoodbrewery.com",
    "state": "Minnesota",
    "street": "2222 4th St Ste REAR"
  },
  {
    "id": "5a56a77e-507d-4fb8-b62d-31c48240d512",
    "name": "Big Woods Brewery",
    "brewery_type": "brewpub",
    "address_1": "2222 4th Street",
    "address_2": null,
    "address_3": null,
    "city": "White Bear Lake",
    "state_province": "Minnesota",
    "postal_code": "55110",
    "country": "United States",
    "longitude": -93.007108,
    "latitude": 45.08530367,
    "phone": "8139886000",
    "website_url": "http://www.bigwoodsbeer.com",
    "state": "Minnesota",
    "street": "2222 4th Street"
  },
  {
    "id": "810dda02-89b0-44a0-a287-228109259314",
    "name": "Big's BBQ Brewpub",
    "brewery_type": "brewpub",
    "address_1": "124 2nd Ave NW",
    "address_2": null,
    "address_3": null,
    "city": "Mount Vernon",
    "state_province": "Iowa",
    "postal_code": "52314",
    "country": "United States",
    "longitude": -91.41772002,
    "latitude": 41.92299939,
    "phone": "3195351060",
    "website_url": "http://www.bigsbbqmv.com",
    "state": "Iowa",
    "street": "124 2nd Ave NW"
  },
  {
    "id": "f62eed3c-818b-49a8-9aca-20ebe1793f23",
    "name": "Bigelow Brewing Company",
    "brewery_type": "brewpub",
    "address_1": "473 Bigelow Hill Rd",
    "address_2": null,
    "address_3": null,
    "city": "Skowhegan",
    "state_province": "Maine",
    "postal_code": "04976-5126",
    "country": "United States",
    "longitude": -69.72961613,
    "latitude": 44.71991967,
    "phone": "2073996262",
    "website_url": "http://www.bigelowbrewing.com",
    "state": "Maine",
    "street": "473 Bigelow Hill Rd"
  },
  {
    "id": "2ebb8fea-f982-43a0-bc95-b0ac01ae3f99",
    "name": "Bike Dog Brewing Co",
    "brewery_type": "micro",
    "address_1": "2534 Industrial Blvd Ste 110",
    "address_2": null,
    "address_3": null,
    "city": "West Sacramento",
    "state_province": "California",
    "postal_code": "95691-3471",
    "country": "United States",
    "longitude": -121.5433734,
    "latitude": 38.5660851,
    "phone": null,
    "website_url": null,
    "state": "California",
    "street": "2534 Industrial Blvd Ste 110"
  }
]