[
  {
    "id": "42dc47f9-440c-403a-a2e3-f4ec523f72fd",
    "name": "Rocky Coulee Brewing",
    "brewery_type": "micro",
    "address_1": "205 E 1st Ave",
    "address_2": null,
    "address_3": null,
    "city": "Odessa",
    "state_province": "Washington",
    "postal_code": "99159-9865",
    "country": "United States",
    "longitude": -118.6867465,
    "latitude": 47.33319739,
    "phone": "5093452216",
    "website_url": "http://www.rockycouleebrewingco.com",
    "state": "Washington",
    "street": "205 E 1st Ave"
  },
  {
    "id": "05f75b27-914a-45e3-9e99-883ed97572bd",
    "name": "Rocky Hill Brewing",
    "brewery_type": "closed",
    "address_1": "20147 Avenue 306",
    "address_2": null,
    "address_3": null,
    "city": "Exeter",
    "state_province": "California",
    "postal_code": "93221-9763",
    "country": "United States",
    "longitude": -119.1223301,
    "latitude": 36.34389838,
    "phone": "5595924594",
    "website_url": null,
    "state": "California",
    "street": "20147 Avenue 306"
  },
  {
    "id": "f8ccbe29-ac88-4570-841f-acf582e394e6",
    "name": "Rocky Mountain Brewery",
    "brewery_type": "micro",
    "address_1": "625 Paonia St",
    "address_2": null,
    "address_3": null,
    "city": "Colorado Springs",
    "state_province": "Colorado",
    "postal_code": "80915-3727",
    "country": "United States",
    "longitude": null,
    "latitude": null,
    "phone": "7195281651",
    "website_url": "http://www.rockymountainbrews.com",
    "state": "Colorado",
    "street": "625 Paonia St"
  },
  {
    "id": "92a662f6-a983-4ca3-ac45-f81d33481378",
    "name": "Rocky Mountain Taphouse, LLC",
    "brewery_type": "micro",
    "address_1": "3050 67th Ave Ste 104",
    "address_2": null,
    "address_3": null,
    "city": "Greeley",
    "state_province": "Colorado",
    "postal_code": "80634-9604",
    "country": "United States",
    "longitude": -104.7859342,
    "latitude": 40.387892,
    "phone": "9703026551",
    "website_url": "http://www.rockymountaintaphouse.com",
    "state": "Colorado",
    "street": "3050 67th Ave Ste 104"
  },
  {
    "id": "ba7654e4-beda-472c-a033-d223edae00bc",
    "name": "Rocky Point Artisan Ales",
    "brewery_type": "micro",
    "address_1": null,
    "address_2": null,
    "address_3": null,
    "city": "Rocky Point",
    "state_province": "New York",
    "postal_code": "11778",
    "country": "United States",
    "longitude": null,
    "latitude": null,
    "phone": "6318482261",
    "website_url": "http://www.rockypointartisanbeer.com",
    "state": "New York",
    "street": null
  },
  {
    "id": "c79e3446-b800-42b8-bd42-e12eb4dbd285",
    "name": "Rocky Reef Brewing Company",
    "brewery_type": "micro",
    "address_1": "1101 1st Ave",
    "address_2": null,
    "address_3": null,
    "city": "Woodruff",
    "state_province": "Wisconsin",
    "postal_code": "54568-0615",
    "country": "United States",
    "longitude": -89.695183,
    "latitude": 45.895883,
    "phone": "2623391230",
    "website_url": "http://www.rockyreefbrewing.com",
    "state": "Wisconsin",
    "street": "1101 1st Ave"
  },
  {
    "id": "e40910db-618b-46fc-9804-6bf8a0164902",
    "name": "Rocky River Brewing Co",
    "brewery_type": "brewpub",
    "address_1": "21290 Center Ridge Rd",
    "address_2": null,
    "address_3": null,
    "city": "Rocky River",
    "state_province": "Ohio",
    "postal_code": "44116-3204",
    "country": "United States",
    "longitude": -81.8553198,
    "latitude": 41.46100065,
    "phone": "4408952739",
    "website_url": "http://www.rockyriverbrewco.com",
    "state": "Ohio",
    "street": "21290 Center Ridge Rd"
  },
  {
    "id": "32874d30-c936-40df-a94f-ac8ad84aecdc",
    "name": "Rockyard Brewing Company",
    "brewery_type": "brewpub",
    "address_1": "880 Castleton Rd",
    "address_2": null,
    "address_3": null,
    "city": "Castle Rock",
    "state_province": "Colorado",
    "postal_code": "80109-7512",
    "country": "United States",
    "longitude": -104.8723394,
    "latitude": 39.4096188,
    "phone": "3038149273",
    "website_url": "http://www.rockyard.com",
    "state": "Colorado",
    "street": "880 Castleton Rd"
  },
  {
    "id": "e7cc0814-0f87-494d-9e9f-810f23df05f6",
    "name": "Rocland Beverage Co",
    "brewery_type": "contract",
    "address_1": "1601 Airport Rd",
    "address_2": null,
    "address_3": null,
    "city": "Ukiah",
    "state_province": "California",
    "postal_code": "95482-6456",
    "country": "United States",
    "longitude": -123.199573,
    "latitude": 39.126287,
    "phone": "7076577721",
    "website_url": "http://www.asskisserales.com",
    "state": "California",
    "street": "1601 Airport Rd"
  },
  {
    "id": "330e829d-53ca-4d79-b13a-ba4f36356458",
    "name": "Roets Jordan Brewery Co.",
    "brewery_type": "brewpub",
    "address_1": "230 Broadway St S",
    "address_2": null,
    "address_3": null,
    "city": "Jordan",
    "state_province": "Minnesota",
    "postal_code": "55352-1508",
    "country": "United States",
    "longitude": -93.62618368,
    "latitude": 44.665938,
    "phone": "9524068865",
    "website_url": "http://www.roetsjordanbrewery.com",
    "state": "Minnesota",
    "street": "230 Broadway St S"
  },
  {
    "id": "7e433321-e973-4c14-bd87-62c1c92cca3c",
    "name": "Rogan Brewing Company",
    "brewery_type": "planning",
    "address_1": null,
    "address_2": null,
    "address_3": null,
    "city": "Duquesne",
    "state_province": "Pennsylvania",
    "postal_code": "15110-1525",
    "country": "United States",
    "longitude": null,
    "latitude": null,
    "phone": "4125455400",
    "website_url": "http://www.roganbrewing.com",
    "state": "Pennsylvania",
    "street": null
  },
  {
    "id": "776ca50f-749a-46e2-b914-59c709aec1a6",
    "name": "Rogers Beer",
    "brewery_type": "contract",
    "address_1": "23 Woodline Dr",
    "address_2": null,
    "address_3": null,
    "city": "Penfield",
    "state_province": "New York",
    "postal_code": "14526-2413",
    "country": "United States",
    "longitude": -77.46723818,
    "latitude": 43.12868768,
    "phone": "5852980483",
    "website_url": "http://www.rogersbeer.com",
    "state": "New York",
    "street": "23 Woodline Dr"
  },
  {
    "id": "12d83cb7-1e03-493e-805e-dad7ee012c3f",
    "name": "Rogue Ales Brewery",
    "brewery_type": "regional",
    "address_1": "2320 SE Osu Dr",
    "address_2": null,
    "address_3": null,
    "city": "Newport",
    "state_province": "Oregon",
    "postal_code": "97365-5261",
    "country": "United States",
    "longitude": -124.0564639,
    "latitude": 44.62865838,
    "phone": "5032413800",
    "website_url": "http://rogue.com",
    "state": "Oregon",
    "street": "2320 SE Osu Dr"
  },
  {
    "id": "94a076ed-9499-402b-bc89-14635349322e",
    "name": "Rogue Ales Issaquah Brewhouse",
    "brewery_type": "closed",
    "address_1": "35 W Sunset Way Ste C",
    "address_2": null,
    "address_3": null,
    "city": "Issaquah",
    "state_province": "Washington",
    "postal_code": "98027-3843",
    "country": "United States",
    "longitude": -122.03724000194,
    "latitude": 47.530207242057,
    "phone": "4255571911",
    "website_url": "http://www.rogue.com",
    "state": "Washington",
    "street": "35 W Sunset Way Ste C"
  },
  {
    "id": "37ae8b8a-e16c-44c0-a558-8178c0b61c26",
    "name": "Rogue East Side Pub & Pilot Brewery",
    "brewery_type": "micro",
    "address_1": "909 SE Yamhill St",
    "address_2": null,
    "address_3": null,
    "city": "Portland",
    "state_province": "Oregon",
    "postal_code": "97214-2533",
    "country": "United States",
    "longitude": -122.656467,
    "latitude": 45.51586884,
    "phone": "5032413800",
    "website_url": "http://www.buckmanbrewing.com",
    "state": "Oregon",
    "street": "909 SE Yamhill St"
  },
  {
    "id": "3a491d3a-269c-4b39-8bb7-0a75dc8f41b9",
    "name": "RoHa Brewing Project",
    "brewery_type": "micro",
    "address_1": "30 E Kensington Ave Ste 150",
    "address_2": null,
    "address_3": null,
    "city": "Salt Lake City",
    "state_province": "Utah",
    "postal_code": "84115-1679",
    "country": "United States",
    "longitude": -111.890097,
    "latitude": 40.736469,
    "phone": "3852278982",
    "website_url": "http://www.rohabrewing.com",
    "state": "Utah",
    "street": "30 E Kensington Ave Ste 150"
  },
  {
    "id": "6b09ca79-b303-440a-a5d6-23e51bd5ebce",
    "name": "Rohrbach Brewing Company",
    "brewery_type": "brewpub",
    "address_1": "97 Railroad St",
    "address_2": null,
    "address_3": null,
    "city": "Rochester",
    "state_province": "New York",
    "postal_code": "14609-6039",
    "country": "United States",
    "longitude": -77.586694,
    "latitude": 43.163275,
    "phone": "5855468020",
    "website_url": "http://www.rohrbachs.com",
    "state": "New York",
    "street": "97 Railroad St"
  },
  {
    "id": "4c259862-b595-4d64-8d95-aa54eb3a7387",
    "name": "Rohrbach's Railroad St Brewery",
    "brewery_type": "micro",
    "address_1": "97 Railroad St",
    "address_2": null,
    "address_3": null,
    "city": "Rochester",
    "state_province": "New York",
    "postal_code": "14609-6039",
    "country": "United States",
    "longitude": -77.586694,
    "latitude": 43.163275,
    "phone": "5855468020",
    "website_url": "http://www.rohrbachs.com",
    "state": "New York",
    "street": "97 Railroad St"
  },
  {
    "id": "8257f37a-f991-4474-b93b-989af92e55d1",
    "name": "Rohrer Brewing Company, LLC",
    "brewery_type": "planning",
    "address_1": null,
    "address_2": null,
    "address_3": null,
    "city": "Cookeville",
    "state_province": "Tennessee",
    "postal_code": "38506-5601",
    "country": "United States",
    "longitude": null,
    "latitude": null,
    "phone": "6155859700",
    "website_url": "http://rohrerbrewing.com",
    "state": "Tennessee",
    "street": null
  },
  {
    "id": "d57d3036-d848-4346-9aad-acad5a5b7a10",
    "name": "Rok House Brewing Co., LLC",
    "brewery_type": "micro",
    "address_1": "1939 W 11th St Ste A",
    "address_2": null,
    "address_3": null,
    "city": "Upland",
    "state_province": "California",
    "postal_code": "91786-3559",
    "country": "United States",
    "longitude": -117.6883192,
    "latitude": 34.10445102,
    "phone": "9099810020",
    "website_url": "http://www.rokhousebrewing.com",
    "state": "California",
    "street": "1939 W 11th St Ste A"
  },
  {
    "id": "478a266e-5d00-486e-90ca-7ded72d202b6",
    "name": "Rolling Meadows Farm Brewery",
    "brewery_type": "micro",
    "address_1": "3954 Central Point Rd",
    "address_2": null,
    "address_3": null,
    "city": "Cantrall",
    "state_province": "Illinois",
    "postal_code": "62625-8803",
    "country": "United States",
    "longitude": null,
    "latitude": null,
    "phone": "2177252492",
    "website_url": "http://www.rollingmeadowsbrewery.com",
    "state": "Illinois",
    "street": "3954 Central Point Rd"
  },
  {
    "id": "d27dd56e-9f41-4789-a2a0-ece0209dcac0",
    "name": "Rolling Mill Brewing Company",
    "brewery_type": "micro",
    "address_1": "916 1st Ave",
    "address_2": null,
    "address_3": null,
    "city": "Middletown",
    "state_province": "Ohio",
    "postal_code": "45044-8217",
    "country": "United States",
    "longitude": -84.40683123,
    "latitude": 39.51616686,
    "phone": "5132174444",
    "website_url": "http://www.rollingmillbc.com",
    "state": "Ohio",
    "street": "916 1st Ave"
  },
  {
    "id": "bbc83a19-c5a5-44f1-bf6f-969f209cdfc0",
    "name": "Rolling Oak Brewing Co",
    "brewery_type": "micro",
    "address_1": "509 Norway St",
    "address_2": null,
    "address_3": null,
    "city": "Grayling",
    "state_province": "Michigan",
    "postal_code": "49738-1719",
    "country": "United States",
    "longitude": -84.716671,
    "latitude": 44.661765,
    "phone": "9897456280",
    "website_url": "http://rollingoakbrewing.com",
    "state": "Michigan",
    "street": "509 Norway St"
  },
  {
    "id": "f331a8eb-748a-4a84-ac4e-bc0e0307dfa1",
    "name": "Roma Brewery",
    "brewery_type": "brewpub",
    "address_1": "310 Stillwater Rd",
    "address_2": null,
    "address_3": null,
    "city": "Willernie",
    "state_province": "Minnesota",
    "postal_code": "55090-4400",
    "country": "United States",
    "longitude": -92.957644,
    "latitude": 45.057136,
    "phone": "6516534733",
    "website_url": "http://www.roman-market.com",
    "state": "Minnesota",
    "street": "310 Stillwater Rd"
  },
  {
    "id": "3ecb3ca8-fa11-484b-8471-8aa857cb9b3d",
    "name": "Rome City Brewing Co",
    "brewery_type": "brewpub",
    "address_1": "325 Broad St",
    "address_2": null,
    "address_3": null,
    "city": "Rome",
    "state_province": "Georgia",
    "postal_code": "30161-3005",
    "country": "United States",
    "longitude": -85.17262231,
    "latitude": 34.25410398,
    "phone": "7062048474",
    "website_url": "http://www.romebrewhouse.com",
    "state": "Georgia",
    "street": "325 Broad St"
  },
  {
    "id": "cc6614a4-dcc4-4b2d-8d32-b737ba0503a3",
    "name": "Roobrew",
    "brewery_type": "contract",
    "address_1": null,
    "address_2": null,
    "address_3": null,
    "city": "Akron",
    "state_province": "Ohio",
    "postal_code": "44311-1051",
    "country": "United States",
    "longitude": null,
    "latitude": null,
    "phone": "3307033947",
    "website_url": "http://www.roobrew.com",
    "state": "Ohio",
    "street": null
  },
  {
    "id": "8f43b379-f20d-43f5-bdfa-9db963fb7bb1",
    "name": "Rooftop Brewing Co",
    "brewery_type": "micro",
    "address_1": "1220 W Nickerson St",
    "address_2": null,
    "address_3": null,
    "city": "Seattle",
    "state_province": "Washington",
    "postal_code": "98119-1325",
    "country": "United States",
    "longitude": -122.3732188,
    "latitude": 47.6557532,
    "phone": "2064578598",
    "website_url": "http://www.rooftopbrewco.com",
    "state": "Washington",
    "street": "1220 W Nickerson St"
  },
  {
    "id": "26fd9259-8023-42d7-88c8-2566791b5ae9",
    "name": "Rooney's Beer Company",
    "brewery_type": "micro",
    "address_1": "800 Vinial St Ste B204",
    "address_2": null,
    "address_3": null,
    "city": "Pittsburgh",
    "state_province": "Pennsylvania",
    "postal_code": "15212-5151",
    "country": "United States",
    "longitude": null,
    "latitude": null,
    "phone": "4122515995",
    "website_url": "http://rooneysbeer.com",
    "state": "Pennsylvania",
    "street": "800 Vinial St Ste B204"
  },
  {
    "id": "54204c13-3e22-44fe-8ac0-b0d72022b584",
    "name": "Roosevelt Brewing Company",
    "brewery_type": "brewpub",
    "address_1": "201 S Main Ave",
    "address_2": null,
    "address_3": null,
    "city": "Portales",
    "state_province": "New Mexico",
    "postal_code": "88130-6216",
    "country": "United States",
    "longitude": -103.335715,
    "latitude": 34.185293,
    "phone": "5752262739",
    "website_url": "http://www.rooseveltbrewing.com",
    "state": "New Mexico",
    "street": "201 S Main Ave"
  },
  {
    "id": "75cf13cc-96d4-4432-b86f-ceb64bd11765",
    "name": "Rooster Brewing",
    "brewery_type": "micro",
    "address_1": "609 Main St",
    "address_2": null,
    "address_3": null,
    "city": "Paris",
    "state_province": "Kentucky",
    "postal_code": "40361-1816",
    "country": "United States",
    "longitude": -84.25166366,
    "latitude": 38.21039483,
    "phone": "8597073436",
    "website_url": "http://www.roosterbrew.com",
    "state": "Kentucky",
    "street": "609 Main St"
  },
  {
    "id": "6d95be92-78fd-4ea6-9584-5ff77345f84b",
    "name": "RoosterBragh Brewing Company, LLC",
    "brewery_type": "planning",
    "address_1": null,
    "address_2": null,
    "address_3": null,
    "city": "Tallahassee",
    "state_province": "Florida",
    "postal_code": "32312-8000",
    "country": "United States",
    "longitude": null,
    "latitude": null,
    "phone": "8507924458",
    "website_url": "http://www.roosterbragh.com",
    "state": "Florida",
    "street": null
  },
  {
    "id": "c6a1d03d-59bd-4f88-be57-d2704d4de2c7",
    "name": "Roosterfish Brewing Co.",
    "brewery_type": "brewpub",
    "address_1": "301 N Franklin St",
    "address_2": null,
    "address_3": null,
    "city": "Watkins Glen",
    "state_province": "New York",
    "postal_code": "14891-1202",
    "country": "United States",
    "longitude": -76.87362,
    "latitude": 42.38063,
    "phone": "6075359797",
    "website_url": "http://www.roosterfishbrewing.com",
    "state": "New York",
    "street": "301 N Franklin St"
  },
  {
    "id": "e27d1ab2-65b8-498e-913a-5ab0dcdfaeb8",
    "name": "Roosters Brewing Co  (#1)",
    "brewery_type": "micro",
    "address_1": "253 Historic 25th St",
    "address_2": null,
    "address_3": null,
    "city": "Ogden",
    "state_province": "Utah",
    "postal_code": "84401-2301",
    "country": "United States",
    "longitude": -111.974503,
    "latitude": 41.220497,
    "phone": "8016276171",
    "website_url": "https://www.roostersbrewingco.com",
    "state": "Utah",
    "street": "253 Historic 25th St"
  },
  {
    "id": "2055cc0d-8751-4be1-ac8f-eb5965857a51",
    "name": "Roosters Brewing Co (#2)",
    "brewery_type": "micro",
    "address_1": "748 Heritage Park Blvd Ste 101",
    "address_2": null,
    "address_3": null,
    "city": "Layton",
    "state_province": "Utah",
    "postal_code": "84041-5724",
    "country": "United States",
    "longitude": -111.9793389,
    "latitude": 41.08320878,
    "phone": "8017749330",
    "website_url": "http://www.roostersbrewingco.com",
    "state": "Utah",
    "street": "748 Heritage Park Blvd Ste 101"
  },
  {
    "id": "d5aae77c-019d-41b0-ac59-5c3ca2b0ff18",
    "name": "Root Down Brewing Company",
    "brewery_type": "brewpub",
    "address_1": "1 N Main St",
    "address_2": null,
    "address_3": null,
    "city": "Phoenixville",
    "state_province": "Pennsylvania",
    "postal_code": "19460-3419",
    "country": "United States",
    "longitude": -75.515616,
    "latitude": 40.137147,
    "phone": "4843932337",
    "website_url": "http://www.rootdownbrewing.com",
    "state": "Pennsylvania",
    "street": "1 N Main St"
  },
  {
    "id": "b7989d83-fd97-425e-9191-1695321239c8",
    "name": "Roots Brewing Company",
    "brewery_type": "brewpub",
    "address_1": "175 Main St",
    "address_2": null,
    "address_3": null,
    "city": "Oneonta",
    "state_province": "New York",
    "postal_code": "13820-2501",
    "country": "United States",
    "longitude": -75.0630461,
    "latitude": 42.45318,
    "phone": "6074332925",
    "website_url": "http://www.rootsbrewingcompany.com",
    "state": "New York",
    "street": "175 Main St"
  },
  {
    "id": "1bb69d7e-fb45-44bd-8ac7-709c4117b765",
    "name": "Roscoe Brewing Company",
    "brewery_type": "micro",
    "address_1": "145 Rockland Rd",
    "address_2": null,
    "address_3": null,
    "city": "Roscoe",
    "state_province": "New York",
    "postal_code": "12776-6418",
    "country": "United States",
    "longitude": null,
    "latitude": null,
    "phone": "6072905002",
    "website_url": "http://www.roscoebeercompany.com",
    "state": "New York",
    "street": "145 Rockland Rd"
  },
  {
    "id": "8a384697-2d0f-4677-94d5-a2eea2b7a0ca",
    "name": "Rosehill Brewing Co.",
    "brewery_type": "planning",
    "address_1": null,
    "address_2": null,
    "address_3": null,
    "city": "Tomball",
    "state_province": "Texas",
    "postal_code": "77377-3534",
    "country": "United States",
    "longitude": null,
    "latitude": null,
    "phone": null,
    "website_url": null,
    "state": "Texas",
    "street": null
  },
  {
    "id": "3624a637-94b2-4d6d-95f2-b04c5f7c815a",
    "name": "Rosenstadt Brewery LLC",
    "brewery_type": "micro",
    "address_1": "4110 SE Hawthorne Blvd # 735",
    "address_2": null,
    "address_3": null,
    "city": "Portland",
    "state_province": "Oregon",
    "postal_code": "97214-5246",
    "country": "United States",
    "longitude": -122.6199321,
    "latitude": 45.5118679,
    "phone": null,
    "website_url": "http://www.rosenstadtbrewery.com",
    "state": "Oregon",
    "street": "4110 SE Hawthorne Blvd # 735"
  },
  {
    "id": "9b1a8816-da90-40c5-8203-9c23b14945ea",
    "name": "Roses' Taproom",
    "brewery_type": "micro",
    "address_1": "4930 Telegraph Ave",
    "address_2": null,
    "address_3": null,
    "city": "Oakland",
    "state_province": "California",
    "postal_code": "94609-2012",
    "country": "United States",
    "longitude": -122.2683709,
    "latitude": 37.8143551,
    "phone": "5108583969",
    "website_url": "http://www.rosestaproom.com",
    "state": "California",
    "street": "4930 Telegraph Ave"
  },
  {
    "id": "a53b6d53-11ba-4af9-bb8a-863548d73b51",
    "name": "Roslyn Brewing Co",
    "brewery_type": "micro",
    "address_1": "208 W Pennsylvania Ave",
    "address_2": null,
    "address_3": null,
    "city": "Roslyn",
    "state_province": "Washington",
    "postal_code": "98941-0024",
    "country": "United States",
    "longitude": -120.9947248,
    "latitude": 47.2222871,
    "phone": "5096492232",
    "website_url": "http://www.roslynbrewng.com",
    "state": "Washington",
    "street": "208 W Pennsylvania Ave"
  },
  {
    "id": "9050ae3d-ebea-4be6-9e0d-8c1805dff9de",
    "name": "Rother Valley Brewing Company",
    "brewery_type": "micro",
    "address_1": "Station Road",
    "address_2": null,
    "address_3": null,
    "city": "Rye",
    "state_province": "East Sussex",
    "postal_code": "TN31 6QT",
    "country": "England",
    "longitude": 0.613983,
    "latitude": 51.008565,
    "phone": "1797252922",
    "website_url": "http://www.rothervalleybrewery.co.uk",
    "state": "East Sussex",
    "street": "Station Road"
  },
  {
    "id": "9f5002ff-ed74-4f51-8336-adea12e4ce81",
    "name": "Rotunda Brewing",
    "brewery_type": "brewpub",
    "address_1": "245 W Main St",
    "address_2": null,
    "address_3": null,
    "city": "Annville",
    "state_province": "Pennsylvania",
    "postal_code": "17003-1326",
    "country": "United States",
    "longitude": -76.520098,
    "latitude": 40.32856075,
    "phone": "7178672337",
    "website_url": "http://www.batdorfrestaurant.com/rbc",
    "state": "Pennsylvania",
    "street": "245 W Main St"
  },
  {
    "id": "9c52348e-1343-4233-843f-fc29ac896ca5",
    "name": "Rough Diamond Brewery",
    "brewery_type": "micro",
    "address_1": "101 Kendalia Cir",
    "address_2": null,
    "address_3": null,
    "city": "Spring Branch",
    "state_province": "Texas",
    "postal_code": "78070-6621",
    "country": "United States",
    "longitude": null,
    "latitude": null,
    "phone": "8308856616",
    "website_url": "http://rdbrewery.com",
    "state": "Texas",
    "street": "101 Kendalia Cir"
  },
  {
    "id": "47dc6ef6-fb3a-445a-9051-36aab7679744",
    "name": "Rough Draft Brewing",
    "brewery_type": "micro",
    "address_1": "8830 Rehco Rd Ste D",
    "address_2": null,
    "address_3": null,
    "city": "San Diego",
    "state_province": "California",
    "postal_code": "92121-3263",
    "country": "United States",
    "longitude": -117.1716977,
    "latitude": 32.88370283,
    "phone": "8584537238",
    "website_url": "http://www.roughdraftbrew.com",
    "state": "California",
    "street": "8830 Rehco Rd Ste D"
  },
  {
    "id": "c2c034ea-4967-4b4c-bf1c-e3bd75cd16f0",
    "name": "Roughtail Brewing",
    "brewery_type": "micro",
    "address_1": "320 W Memorial Rd",
    "address_2": null,
    "address_3": null,
    "city": "Oklahoma City",
    "state_province": "Oklahoma",
    "postal_code": "73114",
    "country": "United States",
    "longitude": -97.5192442,
    "latitude": 35.6087575,
    "phone": "4057716517",
    "website_url": "http://www.roughtailbeer.com",
    "state": "Oklahoma",
    "street": "320 W Memorial Rd"
  },
  {
    "id": "7500e370-f58a-40a6-87b6-005b0f1469e3",
    "name": "RoughWoods Inn",
    "brewery_type": "brewpub",
    "address_1": "623 North A St",
    "address_2": null,
    "address_3": null,
    "city": "Nenana",
    "state_province": "Alaska",
    "postal_code": "99760-9999",
    "country": "United States",
    "longitude": -149.096237,
    "latitude": 64.56274,
    "phone": "9078325299",
    "website_url": "http://www.roughwoodsinn.biz",
    "state": "Alaska",
    "street": "623 North A St"
  },
  {
    "id": "d44fbd3a-f3e0-4d93-a8b6-a274d208811d",
    "name": "Rouleur Brewing Company",
    "brewery_type": "micro",
    "address_1": "5840 El Camino Real Ste 101",
    "address_2": null,
    "address_3": null,
    "city": "Carlsbad",
    "state_province": "California",
    "postal_code": "92008-8804",
    "country": "United States",
    "longitude": -117.269558,
    "latitude": 33.133904,
    "phone": "4422445111",
    "website_url": "http://www.rouleurbrewing.com",
    "state": "California",
    "street": "5840 El Camino Real Ste 101"
  },
  {
    "id": "eb65fa0c-3e45-41cb-bcc3-de1a1060b67e",
    "name": "Round Barn Brewery / Round Barn Winery",
    "brewery_type": "micro",
    "address_1": "10983 Hills Rd",
    "address_2": null,
    "address_3": null,
    "city": "Baroda",
    "state_province": "Michigan",
    "postal_code": "49101-8742",
    "country": "United States",
    "longitude": -86.479395,
    "latitude": 41.950161,
    "phone": "8007169463",
    "website_url": "http://www.roundbarnwinery.com",
    "state": "Michigan",
    "street": "10983 Hills Rd"
  },
  {
    "id": "0654ac67-ff7f-4b63-a876-bbd24a31fb57",
    "name": "Round Barn Brewery & Public House",
    "brewery_type": "micro",
    "address_1": "9151 First St",
    "address_2": null,
    "address_3": null,
    "city": "Baroda",
    "state_province": "Michigan",
    "postal_code": "49101-8927",
    "country": "United States",
    "longitude": null,
    "latitude": null,
    "phone": "2693267059",
    "website_url": "http://www.roundbarnbrewery.com",
    "state": "Michigan",
    "street": "9151 First St"
  }
]