[
  {
    "id": "3f8ad1a4-2cc8-4851-96f2-958f401ea4f0",
    "name": "Entitled Beer Company",
    "brewery_type": "proprietor",
    "address_1": "21 North St",
    "address_2": null,
    "address_3": null,
    "city": "Hingham",
    "state_province": "Massachusetts",
    "postal_code": "02043-",
    "country": "United States",
    "longitude": -70.88618473,
    "latitude": 42.24360723,
    "phone": "7817401035",
    "website_url": "http://www.entitledbrewing.com",
    "state": "Massachusetts",
    "street": "21 North St"
  },
  {
    "id": "413d419f-ee43-4e41-a70e-4e7268346f9b",
    "name": "Enumclaw Brewing Company @ Rockridge Orchards & Cidery",
    "brewery_type": "closed",
    "address_1": "40709 264th Ave SE",
    "address_2": null,
    "address_3": null,
    "city": "Enumclaw",
    "state_province": "Washington",
    "postal_code": "98022-8366",
    "country": "United States",
    "longitude": null,
    "latitude": null,
    "phone": "3608026800",
    "website_url": "http://www.rockridgeorchards.com",
    "state": "Washington",
    "street": "40709 264th Ave SE"
  },
  {
    "id": "9eae20d8-c073-4f43-b3ae-817ad1fca5ae",
    "name": "Eola School Restaurant",
    "brewery_type": "brewpub",
    "address_1": "12119 FM 381 Rd",
    "address_2": null,
    "address_3": null,
    "city": "Eola",
    "state_province": "Texas",
    "postal_code": "76937",
    "country": "United States",
    "longitude": null,
    "latitude": null,
    "phone": "3254693314",
    "website_url": "http://www.eolaschool.com",
    "state": "Texas",
    "street": "12119 FM 381 Rd"
  },
  {
    "id": "4748474e-0161-45c5-916b-0e69e5950a3f",
    "name": "Epic Brewing Co., LLC",
    "brewery_type": "micro",
    "address_1": "825 S State St",
    "address_2": null,
    "address_3": null,
    "city": "Salt Lake City",
    "state_province": "Utah",
    "postal_code": "84111-4207",
    "country": "United States",
    "longitude": -111.887825,
    "latitude": 40.7511406,
    "phone": "8019060123",
    "website_url": "http://www.epicbrewing.com",
    "state": "Utah",
    "street": "825 S State St"
  },
  {
    "id": "20c6bcdb-a3ed-474a-a759-9505c03b8d87",
    "name": "Epic Brewing Co., LLC",
    "brewery_type": "closed",
    "address_1": "1048 E 2100 S Ste 110",
    "address_2": null,
    "address_3": null,
    "city": "Salt Lake City",
    "state_province": "Utah",
    "postal_code": "84106-",
    "country": "United States",
    "longitude": null,
    "latitude": null,
    "phone": "8017425490",
    "website_url": "http://www.epicbrewing.com",
    "state": "Utah",
    "street": "1048 E 2100 S Ste 110"
  },
  {
    "id": "2295d060-841f-4b67-81c9-1ddf3f37ab11",
    "name": "Epic Brewing Co., LLC",
    "brewery_type": "micro",
    "address_1": "3001 Walnut St",
    "address_2": null,
    "address_3": null,
    "city": "Denver",
    "state_province": "Colorado",
    "postal_code": "80205-2324",
    "country": "United States",
    "longitude": -104.9813405,
    "latitude": 39.7632294,
    "phone": "7205397410",
    "website_url": "http://www.epicbrewing.com",
    "state": "Colorado",
    "street": "3001 Walnut St"
  },
  {
    "id": "016640d5-4cd0-4dd0-b25d-b18f7f04d58d",
    "name": "Epicure Brewing",
    "brewery_type": "micro",
    "address_1": "40 Franklin St",
    "address_2": null,
    "address_3": null,
    "city": "Norwich",
    "state_province": "Connecticut",
    "postal_code": "06360-",
    "country": "United States",
    "longitude": -72.07437477,
    "latitude": 41.52521341,
    "phone": "8603770789",
    "website_url": "http://www.epicurebrewing.com",
    "state": "Connecticut",
    "street": "40 Franklin St"
  },
  {
    "id": "d2d0c6ff-11ef-4c8a-b20d-ee0c6d6e6f1f",
    "name": "Epidemic Ales",
    "brewery_type": "micro",
    "address_1": "150 Mason Circle Stes I&J",
    "address_2": null,
    "address_3": null,
    "city": "Concord",
    "state_province": "California",
    "postal_code": "94520",
    "country": "United States",
    "longitude": -122.0390695,
    "latitude": 38.01022008,
    "phone": "9255668850",
    "website_url": "http://www.epidemicales.com",
    "state": "California",
    "street": "150 Mason Circle Stes I&J"
  },
  {
    "id": "13f3232c-9325-4b93-9fd9-06459cdd1734",
    "name": "Eponymous Brewing Co",
    "brewery_type": "micro",
    "address_1": "126 Main Ave S",
    "address_2": null,
    "address_3": null,
    "city": "Brookings",
    "state_province": "South Dakota",
    "postal_code": "57006-3038",
    "country": "United States",
    "longitude": -96.79881257,
    "latitude": 44.30472165,
    "phone": "6056922739",
    "website_url": "http://www.eponymousbrewing.com",
    "state": "South Dakota",
    "street": "126 Main Ave S"
  },
  {
    "id": "c4a5b92c-1d16-44f2-99ac-f7fecb759dc9",
    "name": "Eppig Brewing",
    "brewery_type": "micro",
    "address_1": "3052 El Cajon Blvd Ste 103",
    "address_2": null,
    "address_3": null,
    "city": "San Diego",
    "state_province": "California",
    "postal_code": "92104-1399",
    "country": "United States",
    "longitude": -117.128732,
    "latitude": 32.755723,
    "phone": "6195011840",
    "website_url": "http://www.eppigbrewing.com",
    "state": "California",
    "street": "3052 El Cajon Blvd Ste 103"
  },
  {
    "id": "87c781ee-9196-4e43-84ad-347f007569a2",
    "name": "Equal Parts Brewing",
    "brewery_type": "micro",
    "address_1": "3118 Harrisburg Blvd",
    "address_2": null,
    "address_3": null,
    "city": "Houston",
    "state_province": "Texas",
    "postal_code": "77003",
    "country": "United States",
    "longitude": null,
    "latitude": null,
    "phone": "3463523190",
    "website_url": "http://www.equalpartsbrewing.com/",
    "state": "Texas",
    "street": "3118 Harrisburg Blvd"
  },
  {
    "id": "5979ba35-787d-4c50-9e32-bdf544d34087",
    "name": "Equilibrium Brewery",
    "brewery_type": "micro",
    "address_1": "22 Henry Street",
    "address_2": null,
    "address_3": null,
    "city": "Middletown",
    "state_province": "New York",
    "postal_code": "10940",
    "country": "United States",
    "longitude": -74.42143934,
    "latitude": 41.44646965,
    "phone": "8457754216",
    "website_url": "http://www.eqbrew.com",
    "state": "New York",
    "street": "22 Henry Street"
  },
  {
    "id": "a3a2cc22-a18b-4cf9-86df-0ca06723116d",
    "name": "Equinox Brewing",
    "brewery_type": "micro",
    "address_1": "133 Remington St",
    "address_2": null,
    "address_3": null,
    "city": "Fort Collins",
    "state_province": "Colorado",
    "postal_code": "80524-2833",
    "country": "United States",
    "longitude": -105.0757134,
    "latitude": 40.5863266,
    "phone": "9704841368",
    "website_url": "http://www.equinoxbrewing.com",
    "state": "Colorado",
    "street": "133 Remington St"
  },
  {
    "id": "f10f2add-c809-4f58-958b-c47876af2a28",
    "name": "Erie Ale Works",
    "brewery_type": "micro",
    "address_1": "416 W 12th St",
    "address_2": null,
    "address_3": null,
    "city": "Erie",
    "state_province": "Pennsylvania",
    "postal_code": "16501-1506",
    "country": "United States",
    "longitude": -80.1219366,
    "latitude": 42.108963,
    "phone": "8143149089",
    "website_url": "http://www.eriealeworks.com",
    "state": "Pennsylvania",
    "street": "416 W 12th St"
  },
  {
    "id": "e29579e9-a9e2-4c53-b966-d2ad4bb698b6",
    "name": "Erie Brewing Co",
    "brewery_type": "micro",
    "address_1": "6008 Knowledge Pkwy # A",
    "address_2": null,
    "address_3": null,
    "city": "Erie",
    "state_province": "Pennsylvania",
    "postal_code": "16510-4676",
    "country": "United States",
    "longitude": null,
    "latitude": null,
    "phone": "8144597741",
    "website_url": "http://www.eriebrewingco.com",
    "state": "Pennsylvania",
    "street": "6008 Knowledge Pkwy # A"
  },
  {
    "id": "87fe9d64-abad-4104-b35f-d5c3c156c910",
    "name": "Erie Canal Brewing Company",
    "brewery_type": "micro",
    "address_1": "135 S Peterboro St",
    "address_2": null,
    "address_3": null,
    "city": "Canastota",
    "state_province": "New York",
    "postal_code": "13032-1409",
    "country": "United States",
    "longitude": -75.75153202,
    "latitude": 43.07857637,
    "phone": "3155105001",
    "website_url": "http://www.eriecanalbrewingcompany.com",
    "state": "New York",
    "street": "135 S Peterboro St"
  },
  {
    "id": "8551ddb7-d116-460e-b82d-4003bf816287",
    "name": "Eris Brewery And Cider House",
    "brewery_type": "brewpub",
    "address_1": "4240 W Irving Park Rd",
    "address_2": null,
    "address_3": null,
    "city": "Chicago",
    "state_province": "Illinois",
    "postal_code": "60641",
    "country": "United States",
    "longitude": -87.7342346,
    "latitude": 41.95388195,
    "phone": "5623086582",
    "website_url": null,
    "state": "Illinois",
    "street": "4240 W Irving Park Rd"
  },
  {
    "id": "d9942ca7-6ba7-4f64-90de-73796afe5851",
    "name": "Escape Brewing Company",
    "brewery_type": "micro",
    "address_1": "9945 Trinity Blvd Ste 108",
    "address_2": null,
    "address_3": null,
    "city": "Trinity",
    "state_province": "Florida",
    "postal_code": "34655-4552",
    "country": "United States",
    "longitude": -82.65284391,
    "latitude": 28.18036575,
    "phone": "7276393820",
    "website_url": "http://www.escapebrewingcompany.com",
    "state": "Florida",
    "street": "9945 Trinity Blvd Ste 108"
  },
  {
    "id": "036c6be6-1227-40f9-833f-a753747edcdb",
    "name": "Escape Craft Brewery",
    "brewery_type": "micro",
    "address_1": "721 Nevada St Ste 401",
    "address_2": null,
    "address_3": null,
    "city": "Redlands",
    "state_province": "California",
    "postal_code": "92373-8053",
    "country": "United States",
    "longitude": -117.2175772,
    "latitude": 34.0603401,
    "phone": "9097133727",
    "website_url": "http://www.escapecraftbrewery.com",
    "state": "California",
    "street": "721 Nevada St Ste 401"
  },
  {
    "id": "60a1ea9e-db4f-4bcf-8799-bb84baa08082",
    "name": "Escondido Brewing Company",
    "brewery_type": "micro",
    "address_1": "649 Rock Springs Rd",
    "address_2": null,
    "address_3": null,
    "city": "Escondido",
    "state_province": "California",
    "postal_code": "92025-1622",
    "country": "United States",
    "longitude": -117.097042,
    "latitude": 33.124632,
    "phone": null,
    "website_url": "http://www.escobrewco.com",
    "state": "California",
    "street": "649 Rock Springs Rd"
  },
  {
    "id": "c8aa4da8-b80b-46b2-bf4c-e76bfe47d22e",
    "name": "Escutcheon Brewing Co.",
    "brewery_type": "micro",
    "address_1": "142 W Commercial St",
    "address_2": null,
    "address_3": null,
    "city": "Winchester",
    "state_province": "Virginia",
    "postal_code": "22601-4828",
    "country": "United States",
    "longitude": -78.1634732,
    "latitude": 39.19554464,
    "phone": "5407733042",
    "website_url": "http://www.escutcheonbrewing.com",
    "state": "Virginia",
    "street": "142 W Commercial St"
  },
  {
    "id": "2f4ac980-04c4-4391-a4e4-2f5d90f9e4c2",
    "name": "Eskes Brew Pub",
    "brewery_type": "brewpub",
    "address_1": "106 Des Georges Pl",
    "address_2": null,
    "address_3": null,
    "city": "Taos",
    "state_province": "New Mexico",
    "postal_code": "87571-6179",
    "country": "United States",
    "longitude": -105.5731656,
    "latitude": 36.4058929,
    "phone": "5757581517",
    "website_url": "http://www.eskesbrewpub.com",
    "state": "New Mexico",
    "street": "106 Des Georges Pl"
  },
  {
    "id": "b07c36e6-95d2-4fdc-981f-8266a0bc3786",
    "name": "Estes Park Brewery",
    "brewery_type": "micro",
    "address_1": "470 Prospect Village Dr",
    "address_2": null,
    "address_3": null,
    "city": "Estes Park",
    "state_province": "Colorado",
    "postal_code": "80517",
    "country": "United States",
    "longitude": -105.5261317,
    "latitude": 40.3714876,
    "phone": "9705865421",
    "website_url": "http://www.epbrewery.net",
    "state": "Colorado",
    "street": "470 Prospect Village Dr"
  },
  {
    "id": "b8b99a39-f008-4bde-9824-c5aaf4ba6b61",
    "name": "Eternity Brewing Co",
    "brewery_type": "micro",
    "address_1": "4060 E Grand River Ave",
    "address_2": null,
    "address_3": null,
    "city": "Howell",
    "state_province": "Michigan",
    "postal_code": "48843-8583",
    "country": "United States",
    "longitude": -83.9948055,
    "latitude": 42.63273017,
    "phone": "5172954904",
    "website_url": "http://www.eternitybrewing.com",
    "state": "Michigan",
    "street": "4060 E Grand River Ave"
  },
  {
    "id": "ec0e5191-0b58-43ae-b0fb-6f6b7af46bbc",
    "name": "Ethereal Brewing",
    "brewery_type": "micro",
    "address_1": "1224 Manchester St",
    "address_2": null,
    "address_3": null,
    "city": "Lexington",
    "state_province": "Kentucky",
    "postal_code": "40504-1129",
    "country": "United States",
    "longitude": -84.5200035,
    "latitude": 38.056562,
    "phone": "8593091254",
    "website_url": "http://www.etherealbrew.com",
    "state": "Kentucky",
    "street": "1224 Manchester St"
  },
  {
    "id": "7a824a71-6925-4710-bea9-2231cecc634b",
    "name": "Etna Brewing Co LLC",
    "brewery_type": "micro",
    "address_1": "131 Callahan Street",
    "address_2": null,
    "address_3": null,
    "city": "Etna",
    "state_province": "California",
    "postal_code": "96027",
    "country": "United States",
    "longitude": -122.8918305,
    "latitude": 41.45674141,
    "phone": "5304675277",
    "website_url": "http://www.etnabrew.com",
    "state": "California",
    "street": "131 Callahan Street"
  },
  {
    "id": "5b2d36b5-9994-421e-bd81-f9bca58a9216",
    "name": "Etowah Brewery",
    "brewery_type": "planning",
    "address_1": null,
    "address_2": null,
    "address_3": null,
    "city": "Dahlonega",
    "state_province": "Georgia",
    "postal_code": "30533",
    "country": "United States",
    "longitude": null,
    "latitude": null,
    "phone": "6785707349",
    "website_url": null,
    "state": "Georgia",
    "street": null
  },
  {
    "id": "01a6ba0f-c1d8-4d6f-9c90-c97f611a0844",
    "name": "ETX Brewing Co.",
    "brewery_type": "micro",
    "address_1": "221 S Broadway Ave",
    "address_2": null,
    "address_3": null,
    "city": "Tyler",
    "state_province": "Texas",
    "postal_code": "75702-7302",
    "country": "United States",
    "longitude": -95.3081695,
    "latitude": 32.2553345,
    "phone": "9036307720",
    "website_url": "http://www.etxbrew.com",
    "state": "Texas",
    "street": "221 S Broadway Ave"
  },
  {
    "id": "d3fd07d4-ccaa-4100-bf82-a6acd3ed4b7e",
    "name": "Eudora Brewing Co",
    "brewery_type": "micro",
    "address_1": "4716 Wilmington Pike",
    "address_2": null,
    "address_3": null,
    "city": "Dayton",
    "state_province": "Ohio",
    "postal_code": "45440-2021",
    "country": "United States",
    "longitude": -84.162271,
    "latitude": 39.735916,
    "phone": "9377236863",
    "website_url": "http://www.eudorabrewing.com",
    "state": "Ohio",
    "street": "4716 Wilmington Pike"
  },
  {
    "id": "1540f10e-84b9-4af6-ac33-c3a8830aa67c",
    "name": "Eureka Heights Brewing Company",
    "brewery_type": "micro",
    "address_1": "941 W 18th St",
    "address_2": null,
    "address_3": null,
    "city": "Houston",
    "state_province": "Texas",
    "postal_code": "77008-3336",
    "country": "United States",
    "longitude": -95.4164348,
    "latitude": 29.8019913,
    "phone": "8329534677",
    "website_url": "http://www.eurekaheights.com",
    "state": "Texas",
    "street": "941 W 18th St"
  },
  {
    "id": "9d99fd5e-9aeb-48c6-a8b5-ece6a0607dbd",
    "name": "EuroBevs",
    "brewery_type": "contract",
    "address_1": "2255 Cumberland Pkwy SE",
    "address_2": null,
    "address_3": null,
    "city": "Atlanta",
    "state_province": "Georgia",
    "postal_code": "30339-4515",
    "country": "United States",
    "longitude": null,
    "latitude": null,
    "phone": "7704371285",
    "website_url": "http://www.eurobevs.com",
    "state": "Georgia",
    "street": "2255 Cumberland Pkwy SE"
  },
  {
    "id": "e33818b7-7dd4-45ac-8f77-0816794a18a1",
    "name": "Euryale Brewing Company",
    "brewery_type": "micro",
    "address_1": "2060 Chicago Ave Ste A17",
    "address_2": null,
    "address_3": null,
    "city": "Riverside",
    "state_province": "California",
    "postal_code": "92507-2344",
    "country": "United States",
    "longitude": -117.3479555,
    "latitude": 33.99293689,
    "phone": "9515308865",
    "website_url": "http://www.euryalebrewing.com",
    "state": "California",
    "street": "2060 Chicago Ave Ste A17"
  },
  {
    "id": "7240f52e-72c7-4c00-a8f3-9eeb0daac16e",
    "name": "Evans Brewing Co / Bayhawk Ales",
    "brewery_type": "micro",
    "address_1": "2000 Main St",
    "address_2": null,
    "address_3": null,
    "city": "Irvine",
    "state_province": "California",
    "postal_code": "92614-7202",
    "country": "United States",
    "longitude": -117.8559667,
    "latitude": 33.68560798,
    "phone": "7147080082",
    "website_url": "http://www.evansbrewco.com",
    "state": "California",
    "street": "2000 Main St"
  },
  {
    "id": "d656f484-6477-4d44-8c47-7bf1bf309363",
    "name": "Evasion Brewing - Production Facility",
    "brewery_type": "micro",
    "address_1": "4230 NE Riverside Dr",
    "address_2": null,
    "address_3": null,
    "city": "McMinnville",
    "state_province": "Oregon",
    "postal_code": "97128-8403",
    "country": "United States",
    "longitude": -123.1519619,
    "latitude": 45.22899995,
    "phone": "5038355322",
    "website_url": "http://www.evasionbrewing.com",
    "state": "Oregon",
    "street": "4230 NE Riverside Dr"
  },
  {
    "id": "51e73708-c0e0-4502-8986-2b1db31621f5",
    "name": "Eventide Brewing Co",
    "brewery_type": "micro",
    "address_1": "1015 Grant St SE",
    "address_2": null,
    "address_3": null,
    "city": "Atlanta",
    "state_province": "Georgia",
    "postal_code": "30315-2014",
    "country": "United States",
    "longitude": -84.37706291,
    "latitude": 33.72670205,
    "phone": "4049074543",
    "website_url": "http://www.eventidebrewing.com",
    "state": "Georgia",
    "street": "1015 Grant St SE"
  },
  {
    "id": "13677292-c029-4542-9335-497bcd8d515d",
    "name": "Ever Grain Brewing Co",
    "brewery_type": "micro",
    "address_1": "4444 Carlisle Pike Ste C",
    "address_2": null,
    "address_3": null,
    "city": "Camp Hill",
    "state_province": "Pennsylvania",
    "postal_code": "17011-4102",
    "country": "United States",
    "longitude": null,
    "latitude": null,
    "phone": "7175258222",
    "website_url": null,
    "state": "Pennsylvania",
    "street": "4444 Carlisle Pike Ste C"
  },
  {
    "id": "0bd9b336-f4f3-41f7-91e0-19709d3c6364",
    "name": "Evergreen Brewery",
    "brewery_type": "brewpub",
    "address_1": "2962 Evergreen Pkwy",
    "address_2": null,
    "address_3": null,
    "city": "Evergreen",
    "state_province": "Colorado",
    "postal_code": "80439-7995",
    "country": "United States",
    "longitude": null,
    "latitude": null,
    "phone": "3037368419",
    "website_url": "http://www.evergreentaphouse.com",
    "state": "Colorado",
    "street": "2962 Evergreen Pkwy"
  },
  {
    "id": "7c0fa97b-b482-43bd-a429-b62ed564e50c",
    "name": "Everybody's Brewing Co",
    "brewery_type": "micro",
    "address_1": "177 E Jewett Blvd",
    "address_2": null,
    "address_3": null,
    "city": "White Salmon",
    "state_province": "Washington",
    "postal_code": "98672-8976",
    "country": "United States",
    "longitude": -121.4854565,
    "latitude": 45.72787736,
    "phone": "5096372774",
    "website_url": "http://www.everybodysbrewing.com",
    "state": "Washington",
    "street": "177 E Jewett Blvd"
  },
  {
    "id": "51e62ad1-42ab-490a-b8a8-3ae8d6502c7f",
    "name": "Evil Czech Brewery",
    "brewery_type": "brewpub",
    "address_1": "3703 N Main St",
    "address_2": null,
    "address_3": null,
    "city": "Mishawaka",
    "state_province": "Indiana",
    "postal_code": "46545-3111",
    "country": "United States",
    "longitude": -86.1823337,
    "latitude": 41.6939205,
    "phone": null,
    "website_url": null,
    "state": "Indiana",
    "street": "3703 N Main St"
  },
  {
    "id": "339caa7a-481f-4315-bba1-bca6b74d8b89",
    "name": "Evil Genius Beer Co",
    "brewery_type": "micro",
    "address_1": "1727 N Front St",
    "address_2": null,
    "address_3": null,
    "city": "Philadelphia",
    "state_province": "Pennsylvania",
    "postal_code": "19122-3203",
    "country": "United States",
    "longitude": -75.13401561,
    "latitude": 39.97578018,
    "phone": "2154256820",
    "website_url": "http://www.evilgeniusbeer.com",
    "state": "Pennsylvania",
    "street": "1727 N Front St"
  },
  {
    "id": "133e055a-4014-4eaf-822f-4d5089b14ffc",
    "name": "Evil Horse Brewing Company, LLC",
    "brewery_type": "micro",
    "address_1": "1338 Main St",
    "address_2": null,
    "address_3": null,
    "city": "Crete",
    "state_province": "Illinois",
    "postal_code": "60417-2131",
    "country": "United States",
    "longitude": -87.631432,
    "latitude": 41.44499003,
    "phone": "7083042907",
    "website_url": "http://evilhorsebrewing.com",
    "state": "Illinois",
    "street": "1338 Main St"
  },
  {
    "id": "375f4801-e257-44f8-af0c-1e4bb3804b20",
    "name": "Evolution Craft Brewing Co",
    "brewery_type": "regional",
    "address_1": "200 Elmwood St",
    "address_2": null,
    "address_3": null,
    "city": "Salisbury",
    "state_province": "Maryland",
    "postal_code": "21804-5522",
    "country": "United States",
    "longitude": -75.595254,
    "latitude": 38.361979,
    "phone": "4432602337",
    "website_url": "http://www.evolutioncraftbrewing.com",
    "state": "Maryland",
    "street": "200 Elmwood St"
  },
  {
    "id": "fe4a7fe6-9a1a-4e6b-8a7b-d4ddd6ad0efd",
    "name": "Evolution Craft Brewing Co - Salisbury",
    "brewery_type": "brewpub",
    "address_1": "201 E Vine St",
    "address_2": null,
    "address_3": null,
    "city": "Salisbury",
    "state_province": "Maryland",
    "postal_code": "21804-5515",
    "country": "United States",
    "longitude": -75.595628,
    "latitude": 38.360471,
    "phone": null,
    "website_url": null,
    "state": "Maryland",
    "street": "201 E Vine St"
  },
  {
    "id": "4a2c515d-7384-4406-8751-31133687eac1",
    "name": "Ex Novo Brewing Co",
    "brewery_type": "micro",
    "address_1": "2326 N Flint Ave",
    "address_2": null,
    "address_3": null,
    "city": "Portland",
    "state_province": "Oregon",
    "postal_code": "97227-1905",
    "country": "United States",
    "longitude": -122.6684147,
    "latitude": 45.54002045,
    "phone": "5038948251",
    "website_url": "http://www.exnovobrew.com",
    "state": "Oregon",
    "street": "2326 N Flint Ave"
  },
  {
    "id": "5e6d5f65-c765-4f07-ab83-92556b3c8d04",
    "name": "Excel Brewing Co",
    "brewery_type": "micro",
    "address_1": "488 S Broadway",
    "address_2": null,
    "address_3": null,
    "city": "Breese",
    "state_province": "Illinois",
    "postal_code": "62230-1805",
    "country": "United States",
    "longitude": -89.53007673,
    "latitude": 38.60665933,
    "phone": "6185267159",
    "website_url": "http://www.excelbottling.com",
    "state": "Illinois",
    "street": "488 S Broadway"
  },
  {
    "id": "42159682-82fd-4be8-8fe4-2e8a4799339d",
    "name": "Excelsior Brewing Co",
    "brewery_type": "micro",
    "address_1": "421 3rd St Ste 3",
    "address_2": null,
    "address_3": null,
    "city": "Excelsior",
    "state_province": "Minnesota",
    "postal_code": "55331-2008",
    "country": "United States",
    "longitude": null,
    "latitude": null,
    "phone": "9524747837",
    "website_url": "http://www.excelsiorbrew.com",
    "state": "Minnesota",
    "street": "421 3rd St Ste 3"
  },
  {
    "id": "75a21a02-9de8-4c47-98ad-86b631186a15",
    "name": "Exeter Brewing Co",
    "brewery_type": "brewpub",
    "address_1": "156 Epping Rd",
    "address_2": null,
    "address_3": null,
    "city": "Exeter",
    "state_province": "New Hampshire",
    "postal_code": "03833",
    "country": "United States",
    "longitude": null,
    "latitude": null,
    "phone": "6036867253",
    "website_url": "https://www.exeterbrewing.co/",
    "state": "New Hampshire",
    "street": "156 Epping Rd"
  },
  {
    "id": "9e2133f8-4aba-4b9b-830f-13f9c3626c44",
    "name": "Exferimentation Brewing Company",
    "brewery_type": "micro",
    "address_1": "7 N Saginaw St",
    "address_2": null,
    "address_3": null,
    "city": "Pontiac",
    "state_province": "Michigan",
    "postal_code": "48342-2182",
    "country": "United States",
    "longitude": -83.292346,
    "latitude": 42.6369922,
    "phone": "2486481377",
    "website_url": "http://www.exferimentationbrewing.com",
    "state": "Michigan",
    "street": "7 N Saginaw St"
  },
  {
    "id": "cbc96b9c-6ff0-4172-8bbd-02f4a55ab5bc",
    "name": "Exhibit 'A' Brewing Co.",
    "brewery_type": "micro",
    "address_1": "81 Morton St",
    "address_2": null,
    "address_3": null,
    "city": "Framingham",
    "state_province": "Massachusetts",
    "postal_code": "01702-7153",
    "country": "United States",
    "longitude": -71.40187088,
    "latitude": 42.27880435,
    "phone": null,
    "website_url": "http://www.exhibit-A-brewing.com",
    "state": "Massachusetts",
    "street": "81 Morton St"
  },
  {
    "id": "7a156b9c-1010-4774-ab03-3f401a22089c",
    "name": "Exile Brewing",
    "brewery_type": "micro",
    "address_1": "1514 Walnut St",
    "address_2": null,
    "address_3": null,
    "city": "Des Moines",
    "state_province": "Iowa",
    "postal_code": "50309-3420",
    "country": "United States",
    "longitude": -93.63702159,
    "latitude": 41.5830167,
    "phone": "5158832337",
    "website_url": "http://www.exilebrewing.com",
    "state": "Iowa",
    "street": "1514 Walnut St"
  }
]