[
  {
    "id": "ad8c6d2f-e4bf-4a8c-86d7-11e87f36bf9a",
    "name": "Dirty Job Brewing",
    "brewery_type": "micro",
    "address_1": "117 N Main St",
    "address_2": null,
    "address_3": null,
    "city": "Mansfield",
    "state_province": "Texas",
    "postal_code": "76063",
    "country": "United States",
    "longitude": -97.14195567,
    "latitude": 32.56489124,
    "phone": "6825181791",
    "website_url": "http://www.dirtyjobbrewing.com",
    "state": "Texas",
    "street": "117 N Main St"
  },
  {
    "id": "77fc61b5-b1e7-4ee3-a28c-823a3de62365",
    "name": "Dirty Oar Beer Company",
    "brewery_type": "micro",
    "address_1": "329 W King St",
    "address_2": null,
    "address_3": null,
    "city": "Cocoa",
    "state_province": "Florida",
    "postal_code": "32922-4607",
    "country": "United States",
    "longitude": -80.7473064,
    "latitude": 28.355795,
    "phone": null,
    "website_url": "http://dirtyoarbeercompany.com/",
    "state": "Florida",
    "street": "329 W King St"
  },
  {
    "id": "02368546-6d67-4e2f-8d45-917628306622",
    "name": "Discovery Bay Brewing",
    "brewery_type": "micro",
    "address_1": "948 N Park Avenue",
    "address_2": null,
    "address_3": null,
    "city": "Port Townsend",
    "state_province": "Washington",
    "postal_code": "98368-1512",
    "country": "United States",
    "longitude": -122.8030594,
    "latitude": 48.1065812,
    "phone": "3603442999",
    "website_url": null,
    "state": "Washington",
    "street": "948 N Park Avenue"
  },
  {
    "id": "76286586-a06b-4609-b971-615cb56607ed",
    "name": "Discretion Brewing",
    "brewery_type": "micro",
    "address_1": "2703 41st Ave Ste A& # B",
    "address_2": null,
    "address_3": null,
    "city": "Soquel",
    "state_province": "California",
    "postal_code": "95073-3104",
    "country": "United States",
    "longitude": -121.9659512,
    "latitude": 36.98629328,
    "phone": "8313160662",
    "website_url": "http://www.discretionbrewing.com",
    "state": "California",
    "street": "2703 41st Ave Ste A& # B"
  },
  {
    "id": "c6dd7547-06f7-4cc6-8041-f1fab596b201",
    "name": "Disgruntled Brewing",
    "brewery_type": "micro",
    "address_1": "735 2nd St NE",
    "address_2": null,
    "address_3": null,
    "city": "Perham",
    "state_province": "Minnesota",
    "postal_code": "56573-1828",
    "country": "United States",
    "longitude": -95.55777031,
    "latitude": 46.59047473,
    "phone": "2183464677",
    "website_url": "http://www.disgruntledbeer.com",
    "state": "Minnesota",
    "street": "735 2nd St NE"
  },
  {
    "id": "b67ada4b-9179-4e79-ba2f-70d956f0af1c",
    "name": "Dissent Craft Brewing Company, LLC",
    "brewery_type": "micro",
    "address_1": "5518 Haines Rd N",
    "address_2": null,
    "address_3": null,
    "city": "Saint Petersburg",
    "state_province": "Florida",
    "postal_code": "33714-1999",
    "country": "United States",
    "longitude": -82.66998676,
    "latitude": 27.82225781,
    "phone": "7273420255",
    "website_url": "http://www.dissentcraftbrewing.com",
    "state": "Florida",
    "street": "5518 Haines Rd N"
  },
  {
    "id": "ad2e2d38-f7f8-4c10-899a-9b14ad947743",
    "name": "Dissident Brewing",
    "brewery_type": "closed",
    "address_1": null,
    "address_2": null,
    "address_3": null,
    "city": "Milwaukee",
    "state_province": "Wisconsin",
    "postal_code": "53207-3221",
    "country": "United States",
    "longitude": null,
    "latitude": null,
    "phone": "4145171845",
    "website_url": "http://www.dissidentbrewing.com",
    "state": "Wisconsin",
    "street": null
  },
  {
    "id": "57b8c4a5-0975-4916-ab6b-661e85a1fe4c",
    "name": "Distraction Brewing Company",
    "brewery_type": "planning",
    "address_1": null,
    "address_2": null,
    "address_3": null,
    "city": "Roslindale",
    "state_province": "Massachusetts",
    "postal_code": "02131-3006",
    "country": "United States",
    "longitude": null,
    "latitude": null,
    "phone": null,
    "website_url": "http://www.distractionbrewingco.com",
    "state": "Massachusetts",
    "street": null
  },
  {
    "id": "30f9fd9f-a8c2-46c2-863d-2dcf129b12fe",
    "name": "District 1 Brewing Company",
    "brewery_type": "micro",
    "address_1": "200 Division St N",
    "address_2": null,
    "address_3": null,
    "city": "Stevens Point",
    "state_province": "Wisconsin",
    "postal_code": "54481",
    "country": "United States",
    "longitude": -89.5634341,
    "latitude": 44.3786458,
    "phone": "7155446707",
    "website_url": "http://www.district1brewing.com",
    "state": "Wisconsin",
    "street": "200 Division St N"
  },
  {
    "id": "f6f63bf2-1334-4a58-8254-a0ac22457e05",
    "name": "District 14 Brewery & Pub",
    "brewery_type": "closed",
    "address_1": "2273 S Howell Ave",
    "address_2": null,
    "address_3": null,
    "city": "Milwaukee",
    "state_province": "Wisconsin",
    "postal_code": "53207-1325",
    "country": "United States",
    "longitude": -87.9095587,
    "latitude": 42.9581912,
    "phone": "4147440399",
    "website_url": null,
    "state": "Wisconsin",
    "street": "2273 S Howell Ave"
  },
  {
    "id": "e69d7c0d-f29a-4668-9419-f74ffc9e19cf",
    "name": "District 96 Beer Factory",
    "brewery_type": "brewpub",
    "address_1": "395 S Main St",
    "address_2": null,
    "address_3": null,
    "city": "New City",
    "state_province": "New York",
    "postal_code": "10956",
    "country": "United States",
    "longitude": -73.99100071,
    "latitude": 41.13457391,
    "phone": "8454992409",
    "website_url": "http://www.district96beer.com",
    "state": "New York",
    "street": "395 S Main St"
  },
  {
    "id": "98946d35-5b30-40ae-9028-951bca3bfb59",
    "name": "District Brewing",
    "brewery_type": "brewpub",
    "address_1": "520 S Main St",
    "address_2": null,
    "address_3": null,
    "city": "Mount Vernon",
    "state_province": "Washington",
    "postal_code": "98273-3840",
    "country": "United States",
    "longitude": -122.338828,
    "latitude": 48.419204,
    "phone": "3608736714",
    "website_url": "https://districtbrewco.com",
    "state": "Washington",
    "street": "520 S Main St"
  },
  {
    "id": "a5f7b66a-2f51-4161-9365-0eef5aa282a5",
    "name": "District ChopHouse and Brewery",
    "brewery_type": "brewpub",
    "address_1": "509 7th St NW",
    "address_2": null,
    "address_3": null,
    "city": "Washington",
    "state_province": "District of Columbia",
    "postal_code": "20004-1600",
    "country": "United States",
    "longitude": -77.0216694,
    "latitude": 38.8965132,
    "phone": "2023473434",
    "website_url": "http://www.districtchophouse.com",
    "state": "District of Columbia",
    "street": "509 7th St NW"
  },
  {
    "id": "e6521135-22e0-458a-9245-16e9625f700b",
    "name": "Dive Bar Brewing Company",
    "brewery_type": "proprietor",
    "address_1": "5994 S Holly Street #146",
    "address_2": null,
    "address_3": null,
    "city": "Greenwood Village",
    "state_province": "Colorado",
    "postal_code": "80111",
    "country": "United States",
    "longitude": null,
    "latitude": null,
    "phone": "3039134355",
    "website_url": "http://divebarbeer.com",
    "state": "Colorado",
    "street": "5994 S Holly Street #146"
  },
  {
    "id": "45fc6ccc-c048-4964-9093-a18c6daa430d",
    "name": "Diversion Brewing Co",
    "brewery_type": "micro",
    "address_1": "729 Wyncoop Creek Rd",
    "address_2": null,
    "address_3": null,
    "city": "Chemung",
    "state_province": "New York",
    "postal_code": "14825-9755",
    "country": "United States",
    "longitude": -76.62211,
    "latitude": 42.019871,
    "phone": "6075429168",
    "website_url": "http://www.diversionbrewing.com",
    "state": "New York",
    "street": "729 Wyncoop Creek Rd"
  },
  {
    "id": "24b9cbee-b251-4444-b5b1-714b0cb90c0c",
    "name": "Divine Barrel Brewing",
    "brewery_type": "micro",
    "address_1": "3701 N Davidson St Ste 203",
    "address_2": null,
    "address_3": null,
    "city": "Charlotte",
    "state_province": "North Carolina",
    "postal_code": "28205-1303",
    "country": "United States",
    "longitude": null,
    "latitude": null,
    "phone": "9802371803",
    "website_url": "http://www.divinebarrel.com",
    "state": "North Carolina",
    "street": "3701 N Davidson St Ste 203"
  },
  {
    "id": "ec0363c4-8d72-4b1a-b7c9-9aeb1637cbd7",
    "name": "Divine Swine BBQ",
    "brewery_type": "brewpub",
    "address_1": "2684 Lebanon Rd",
    "address_2": null,
    "address_3": null,
    "city": "Manheim",
    "state_province": "Pennsylvania",
    "postal_code": "17545-9524",
    "country": "United States",
    "longitude": null,
    "latitude": null,
    "phone": "7178799494",
    "website_url": "http://www.divine-swine-bbq.com",
    "state": "Pennsylvania",
    "street": "2684 Lebanon Rd"
  },
  {
    "id": "ecb3dc09-11f9-4844-8cac-83340856e42d",
    "name": "Diving Dog Brewhouse",
    "brewery_type": "micro",
    "address_1": "1802 Telegraph Ave",
    "address_2": null,
    "address_3": null,
    "city": "Oakland",
    "state_province": "California",
    "postal_code": "94612-2110",
    "country": "United States",
    "longitude": -122.2698881,
    "latitude": 37.807739,
    "phone": "5103061914",
    "website_url": "http://www.divingdogbrew.com",
    "state": "California",
    "street": "1802 Telegraph Ave"
  },
  {
    "id": "887c1eb4-f403-4081-9dff-e8d0867b04ed",
    "name": "Division 23 Brewing",
    "brewery_type": "micro",
    "address_1": "7408 Trade St",
    "address_2": null,
    "address_3": null,
    "city": "San Diego",
    "state_province": "California",
    "postal_code": "92121-3415",
    "country": "United States",
    "longitude": -117.162908,
    "latitude": 32.890353,
    "phone": "8587521924",
    "website_url": "http://www.division23brewing.com",
    "state": "California",
    "street": "7408 Trade St"
  },
  {
    "id": "ae6e6e2a-84f4-45c2-adce-e5b80997f35c",
    "name": "Division Brewing",
    "brewery_type": "micro",
    "address_1": "506 E Main St",
    "address_2": null,
    "address_3": null,
    "city": "Arlington",
    "state_province": "Texas",
    "postal_code": "76010-1228",
    "country": "United States",
    "longitude": -97.10256904,
    "latitude": 32.73630741,
    "phone": "2146978350",
    "website_url": "http://www.divisionbrewing.com",
    "state": "Texas",
    "street": "506 E Main St"
  },
  {
    "id": "4e240752-baf7-4fb7-8f32-c22e7a1e9933",
    "name": "Divots Brewery",
    "brewery_type": "brewpub",
    "address_1": "4200 W Norfolk Ave",
    "address_2": null,
    "address_3": null,
    "city": "Norfolk",
    "state_province": "Nebraska",
    "postal_code": "68701-9202",
    "country": "United States",
    "longitude": -97.466386,
    "latitude": 42.032539,
    "phone": "4028442985",
    "website_url": "http://www.divotsbrewery.com",
    "state": "Nebraska",
    "street": "4200 W Norfolk Ave"
  },
  {
    "id": "ee957438-dbb4-4cc4-8731-d3482d3a4775",
    "name": "Dixie Brewing Co Inc.",
    "brewery_type": "closed",
    "address_1": "6221 S Claiborne Ave Ste 101",
    "address_2": null,
    "address_3": null,
    "city": "New Orleans",
    "state_province": "Louisiana",
    "postal_code": "70125-4191",
    "country": "United States",
    "longitude": null,
    "latitude": null,
    "phone": "5048228711",
    "website_url": null,
    "state": "Louisiana",
    "street": "6221 S Claiborne Ave Ste 101"
  },
  {
    "id": "2795f339-b872-44dd-af71-e79550711989",
    "name": "Dixie Brewing Company, LLC",
    "brewery_type": "closed",
    "address_1": "1450 Poydras St Ste 580",
    "address_2": null,
    "address_3": null,
    "city": "New Orleans",
    "state_province": "Louisiana",
    "postal_code": "70112-1227",
    "country": "United States",
    "longitude": null,
    "latitude": null,
    "phone": "5059176071",
    "website_url": "http://www.dixiebeer.com",
    "state": "Louisiana",
    "street": "1450 Poydras St Ste 580"
  },
  {
    "id": "f4b8dca8-d143-4ec1-ad09-9bc6426723be",
    "name": "Dixie Grill & Brewery",
    "brewery_type": "brewpub",
    "address_1": "5101 South Dixie Highway",
    "address_2": null,
    "address_3": null,
    "city": "West Palm Beach",
    "state_province": "Florida",
    "postal_code": "33405",
    "country": "United States",
    "longitude": -80.055437,
    "latitude": 26.667349,
    "phone": "5615863189",
    "website_url": null,
    "state": "Florida",
    "street": "5101 South Dixie Highway"
  },
  {
    "id": "0e0d87e1-64b3-423d-a658-a81fc56341c2",
    "name": "Dobra Zupas",
    "brewery_type": "brewpub",
    "address_1": "600 S Oakwood Ave",
    "address_2": null,
    "address_3": null,
    "city": "Beckley",
    "state_province": "West Virginia",
    "postal_code": "25801-5928",
    "country": "United States",
    "longitude": -81.196413,
    "latitude": 37.770874,
    "phone": "3042539872",
    "website_url": "http://www.dobrazupas.com",
    "state": "West Virginia",
    "street": "600 S Oakwood Ave"
  },
  {
    "id": "dfc62a12-e290-4c54-b40f-9ce1eb11e683",
    "name": "Doc G's Brewing Company",
    "brewery_type": "brewpub",
    "address_1": "208 W Long Ave",
    "address_2": null,
    "address_3": null,
    "city": "Du Bois",
    "state_province": "Pennsylvania",
    "postal_code": "15801-2106",
    "country": "United States",
    "longitude": null,
    "latitude": null,
    "phone": "8142997938",
    "website_url": null,
    "state": "Pennsylvania",
    "street": "208 W Long Ave"
  },
  {
    "id": "869a2ee4-c387-4263-b1b7-e620d903a829",
    "name": "Docent Brewing",
    "brewery_type": "brewpub",
    "address_1": "33049 Calle Aviador Ste C",
    "address_2": null,
    "address_3": null,
    "city": "San Juan Capistrano",
    "state_province": "California",
    "postal_code": "92675-4785",
    "country": "United States",
    "longitude": -117.675787,
    "latitude": 33.48333541,
    "phone": null,
    "website_url": "http://www.docentbrewing.com",
    "state": "California",
    "street": "33049 Calle Aviador Ste C"
  },
  {
    "id": "850ac35e-0bdb-4662-a133-22c819b5620e",
    "name": "Dock Street Brewery",
    "brewery_type": "brewpub",
    "address_1": "701 S 50th St Fl 1",
    "address_2": null,
    "address_3": null,
    "city": "Philadelphia",
    "state_province": "Pennsylvania",
    "postal_code": "19143-1689",
    "country": "United States",
    "longitude": null,
    "latitude": null,
    "phone": "2157262337",
    "website_url": "http://www.dockstreetbeer.com",
    "state": "Pennsylvania",
    "street": "701 S 50th St Fl 1"
  },
  {
    "id": "5235f708-e30a-49ae-8681-0ff7167c8e76",
    "name": "Dock Street Brewing Co",
    "brewery_type": "planning",
    "address_1": null,
    "address_2": null,
    "address_3": null,
    "city": "Philadelphia",
    "state_province": "Pennsylvania",
    "postal_code": "19146",
    "country": "United States",
    "longitude": null,
    "latitude": null,
    "phone": null,
    "website_url": null,
    "state": "Pennsylvania",
    "street": null
  },
  {
    "id": "93306d28-6e24-47ea-af40-dac378f99ea5",
    "name": "Dockery's",
    "brewery_type": "brewpub",
    "address_1": "186 Seven Farms Dr Ste F399",
    "address_2": null,
    "address_3": null,
    "city": "Charleston",
    "state_province": "South Carolina",
    "postal_code": "29492-8510",
    "country": "United States",
    "longitude": null,
    "latitude": null,
    "phone": "8432841173",
    "website_url": "http://www.dockerysdi.com",
    "state": "South Carolina",
    "street": "186 Seven Farms Dr Ste F399"
  },
  {
    "id": "7f4c815f-5a2f-4e29-adc0-88bcec5acac4",
    "name": "Dockside Waterfront Biergarten and Brewery",
    "brewery_type": "planning",
    "address_1": null,
    "address_2": null,
    "address_3": null,
    "city": "Milford",
    "state_province": "Connecticut",
    "postal_code": "06460",
    "country": "United States",
    "longitude": null,
    "latitude": null,
    "phone": null,
    "website_url": null,
    "state": "Connecticut",
    "street": null
  },
  {
    "id": "56dce899-ff23-4f0e-be56-05900ecac53e",
    "name": "Dodge City Brewing",
    "brewery_type": "brewpub",
    "address_1": "701 3rd Ave",
    "address_2": null,
    "address_3": null,
    "city": "Dodge City",
    "state_province": "Kansas",
    "postal_code": "67801-4336",
    "country": "United States",
    "longitude": -100.020307,
    "latitude": 37.754632,
    "phone": "6203713999",
    "website_url": "http://www.dodgecitybrewing.com",
    "state": "Kansas",
    "street": "701 3rd Ave"
  },
  {
    "id": "87250580-6954-4d75-972d-75f7759fefc0",
    "name": "Dodgeton Creek Brewing Co.",
    "brewery_type": "planning",
    "address_1": null,
    "address_2": null,
    "address_3": null,
    "city": "Trinidad",
    "state_province": "Colorado",
    "postal_code": "81082-9788",
    "country": "United States",
    "longitude": -104.5005411,
    "latitude": 37.169397,
    "phone": "7198462339",
    "website_url": "http://www.dodgetoncreek.com",
    "state": "Colorado",
    "street": null
  },
  {
    "id": "ac4fe7b3-c512-4b96-9953-27e8362101ff",
    "name": "Dodging Duck Brewhaus",
    "brewery_type": "brewpub",
    "address_1": "402 River Rd",
    "address_2": null,
    "address_3": null,
    "city": "Boerne",
    "state_province": "Texas",
    "postal_code": "78006-2312",
    "country": "United States",
    "longitude": -98.72596163,
    "latitude": 29.78961761,
    "phone": "8302483825",
    "website_url": "http://www.dodgingduck.com",
    "state": "Texas",
    "street": "402 River Rd"
  },
  {
    "id": "78c50e54-34e3-415d-9574-ac0cc0505113",
    "name": "Dog & Pony Alehouse and Grill",
    "brewery_type": "closed",
    "address_1": "351 Park Ave N",
    "address_2": null,
    "address_3": null,
    "city": "Renton",
    "state_province": "Washington",
    "postal_code": "98057-5716",
    "country": "United States",
    "longitude": -122.2023129,
    "latitude": 47.48758261,
    "phone": "4252548080",
    "website_url": "http://www.thedogandpony.com",
    "state": "Washington",
    "street": "351 Park Ave N"
  },
  {
    "id": "c27f55b4-f410-4389-ae35-a5a9bada3578",
    "name": "Dog Days Brewing",
    "brewery_type": "brewpub",
    "address_1": "260 4th St",
    "address_2": null,
    "address_3": null,
    "city": "Bremerton",
    "state_province": "Washington",
    "postal_code": "98337-1813",
    "country": "United States",
    "longitude": -122.6259002,
    "latitude": 47.5658843,
    "phone": "3606279925",
    "website_url": "https://www.dogdaysbrewing.com",
    "state": "Washington",
    "street": "260 4th St"
  },
  {
    "id": "e7663a51-2d14-4e31-b52b-a3cd846fd19a",
    "name": "Dog Money Restaurant",
    "brewery_type": "brewpub",
    "address_1": "50 Catoctin Cir NE STE 100",
    "address_2": null,
    "address_3": null,
    "city": "Leesburg",
    "state_province": "Virginia",
    "postal_code": "20176-3102",
    "country": "United States",
    "longitude": null,
    "latitude": null,
    "phone": "7035775452",
    "website_url": "http://dogmoneyllc.com",
    "state": "Virginia",
    "street": "50 Catoctin Cir NE STE 100"
  },
  {
    "id": "fe4c36a3-d900-46b0-b445-a4f951b9f7e2",
    "name": "Dog Rose Brewing Company",
    "brewery_type": "micro",
    "address_1": "77 Bridge St",
    "address_2": null,
    "address_3": null,
    "city": "Saint Augustine",
    "state_province": "Florida",
    "postal_code": "32084-4335",
    "country": "United States",
    "longitude": -81.31306668,
    "latitude": 29.88948146,
    "phone": "9042173355",
    "website_url": "http://www.dogrosebrewing.com",
    "state": "Florida",
    "street": "77 Bridge St"
  },
  {
    "id": "e4054c02-8992-4c0c-8954-89f0d6ebaead",
    "name": "Dog Tag Brewing",
    "brewery_type": "contract",
    "address_1": "2042 Stadium Dr Ste 2",
    "address_2": null,
    "address_3": null,
    "city": "Bozeman",
    "state_province": "Montana",
    "postal_code": "59715-0710",
    "country": "United States",
    "longitude": null,
    "latitude": null,
    "phone": null,
    "website_url": "http://www.dogtagbrewing.org",
    "state": "Montana",
    "street": "2042 Stadium Dr Ste 2"
  },
  {
    "id": "9144058f-df13-47b0-b656-4c4384058085",
    "name": "DogBerry Brewing LLC",
    "brewery_type": "micro",
    "address_1": "9964 Crescent Park Dr",
    "address_2": null,
    "address_3": null,
    "city": "West Chester",
    "state_province": "Ohio",
    "postal_code": "45069",
    "country": "United States",
    "longitude": null,
    "latitude": null,
    "phone": "5138478208",
    "website_url": "http://www.dogberrybrewing.com",
    "state": "Ohio",
    "street": "9964 Crescent Park Dr"
  },
  {
    "id": "7a6bd1cf-4385-4677-a9d7-3507535399e4",
    "name": "Dogfish Head Brewings & Eats",
    "brewery_type": "brewpub",
    "address_1": "320 Rehoboth Ave",
    "address_2": null,
    "address_3": null,
    "city": "Rehoboth Beach",
    "state_province": "Delaware",
    "postal_code": "19971-3108",
    "country": "United States",
    "longitude": -75.08731545,
    "latitude": 38.7151767,
    "phone": "3022262739",
    "website_url": "http://www.dogfish.com",
    "state": "Delaware",
    "street": "320 Rehoboth Ave"
  },
  {
    "id": "281e6980-e2e2-4493-9896-3517e8cafe21",
    "name": "Dogfish Head Craft Brewery",
    "brewery_type": "regional",
    "address_1": "6 Cannery Village Ctr",
    "address_2": null,
    "address_3": null,
    "city": "Milton",
    "state_province": "Delaware",
    "postal_code": "19968-1308",
    "country": "United States",
    "longitude": -75.31158206,
    "latitude": 38.76691205,
    "phone": "3026841000",
    "website_url": "http://www.dogfish.com",
    "state": "Delaware",
    "street": "6 Cannery Village Ctr"
  },
  {
    "id": "c117151a-0efe-4a7a-bbab-ce130ffc2f08",
    "name": "Doghaus Brewery",
    "brewery_type": "micro",
    "address_1": "321 9th St",
    "address_2": null,
    "address_3": null,
    "city": "Leavenworth",
    "state_province": "Washington",
    "postal_code": "98826-1464",
    "country": "United States",
    "longitude": -120.6598225,
    "latitude": 47.59460883,
    "phone": "5098601446",
    "website_url": "http://www.doghausbrewery.com",
    "state": "Washington",
    "street": "321 9th St"
  },
  {
    "id": "b391b3db-33bf-47d4-8878-ab3f8b610bde",
    "name": "Dogtown Brewing",
    "brewery_type": "brewpub",
    "address_1": "1209 Hull St",
    "address_2": null,
    "address_3": null,
    "city": "Richmond",
    "state_province": "Virginia",
    "postal_code": "23224",
    "country": "United States",
    "longitude": null,
    "latitude": null,
    "phone": "8047242337",
    "website_url": "https://www.dogtownbrewingco.com/",
    "state": "Virginia",
    "street": "1209 Hull St"
  },
  {
    "id": "27d18114-31bb-4baf-b330-71bcba80cc8a",
    "name": "Dois Corvos Cervejeira, Lda.",
    "brewery_type": "micro",
    "address_1": "Rua Capit\u00e3o Leit\u00e3o, 94",
    "address_2": null,
    "address_3": null,
    "city": "Lisboa",
    "state_province": "Lisboa",
    "postal_code": "1950-052",
    "country": "Portugal",
    "longitude": -9.1054830846961,
    "latitude": 38.738267427921,
    "phone": "+351 211 331 093",
    "website_url": "https://www.doiscorvos.pt",
    "state": "Lisboa",
    "street": "Rua Capit\u00e3o Leit\u00e3o, 94"
  },
  {
    "id": "612d5f63-901f-4b34-abac-cf88157db26c",
    "name": "Dolores River Brewery",
    "brewery_type": "brewpub",
    "address_1": "100 S. 4th St.",
    "address_2": null,
    "address_3": null,
    "city": "Dolores",
    "state_province": "Colorado",
    "postal_code": "81323-1003",
    "country": "United States",
    "longitude": -108.504562,
    "latitude": 37.47323,
    "phone": "9708824677",
    "website_url": "http://www.doloresriverbrewery.com",
    "state": "Colorado",
    "street": "100 S. 4th St."
  },
  {
    "id": "bf311f48-d8a7-46f6-aa24-cdffee1423d0",
    "name": "Donavon Brewing Company",
    "brewery_type": "planning",
    "address_1": null,
    "address_2": null,
    "address_3": null,
    "city": "Arvada",
    "state_province": "Colorado",
    "postal_code": "80005-3644",
    "country": "United States",
    "longitude": null,
    "latitude": null,
    "phone": "3039975920",
    "website_url": "http://www.donavonbrewing.com",
    "state": "Colorado",
    "street": null
  },
  {
    "id": "44684d87-a612-43d1-9eda-afd9357f3af1",
    "name": "Donegal Brewing Company",
    "brewery_type": "regional",
    "address_1": "Unit 1 Erneside Business Park",
    "address_2": "Portnason",
    "address_3": null,
    "city": "Ballyshannon",
    "state_province": "Donegal",
    "postal_code": "F94 Y2NE",
    "country": "Ireland",
    "longitude": -8.2142367,
    "latitude": 54.4977199,
    "phone": "353719852434",
    "website_url": "https://mcmbrands.ie/beer/",
    "state": "Donegal",
    "street": "Unit 1 Erneside Business Park"
  },
  {
    "id": "966c6f2f-fc9a-4d45-84f1-43a7934069b4",
    "name": "Donum Dei Brewery",
    "brewery_type": "brewpub",
    "address_1": "3211 Grant Line Rd Ste 3",
    "address_2": null,
    "address_3": null,
    "city": "New Albany",
    "state_province": "Indiana",
    "postal_code": "47150-2175",
    "country": "United States",
    "longitude": null,
    "latitude": null,
    "phone": "5025412950",
    "website_url": null,
    "state": "Indiana",
    "street": "3211 Grant Line Rd Ste 3"
  },
  {
    "id": "388db412-bf61-4655-a93e-24367b6db51c",
    "name": "Doomsday Brewing Company and Pizza - Washougal",
    "brewery_type": "brewpub",
    "address_1": "421 C St Ste 3",
    "address_2": null,
    "address_3": null,
    "city": "Washougal",
    "state_province": "Washington",
    "postal_code": "98671-2169",
    "country": "United States",
    "longitude": -122.3735012,
    "latitude": 45.58111086,
    "phone": "3603359909",
    "website_url": "http://www.doomsdaybrewing.com",
    "state": "Washington",
    "street": "421 C St Ste 3"
  }
]