[
  {
    "id": "97ad3cff-f0ad-4ba3-94cd-f150d79c788d",
    "name": "Berchman's Brewing Company",
    "brewery_type": "closed",
    "address_1": "25 N Front St Ste 2",
    "address_2": null,
    "address_3": null,
    "city": "Yakima",
    "state_province": "Washington",
    "postal_code": "98901-2648",
    "country": "United States",
    "longitude": null,
    "latitude": null,
    "phone": "5099521058",
    "website_url": "http://berchmansbrewingcompany.com",
    "state": "Washington",
    "street": "25 N Front St Ste 2"
  },
  {
    "id": "dcf991c9-6692-4346-a52a-b6e9ff25520e",
    "name": "Berkeley Springs Brewing Co",
    "brewery_type": "brewpub",
    "address_1": "110 Michigan Ln",
    "address_2": null,
    "address_3": null,
    "city": "Berkeley Springs",
    "state_province": "West Virginia",
    "postal_code": "25411-3008",
    "country": "United States",
    "longitude": -78.271156,
    "latitude": 39.576782,
    "phone": "3042583369",
    "website_url": "http://www.berkeleyspringsbrewingcompany.com",
    "state": "West Virginia",
    "street": "110 Michigan Ln"
  },
  {
    "id": "fdc796fe-ad16-4995-ad31-c7e896422d47",
    "name": "Berkley Beer Company",
    "brewery_type": "micro",
    "address_1": null,
    "address_2": null,
    "address_3": null,
    "city": "Berkley",
    "state_province": "Massachusetts",
    "postal_code": "02779-1101",
    "country": "United States",
    "longitude": null,
    "latitude": null,
    "phone": "5083269954",
    "website_url": "http://www.berkleybeer.com",
    "state": "Massachusetts",
    "street": null
  },
  {
    "id": "3cbbbfeb-a69b-4cea-be92-f7ae2808a1eb",
    "name": "Berkshire Brewing Co Inc",
    "brewery_type": "regional",
    "address_1": "12 Railroad St",
    "address_2": null,
    "address_3": null,
    "city": "South Deerfield",
    "state_province": "Massachusetts",
    "postal_code": "01373-0096",
    "country": "United States",
    "longitude": -72.61025086,
    "latitude": 42.47779797,
    "phone": "4136656600",
    "website_url": "http://www.Berkshire-Brewing.com",
    "state": "Massachusetts",
    "street": "12 Railroad St"
  },
  {
    "id": "41962a71-dd2f-4aa8-9ec2-fd99dc0e684d",
    "name": "Berlin Brewing Company",
    "brewery_type": "micro",
    "address_1": "220 S White Horse Pike",
    "address_2": null,
    "address_3": null,
    "city": "Berlin",
    "state_province": "New Jersey",
    "postal_code": "08009-1902",
    "country": "United States",
    "longitude": -74.92998973,
    "latitude": 39.79199228,
    "phone": "8563362038",
    "website_url": "http://www.berlinbrewco.com",
    "state": "New Jersey",
    "street": "220 S White Horse Pike"
  },
  {
    "id": "5e69d342-1efc-469e-bf8b-22d276c6d863",
    "name": "Berlin Craft Beer Experience",
    "brewery_type": "bar",
    "address_1": "Reichenberger Str. 176",
    "address_2": null,
    "address_3": null,
    "city": "Berlin",
    "state_province": "Berlin",
    "postal_code": "10999",
    "country": "Germany",
    "longitude": 52.4995161,
    "latitude": 13.4168836,
    "phone": "4915779216971",
    "website_url": "http://www.berlincraftbeerexperience.com/",
    "state": "Berlin",
    "street": "Reichenberger Str. 176"
  },
  {
    "id": "c75eb363-ba15-4f96-a3cf-d6462867a4e3",
    "name": "Berlin Craft Beer Experience",
    "brewery_type": "bar",
    "address_1": "Reichenberger Str. 176",
    "address_2": null,
    "address_3": null,
    "city": "Berlin",
    "state_province": "Berlin",
    "postal_code": "10999",
    "country": "Germany",
    "longitude": 52.4995161,
    "latitude": 13.4168836,
    "phone": "4915779216971",
    "website_url": "http://www.berlincraftbeerexperience.com/",
    "state": "Berlin",
    "street": "Reichenberger Str. 176"
  },
  {
    "id": "6540698e-cf27-41e2-8175-c810b172160e",
    "name": "Berryessa Brewing Co",
    "brewery_type": "micro",
    "address_1": "27260 State Highway 128",
    "address_2": null,
    "address_3": null,
    "city": "Winters",
    "state_province": "California",
    "postal_code": "95694-9066",
    "country": "United States",
    "longitude": -122.0032197,
    "latitude": 38.51383288,
    "phone": "5303042202",
    "website_url": "http://www.berryessabrewingco.com",
    "state": "California",
    "street": "27260 State Highway 128"
  },
  {
    "id": "9e7c32bd-ac46-4e84-bfec-20a3be839c8e",
    "name": "Berthoud Brewing Company",
    "brewery_type": "micro",
    "address_1": "450 S 8th St Unit B",
    "address_2": null,
    "address_3": null,
    "city": "Berthoud",
    "state_province": "Colorado",
    "postal_code": "80513",
    "country": "United States",
    "longitude": null,
    "latitude": null,
    "phone": "9705329850",
    "website_url": "http://www.berthoudbrewing.com",
    "state": "Colorado",
    "street": "450 S 8th St Unit B"
  },
  {
    "id": "c495b454-6bbb-4f13-adb9-05d88e03136a",
    "name": "Bertrams Salmon Valley Brewery",
    "brewery_type": "brewpub",
    "address_1": "535 Main St",
    "address_2": null,
    "address_3": null,
    "city": "Salmon",
    "state_province": "Idaho",
    "postal_code": "83467-4246",
    "country": "United States",
    "longitude": -113.8932079,
    "latitude": 45.1751978,
    "phone": "2087563391",
    "website_url": "http://salmonvalleybrewery.com",
    "state": "Idaho",
    "street": "535 Main St"
  },
  {
    "id": "6c10e5ba-1ebd-47b8-a4ce-c41603a6c662",
    "name": "Berts Brewing Co.",
    "brewery_type": "planning",
    "address_1": null,
    "address_2": null,
    "address_3": null,
    "city": "Orange",
    "state_province": "California",
    "postal_code": "92867-6942",
    "country": "United States",
    "longitude": -117.8704931,
    "latitude": 33.7500378,
    "phone": "2069139711",
    "website_url": null,
    "state": "California",
    "street": null
  },
  {
    "id": "8b33dd81-0c75-4be9-90c0-72d5ed79f436",
    "name": "Berwick Brewing Co",
    "brewery_type": "brewpub",
    "address_1": "328 W Front St",
    "address_2": null,
    "address_3": null,
    "city": "Berwick",
    "state_province": "Pennsylvania",
    "postal_code": "18603-4757",
    "country": "United States",
    "longitude": -76.2381632,
    "latitude": 41.05243327,
    "phone": "5707524313",
    "website_url": "http://www.berwickbrewing.com",
    "state": "Pennsylvania",
    "street": "328 W Front St"
  },
  {
    "id": "b635b07f-9dba-4619-ac00-f17ca8313c43",
    "name": "Bespoke Brewing Company",
    "brewery_type": "brewpub",
    "address_1": "242 Gap Rd",
    "address_2": null,
    "address_3": null,
    "city": "Ronks",
    "state_province": "Pennsylvania",
    "postal_code": "17572",
    "country": "United States",
    "longitude": null,
    "latitude": null,
    "phone": "7172882255",
    "website_url": "https://www.bespokebrewingco.com",
    "state": "Pennsylvania",
    "street": "242 Gap Rd"
  },
  {
    "id": "6f148564-9296-4d6c-ac6b-44bad3765fd2",
    "name": "Best of Hands Barrelhouse",
    "brewery_type": "closed",
    "address_1": "7500 35th Ave SW",
    "address_2": null,
    "address_3": null,
    "city": "Seattle",
    "state_province": "Washington",
    "postal_code": "98126",
    "country": "United States",
    "longitude": -122.3763875,
    "latitude": 47.53628883,
    "phone": "2067081166",
    "website_url": "https://www.bestofhandsbarrelhouse.com",
    "state": "Washington",
    "street": "7500 35th Ave SW"
  },
  {
    "id": "45e5c569-1abb-496c-a961-9d2f2686b2d3",
    "name": "Bestens Brewery Ltd",
    "brewery_type": "taproom",
    "address_1": "Church Lane",
    "address_2": null,
    "address_3": null,
    "city": "Horsham",
    "state_province": "West Sussex",
    "postal_code": "RH13 6LU",
    "country": "England",
    "longitude": -0.26049,
    "latitude": 51.041848,
    "phone": "1403892556",
    "website_url": "https://www.bestensbrewery.co.uk/",
    "state": "West Sussex",
    "street": "Church Lane"
  },
  {
    "id": "8dcd6f88-53ee-4962-8558-bdaadade0da8",
    "name": "Better Half Brewing",
    "brewery_type": "closed",
    "address_1": "59 North Main St",
    "address_2": null,
    "address_3": null,
    "city": "Bristol",
    "state_province": "Connecticut",
    "postal_code": "06010",
    "country": "United States",
    "longitude": null,
    "latitude": null,
    "phone": "8602617062",
    "website_url": "https://www.betterhalfbrewing.com/",
    "state": "Connecticut",
    "street": "59 North Main St"
  },
  {
    "id": "c86f788e-63b2-44e6-a469-4b2e3a04ba22",
    "name": "Bevel Craft Brewing",
    "brewery_type": "planning",
    "address_1": null,
    "address_2": null,
    "address_3": null,
    "city": "Bend",
    "state_province": "Oregon",
    "postal_code": "97701-4924",
    "country": "United States",
    "longitude": -121.2917516,
    "latitude": 44.04614868,
    "phone": "8313451922",
    "website_url": "http://www.bevelbeer.com",
    "state": "Oregon",
    "street": null
  },
  {
    "id": "957afb07-a6ff-4ba3-9288-820bf0e7b107",
    "name": "Bewilder Brewing Co",
    "brewery_type": "brewpub",
    "address_1": "445 S 400 W",
    "address_2": null,
    "address_3": null,
    "city": "Salt Lake City",
    "state_province": "Utah",
    "postal_code": "84101-2202",
    "country": "United States",
    "longitude": -111.9017072,
    "latitude": 40.7594039,
    "phone": "3855283840",
    "website_url": "https://bewilderbrewing.com",
    "state": "Utah",
    "street": "445 S 400 W"
  },
  {
    "id": "01e79aac-e955-4846-826e-1936e03bfd13",
    "name": "Beyond The Mountain Brewing Company",
    "brewery_type": "micro",
    "address_1": "6035 Longbow Dr Unit 109",
    "address_2": null,
    "address_3": null,
    "city": "Boulder",
    "state_province": "Colorado",
    "postal_code": "80301-3203",
    "country": "United States",
    "longitude": null,
    "latitude": null,
    "phone": "7574072346",
    "website_url": "http://www.btmbrewing.com",
    "state": "Colorado",
    "street": "6035 Longbow Dr Unit 109"
  },
  {
    "id": "e5fc6a44-a2f0-4c19-82a7-cb160e3a7a86",
    "name": "Bhramari Brewhouse",
    "brewery_type": "micro",
    "address_1": "101 S Lexington Ave",
    "address_2": null,
    "address_3": null,
    "city": "Asheville",
    "state_province": "North Carolina",
    "postal_code": "28801-3309",
    "country": "United States",
    "longitude": -82.55191879,
    "latitude": 35.59166763,
    "phone": "8282147981",
    "website_url": "http://www.bhramaribrewing.com",
    "state": "North Carolina",
    "street": "101 S Lexington Ave"
  },
  {
    "id": "e29bb9cb-e459-4aab-b24d-390bc235f4b7",
    "name": "Bias Brewing",
    "brewery_type": "micro",
    "address_1": "409 1st Ave E Ste B",
    "address_2": null,
    "address_3": null,
    "city": "Kalispell",
    "state_province": "Montana",
    "postal_code": "59901",
    "country": "United States",
    "longitude": null,
    "latitude": null,
    "phone": "4067303020",
    "website_url": "http://www.biasbrewing.com",
    "state": "Montana",
    "street": "409 1st Ave E Ste B"
  },
  {
    "id": "0f7cb775-114f-4c6f-ad6b-4a3552568d91",
    "name": "Bickerson's Brewhouse",
    "brewery_type": "micro",
    "address_1": "4710 NE 4th St #C105",
    "address_2": null,
    "address_3": null,
    "city": "Renton",
    "state_province": "Washington",
    "postal_code": "98059",
    "country": "United States",
    "longitude": -122.1555405,
    "latitude": 47.48904979,
    "phone": "4254422347",
    "website_url": "https://www.bickersonsbrewhouse.com",
    "state": "Washington",
    "street": "4710 NE 4th St #C105"
  },
  {
    "id": "11737bcc-a377-45ea-a0fd-8e2295429015",
    "name": "Bier Brewery and Taproom",
    "brewery_type": "micro",
    "address_1": "5133 E 65th St",
    "address_2": null,
    "address_3": null,
    "city": "Indianapolis",
    "state_province": "Indiana",
    "postal_code": "46220-4816",
    "country": "United States",
    "longitude": null,
    "latitude": null,
    "phone": "3176960200",
    "website_url": "http://www.bierbrewery.com",
    "state": "Indiana",
    "street": "5133 E 65th St"
  },
  {
    "id": "6b5ae555-89e4-4363-baac-a21e3e93a5d1",
    "name": "Bier Distillery",
    "brewery_type": "micro",
    "address_1": "5295 West River Dr NE Ste 100",
    "address_2": null,
    "address_3": null,
    "city": "Comstock Park",
    "state_province": "Michigan",
    "postal_code": "49321-8030",
    "country": "United States",
    "longitude": null,
    "latitude": null,
    "phone": "6168889746",
    "website_url": "http://bierdistillery.com",
    "state": "Michigan",
    "street": "5295 West River Dr NE Ste 100"
  },
  {
    "id": "c6f9f271-cdbd-4342-b2dd-8399a3cd6670",
    "name": "Bier One Brewing",
    "brewery_type": "brewpub",
    "address_1": "424 SW Coast Hwy",
    "address_2": null,
    "address_3": null,
    "city": "Newport",
    "state_province": "Oregon",
    "postal_code": "97365-4930",
    "country": "United States",
    "longitude": -124.0572864,
    "latitude": 44.6330765,
    "phone": "5412654630",
    "website_url": "http://www.bier-one.com",
    "state": "Oregon",
    "street": "424 SW Coast Hwy"
  },
  {
    "id": "4af8972b-a42f-43c7-a871-c28ba96f378a",
    "name": "Biercamp",
    "brewery_type": "brewpub",
    "address_1": "1643 S State St",
    "address_2": null,
    "address_3": null,
    "city": "Ann Arbor",
    "state_province": "Michigan",
    "postal_code": "48104-4302",
    "country": "United States",
    "longitude": -83.740111,
    "latitude": 42.2586786,
    "phone": "7349952437",
    "website_url": "http://www.bier-camp.com",
    "state": "Michigan",
    "street": "1643 S State St"
  },
  {
    "id": "701239cb-5319-4d2e-92c1-129ab0b3b440",
    "name": "Bi\u00e8re de la Plaine",
    "brewery_type": "micro",
    "address_1": "16 Rue Saint Pierre",
    "address_2": null,
    "address_3": null,
    "city": "Marseille",
    "state_province": "Bouche du Rh\u00f4ne",
    "postal_code": "13006",
    "country": "France",
    "longitude": 5.38767154,
    "latitude": 43.29366192,
    "phone": "491473254",
    "website_url": "https://brasseriedelaplaine.fr/",
    "state": "Bouche du Rh\u00f4ne",
    "street": "16 Rue Saint Pierre"
  },
  {
    "id": "71ed116d-2a0c-405f-9595-66b00f37030d",
    "name": "Biere De Mac Brew Works",
    "brewery_type": "micro",
    "address_1": "14277 N Mackinaw Hwy",
    "address_2": null,
    "address_3": null,
    "city": "Mackinaw City",
    "state_province": "Michigan",
    "postal_code": "49701-8622",
    "country": "United States",
    "longitude": null,
    "latitude": null,
    "phone": "2314277007",
    "website_url": "http://www.bieredemac.com",
    "state": "Michigan",
    "street": "14277 N Mackinaw Hwy"
  },
  {
    "id": "a7ea14a8-dc7d-4cd5-8314-7632451807fe",
    "name": "Bierly Brewing @ Eats and Treats",
    "brewery_type": "brewpub",
    "address_1": "1644 Main St",
    "address_2": null,
    "address_3": null,
    "city": "Philomath",
    "state_province": "Oregon",
    "postal_code": "97370-9237",
    "country": "United States",
    "longitude": -123.3625416,
    "latitude": 44.539936,
    "phone": "5412575126",
    "website_url": null,
    "state": "Oregon",
    "street": "1644 Main St"
  },
  {
    "id": "c3d41248-80ed-4c14-8078-c100308e5450",
    "name": "Bierstadt Lagerhaus",
    "brewery_type": "brewpub",
    "address_1": "2875 Blake St",
    "address_2": null,
    "address_3": null,
    "city": "Denver",
    "state_province": "Colorado",
    "postal_code": "80205-2210",
    "country": "United States",
    "longitude": -104.9838084,
    "latitude": 39.7630094,
    "phone": "7205707824",
    "website_url": "http://www.bierstadtlager.com",
    "state": "Colorado",
    "street": "2875 Blake St"
  },
  {
    "id": "58bbeef3-65a9-4cdf-b2f3-0acb2c53f1f8",
    "name": "BierWerks",
    "brewery_type": "brewpub",
    "address_1": "121 E. Midland Ave",
    "address_2": null,
    "address_3": null,
    "city": "Woodland Park",
    "state_province": "Colorado",
    "postal_code": "80863",
    "country": "United States",
    "longitude": -105.0519462,
    "latitude": 38.9941414,
    "phone": "7196868100",
    "website_url": "http://www.bierwerks.com",
    "state": "Colorado",
    "street": "121 E. Midland Ave"
  },
  {
    "id": "6baafd1a-3faf-41f6-bce8-7f9c223b2d1c",
    "name": "Big Alice Brewing Company",
    "brewery_type": "micro",
    "address_1": "808 43rd Rd",
    "address_2": null,
    "address_3": null,
    "city": "Long Island City",
    "state_province": "New York",
    "postal_code": "11101-6820",
    "country": "United States",
    "longitude": null,
    "latitude": null,
    "phone": "3476882337",
    "website_url": "http://www.bigalicebrewing.com",
    "state": "New York",
    "street": "808 43rd Rd"
  },
  {
    "id": "97bb99d6-94da-4f54-8fe7-9d7d7f102556",
    "name": "Big Ash Brewing Company",
    "brewery_type": "planning",
    "address_1": null,
    "address_2": null,
    "address_3": null,
    "city": "Cincinnati",
    "state_province": "Ohio",
    "postal_code": "45244-3244",
    "country": "United States",
    "longitude": null,
    "latitude": null,
    "phone": "5133079688",
    "website_url": "http://www.BigAshBrewing.com",
    "state": "Ohio",
    "street": null
  },
  {
    "id": "03fe4348-0e01-446b-81af-dda8167284e8",
    "name": "Big Axe Brewing Company",
    "brewery_type": "brewpub",
    "address_1": "25435 Main St",
    "address_2": null,
    "address_3": null,
    "city": "Nisswa",
    "state_province": "Minnesota",
    "postal_code": "56468-5001",
    "country": "United States",
    "longitude": -94.2891095,
    "latitude": 46.5199477,
    "phone": "2189612337",
    "website_url": "http://www.bigaxebrewing.com",
    "state": "Minnesota",
    "street": "25435 Main St"
  },
  {
    "id": "b9237ad4-42fd-43e1-a953-19fc451f9601",
    "name": "Big Barn Brewing Co / Bodacious Berries Fruits and Brews",
    "brewery_type": "micro",
    "address_1": "16004 N Applewood Ln",
    "address_2": null,
    "address_3": null,
    "city": "Mead",
    "state_province": "Washington",
    "postal_code": "99021-7818",
    "country": "United States",
    "longitude": -117.266079,
    "latitude": 47.80652793,
    "phone": "5097102961",
    "website_url": "http://www.bigbarnbrewing.com",
    "state": "Washington",
    "street": "16004 N Applewood Ln"
  },
  {
    "id": "1dc47da7-faa4-498f-8e97-e83e74d1c79d",
    "name": "Big Beach Brewing Company",
    "brewery_type": "micro",
    "address_1": "300 E 24th Ave",
    "address_2": null,
    "address_3": null,
    "city": "Gulf Shores",
    "state_province": "Alabama",
    "postal_code": "36542-3104",
    "country": "United States",
    "longitude": -87.683039,
    "latitude": 30.278051,
    "phone": "2519482337",
    "website_url": "http://www.bigbeachbrewing.com",
    "state": "Alabama",
    "street": "300 E 24th Ave"
  },
  {
    "id": "1a67833a-71e7-482e-9f85-9726583aceb7",
    "name": "Big Bear Brewing Co",
    "brewery_type": "brewpub",
    "address_1": "1800 N University Dr",
    "address_2": null,
    "address_3": null,
    "city": "Coral Springs",
    "state_province": "Florida",
    "postal_code": "33071-6031",
    "country": "United States",
    "longitude": -80.2505088,
    "latitude": 26.2992083,
    "phone": "9543415545",
    "website_url": "http://www.bigbearbrewingco.com",
    "state": "Florida",
    "street": "1800 N University Dr"
  },
  {
    "id": "6ce0f40e-a10e-4dde-82a6-c51662b2fe09",
    "name": "Big Bear Lake Brewing Co",
    "brewery_type": "brewpub",
    "address_1": "40827 Stone Rd",
    "address_2": null,
    "address_3": null,
    "city": "Big Bear Lake",
    "state_province": "California",
    "postal_code": "92315",
    "country": "United States",
    "longitude": -116.9110287,
    "latitude": 34.2425583,
    "phone": "9098780283",
    "website_url": "http://www.bblbc.com",
    "state": "California",
    "street": "40827 Stone Rd"
  },
  {
    "id": "08d14e79-430e-448f-a264-7bc200af83d5",
    "name": "Big Bear Mountain Brewery",
    "brewery_type": "brewpub",
    "address_1": "40260 Big Bear Blvd",
    "address_2": null,
    "address_3": null,
    "city": "Big Bear Lake",
    "state_province": "California",
    "postal_code": "92315",
    "country": "United States",
    "longitude": -116.923042,
    "latitude": 34.23876062,
    "phone": "9098662337",
    "website_url": "http://www.mountainbrewery.com",
    "state": "California",
    "street": "40260 Big Bear Blvd"
  },
  {
    "id": "1b8be5f6-7f57-4a6e-830a-3d565e2e03d7",
    "name": "Big Beaver Brewing Co",
    "brewery_type": "micro",
    "address_1": "2707 W Eisenhower Blvd Ste 9",
    "address_2": null,
    "address_3": null,
    "city": "Loveland",
    "state_province": "Colorado",
    "postal_code": "80537-3141",
    "country": "United States",
    "longitude": null,
    "latitude": null,
    "phone": "9708186064",
    "website_url": "http://www.bigbeaverbrew.com",
    "state": "Colorado",
    "street": "2707 W Eisenhower Blvd Ste 9"
  },
  {
    "id": "5fe8f212-8c52-4183-85ff-687307298047",
    "name": "Big Bend Brewing Co",
    "brewery_type": "micro",
    "address_1": "3401 W Highway 90",
    "address_2": null,
    "address_3": null,
    "city": "Alpine",
    "state_province": "Texas",
    "postal_code": "79830-4127",
    "country": "United States",
    "longitude": null,
    "latitude": null,
    "phone": "4328373700",
    "website_url": "http://www.bigbendbrewing.com",
    "state": "Texas",
    "street": "3401 W Highway 90"
  },
  {
    "id": "d05957b0-56af-4e14-8e32-326fa3769253",
    "name": "Big Block Brewing",
    "brewery_type": "micro",
    "address_1": "3310 E Lake Sammamish Pkwy SE",
    "address_2": null,
    "address_3": null,
    "city": "Sammamish",
    "state_province": "Washington",
    "postal_code": "98075-7497",
    "country": "United States",
    "longitude": -122.07474,
    "latitude": 47.57926212,
    "phone": "4254570515",
    "website_url": "https://www.bigblockbrewery.com/sammamish-taproom",
    "state": "Washington",
    "street": "3310 E Lake Sammamish Pkwy SE"
  },
  {
    "id": "67d3c520-42cb-481f-9256-dfb29c62c3b4",
    "name": "Big Block Brewing - Carnation Taproom",
    "brewery_type": "micro",
    "address_1": "4534 Tolt Ave",
    "address_2": null,
    "address_3": null,
    "city": "Carnation",
    "state_province": "Washington",
    "postal_code": "98014-7627",
    "country": "United States",
    "longitude": -121.9136604029,
    "latitude": 47.648469887927,
    "phone": "4255490018",
    "website_url": "https://www.bigblockbrewery.com/carnation-taproom",
    "state": "Washington",
    "street": "4534 Tolt Ave"
  },
  {
    "id": "e4631ae5-8fbe-4576-8d03-cd284bec84cd",
    "name": "Big Block Brewing - Redmond Taproom",
    "brewery_type": "micro",
    "address_1": "14950 NE 95th St",
    "address_2": null,
    "address_3": null,
    "city": "Redmond",
    "state_province": "Washington",
    "postal_code": "98052-2500",
    "country": "United States",
    "longitude": -122.1410868,
    "latitude": 47.68654123,
    "phone": "4256583644",
    "website_url": "https://www.bigblockbrewery.com/redmond-taproom",
    "state": "Washington",
    "street": "14950 NE 95th St"
  },
  {
    "id": "b9f816db-8d71-4be2-9370-5100c2b1257a",
    "name": "Big Blue Brewing",
    "brewery_type": "brewpub",
    "address_1": "4721 SE 10th Pl",
    "address_2": null,
    "address_3": null,
    "city": "Cape Coral",
    "state_province": "Florida",
    "postal_code": "33904-9168",
    "country": "United States",
    "longitude": -81.95242639,
    "latitude": 26.56445895,
    "phone": "9737693294",
    "website_url": "http://www.bigbluebrewing.com",
    "state": "Florida",
    "street": "4721 SE 10th Pl"
  },
  {
    "id": "5071d551-c086-4480-a57f-d2dbfcd7fbcc",
    "name": "Big Boiler Brewing",
    "brewery_type": "brewpub",
    "address_1": "318 E Main St",
    "address_2": null,
    "address_3": null,
    "city": "Lowell",
    "state_province": "Michigan",
    "postal_code": "49331-1714",
    "country": "United States",
    "longitude": -85.33655351,
    "latitude": 42.93462931,
    "phone": "6169873155",
    "website_url": "http://bigboilerbrewing.com",
    "state": "Michigan",
    "street": "318 E Main St"
  },
  {
    "id": "b1813df6-ffad-4604-b909-874bfb56e41b",
    "name": "Big Boss Brewing Co",
    "brewery_type": "micro",
    "address_1": "1249 Wicker Dr Ste A",
    "address_2": null,
    "address_3": null,
    "city": "Raleigh",
    "state_province": "North Carolina",
    "postal_code": "27604-1683",
    "country": "United States",
    "longitude": null,
    "latitude": null,
    "phone": "9198340045",
    "website_url": "http://www.bigbossbrewing.com",
    "state": "North Carolina",
    "street": "1249 Wicker Dr Ste A"
  },
  {
    "id": "4dd9752b-954d-41fa-b899-c3e26aef7812",
    "name": "Big Bottom Brewery",
    "brewery_type": "micro",
    "address_1": "6 Tristan Dr",
    "address_2": null,
    "address_3": null,
    "city": "Dillsburg",
    "state_province": "Pennsylvania",
    "postal_code": "17019-1627",
    "country": "United States",
    "longitude": null,
    "latitude": null,
    "phone": "7175028800",
    "website_url": "http://www.facebook.com/bigbottombrewery",
    "state": "Pennsylvania",
    "street": "6 Tristan Dr"
  },
  {
    "id": "b203b9a5-a84a-461f-a64a-938adf44a7d4",
    "name": "Big Cat Brewing Company",
    "brewery_type": "brewpub",
    "address_1": "8699 S Good Harbor Trl",
    "address_2": null,
    "address_3": null,
    "city": "Cedar",
    "state_province": "Michigan",
    "postal_code": "49621-8580",
    "country": "United States",
    "longitude": -85.79311511,
    "latitude": 44.85319287,
    "phone": "2312282282",
    "website_url": "http://www.bigcatbrewingco.com",
    "state": "Michigan",
    "street": "8699 S Good Harbor Trl"
  },
  {
    "id": "b2ad6e2c-1bdc-45df-a0bc-c8e075949e75",
    "name": "Big Choice Brewing Co",
    "brewery_type": "micro",
    "address_1": "21 S 1st Ave",
    "address_2": null,
    "address_3": null,
    "city": "Brighton",
    "state_province": "Colorado",
    "postal_code": "80601-1603",
    "country": "United States",
    "longitude": -104.822433,
    "latitude": 39.98642943,
    "phone": "3034692616",
    "website_url": "http://www.bigchoicebrewing.com",
    "state": "Colorado",
    "street": "21 S 1st Ave"
  }
]