[
  {
    "id": "b8005ec5-1fc7-43bd-96e6-a5b185c927d8",
    "name": "Vision Quest Brewing Company",
    "brewery_type": "micro",
    "address_1": "2510 47th St Ste A2",
    "address_2": null,
    "address_3": null,
    "city": "Boulder",
    "state_province": "Colorado",
    "postal_code": "80301-2301",
    "country": "United States",
    "longitude": null,
    "latitude": null,
    "phone": "3038986802",
    "website_url": "http://www.visionquestbrewing.com",
    "state": "Colorado",
    "street": "2510 47th St Ste A2"
  },
  {
    "id": "c09360db-487f-487c-9c6b-d3acca6cef44",
    "name": "Vista Brewing",
    "brewery_type": "brewpub",
    "address_1": "13551 Ranch To Market Rd 150",
    "address_2": null,
    "address_3": null,
    "city": "Driftwood",
    "state_province": "Texas",
    "postal_code": "78619",
    "country": "United States",
    "longitude": null,
    "latitude": null,
    "phone": "5127661842",
    "website_url": "http://www.vistabrewingtx.com",
    "state": "Texas",
    "street": "13551 Ranch To Market Rd 150"
  },
  {
    "id": "affe57b1-0891-4df3-aef1-28a3546e6571",
    "name": "Vitamin Sea Brewing",
    "brewery_type": "planning",
    "address_1": null,
    "address_2": null,
    "address_3": null,
    "city": "Hull",
    "state_province": "Massachusetts",
    "postal_code": "02045-2907",
    "country": "United States",
    "longitude": null,
    "latitude": null,
    "phone": "7815894569",
    "website_url": null,
    "state": "Massachusetts",
    "street": null
  },
  {
    "id": "ba813e75-fa19-44a3-bab2-7927849962c2",
    "name": "Vivio's Food",
    "brewery_type": "planning",
    "address_1": null,
    "address_2": null,
    "address_3": null,
    "city": "Detroit",
    "state_province": "Michigan",
    "postal_code": "48207-4516",
    "country": "United States",
    "longitude": null,
    "latitude": null,
    "phone": "3133931711",
    "website_url": "http://www.viviosdetroit.com",
    "state": "Michigan",
    "street": null
  },
  {
    "id": "38ea89d3-a701-473e-a3cb-f46ede4706e7",
    "name": "Volunteer Brewing Company",
    "brewery_type": "micro",
    "address_1": "120 W Main St",
    "address_2": null,
    "address_3": null,
    "city": "Middletown",
    "state_province": "Delaware",
    "postal_code": "19709-1040",
    "country": "United States",
    "longitude": -75.71959161,
    "latitude": 39.44942786,
    "phone": "3024640822",
    "website_url": "http://www.VolunteerBrewing.com",
    "state": "Delaware",
    "street": "120 W Main St"
  },
  {
    "id": "70fe5224-37e2-431e-81ef-8b28168d4da4",
    "name": "Von Ebert Brewing",
    "brewery_type": "planning",
    "address_1": "14021 NE Glisan St",
    "address_2": null,
    "address_3": null,
    "city": "Portland",
    "state_province": "Oregon",
    "postal_code": "97230",
    "country": "United States",
    "longitude": -122.5187026,
    "latitude": 45.52726898,
    "phone": null,
    "website_url": null,
    "state": "Oregon",
    "street": "14021 NE Glisan St"
  },
  {
    "id": "4d346ad7-4bc6-4f61-b993-f066f610b7ef",
    "name": "Von Ebert Brewing",
    "brewery_type": "brewpub",
    "address_1": "131 NW 13th Ave",
    "address_2": null,
    "address_3": null,
    "city": "Portland",
    "state_province": "Oregon",
    "postal_code": "97209-4110",
    "country": "United States",
    "longitude": -122.6843058,
    "latitude": 45.52389727,
    "phone": "5038207721",
    "website_url": "http://vonebertbrewing.com",
    "state": "Oregon",
    "street": "131 NW 13th Ave"
  },
  {
    "id": "8b66ecf1-22be-4088-a57a-40cc876b554b",
    "name": "Von Jakob Winery",
    "brewery_type": "brewpub",
    "address_1": "230 Illinois Hwy 127",
    "address_2": null,
    "address_3": null,
    "city": "Alto Pass",
    "state_province": "Illinois",
    "postal_code": "62905",
    "country": "United States",
    "longitude": null,
    "latitude": null,
    "phone": "6188934600",
    "website_url": "http://www.vonjakob.com",
    "state": "Illinois",
    "street": "230 Illinois Hwy 127"
  },
  {
    "id": "bc0330df-68a5-497a-9a11-9ebb97352733",
    "name": "Von Scheidt Brewing Co",
    "brewery_type": "closed",
    "address_1": "157 2nd Ave W",
    "address_2": null,
    "address_3": null,
    "city": "Twin Falls",
    "state_province": "Idaho",
    "postal_code": "83301-6015",
    "country": "United States",
    "longitude": -114.471756,
    "latitude": 42.55561943,
    "phone": "2083299608",
    "website_url": "http://www.vonscheidtbrewing.com",
    "state": "Idaho",
    "street": "157 2nd Ave W"
  },
  {
    "id": "77a8265c-2d3b-4f30-babe-87a1e0a4c37d",
    "name": "Von Trapp Brewing",
    "brewery_type": "micro",
    "address_1": "1333 Luce Hill Rd",
    "address_2": null,
    "address_3": null,
    "city": "Stowe",
    "state_province": "Vermont",
    "postal_code": "05672",
    "country": "United States",
    "longitude": -72.791432,
    "latitude": 44.470714,
    "phone": "8022535750",
    "website_url": "http://www.trappfamily.com",
    "state": "Vermont",
    "street": "1333 Luce Hill Rd"
  },
  {
    "id": "c665c18b-4117-4c25-a4c9-df815a5bc1e0",
    "name": "VonSeitz TheoreticAles",
    "brewery_type": "micro",
    "address_1": "175 Hurricane Ridge Rd",
    "address_2": null,
    "address_3": null,
    "city": "Smithville",
    "state_province": "Tennessee",
    "postal_code": "37166",
    "country": "United States",
    "longitude": null,
    "latitude": null,
    "phone": "6153184008",
    "website_url": "http://www.theoreticales.com",
    "state": "Tennessee",
    "street": "175 Hurricane Ridge Rd"
  },
  {
    "id": "496767e9-72ae-432a-aa87-a530acb459ea",
    "name": "Voodoo Brewing Co",
    "brewery_type": "brewpub",
    "address_1": "215 1/2 Arch St",
    "address_2": null,
    "address_3": null,
    "city": "Meadville",
    "state_province": "Pennsylvania",
    "postal_code": "16335-3432",
    "country": "United States",
    "longitude": -80.154209,
    "latitude": 41.637124,
    "phone": "8143373676",
    "website_url": "http://www.voodoobrewery.com",
    "state": "Pennsylvania",
    "street": "215 1/2 Arch St"
  },
  {
    "id": "7df505f8-b60c-4824-8334-b71b7eabb15f",
    "name": "Voodoo Brewing Production Facility",
    "brewery_type": "brewpub",
    "address_1": "834 Bessemer St",
    "address_2": null,
    "address_3": null,
    "city": "Meadville",
    "state_province": "Pennsylvania",
    "postal_code": "16335",
    "country": "United States",
    "longitude": -80.15610217,
    "latitude": 41.64610467,
    "phone": "8143339123",
    "website_url": null,
    "state": "Pennsylvania",
    "street": "834 Bessemer St"
  },
  {
    "id": "2acbb347-c871-4db3-938f-13192f208b47",
    "name": "Vortex Alley Brewery",
    "brewery_type": "micro",
    "address_1": "220 E. Central Ave",
    "address_2": null,
    "address_3": null,
    "city": "Ponca City",
    "state_province": "Oklahoma",
    "postal_code": "74601",
    "country": "United States",
    "longitude": -97.08161761,
    "latitude": 36.7024929,
    "phone": "5803044781",
    "website_url": "http://www.vortexalleybrewing.com",
    "state": "Oklahoma",
    "street": "220 E. Central Ave"
  },
  {
    "id": "8bd0a895-229e-4e74-af13-771ddddf6562",
    "name": "Voyageur Brewing Co",
    "brewery_type": "brewpub",
    "address_1": "233 W Hwy 61",
    "address_2": null,
    "address_3": null,
    "city": "Grand Marais",
    "state_province": "Minnesota",
    "postal_code": "55604",
    "country": "United States",
    "longitude": null,
    "latitude": null,
    "phone": "2183873163",
    "website_url": null,
    "state": "Minnesota",
    "street": "233 W Hwy 61"
  },
  {
    "id": "9c00fd09-dced-443f-abe7-b6cee7d2fc6b",
    "name": "Vulgar Brewing Company",
    "brewery_type": "brewpub",
    "address_1": "375 Central St",
    "address_2": null,
    "address_3": null,
    "city": "Franklin",
    "state_province": "New Hampshire",
    "postal_code": "03235",
    "country": "United States",
    "longitude": null,
    "latitude": null,
    "phone": "6033331439",
    "website_url": "https://vbc.beer/",
    "state": "New Hampshire",
    "street": "375 Central St"
  },
  {
    "id": "975c847e-393d-4d2e-9e03-da0147218238",
    "name": "Wabash Brewing",
    "brewery_type": "micro",
    "address_1": "5328 W 79th St",
    "address_2": null,
    "address_3": null,
    "city": "Indianapolis",
    "state_province": "Indiana",
    "postal_code": "46268-1631",
    "country": "United States",
    "longitude": null,
    "latitude": null,
    "phone": "3179384458",
    "website_url": "http://www.wabashbrew.com",
    "state": "Indiana",
    "street": "5328 W 79th St"
  },
  {
    "id": "5d79c64c-7bdd-4287-9703-deeb3465f807",
    "name": "Wabasha Brewing Company",
    "brewery_type": "micro",
    "address_1": "429 Wabasha St S",
    "address_2": null,
    "address_3": null,
    "city": "Saint Paul",
    "state_province": "Minnesota",
    "postal_code": "55107-1126",
    "country": "United States",
    "longitude": -93.08472893,
    "latitude": 44.93295265,
    "phone": "6512242102",
    "website_url": "http://www.wabashabrewing.com",
    "state": "Minnesota",
    "street": "429 Wabasha St S"
  },
  {
    "id": "5f6a874b-33de-4387-928e-b095e03a58f8",
    "name": "Wachusett Brewing Co",
    "brewery_type": "regional",
    "address_1": "175 State Rd E",
    "address_2": null,
    "address_3": null,
    "city": "Westminster",
    "state_province": "Massachusetts",
    "postal_code": "01473-1208",
    "country": "United States",
    "longitude": -71.87294016,
    "latitude": 42.55783542,
    "phone": "9788749965",
    "website_url": "http://www.wachusettbrew.com",
    "state": "Massachusetts",
    "street": "175 State Rd E"
  },
  {
    "id": "8c9a9c66-ac4e-42b4-9dc7-1628eaf00af5",
    "name": "Wacker Brewing Co",
    "brewery_type": "micro",
    "address_1": "417 W Grant St",
    "address_2": null,
    "address_3": null,
    "city": "Lancaster",
    "state_province": "Pennsylvania",
    "postal_code": "17603",
    "country": "United States",
    "longitude": -76.31365439,
    "latitude": 40.03799427,
    "phone": "7176172711",
    "website_url": "http://www.wackerbrewing.com",
    "state": "Pennsylvania",
    "street": "417 W Grant St"
  },
  {
    "id": "bbea4e34-3881-457b-a8d5-764b12c2517d",
    "name": "Waconia Brewing Company",
    "brewery_type": "micro",
    "address_1": "255 W Main St",
    "address_2": null,
    "address_3": null,
    "city": "Waconia",
    "state_province": "Minnesota",
    "postal_code": "55387-1025",
    "country": "United States",
    "longitude": null,
    "latitude": null,
    "phone": "6128882739",
    "website_url": "http://www.waconiabrewing.com",
    "state": "Minnesota",
    "street": "255 W Main St"
  },
  {
    "id": "f4234744-1369-4cb2-8680-bef8b058c5bc",
    "name": "Waddell's Brewing Co.",
    "brewery_type": "closed",
    "address_1": "6501 N Cedar Rd Ste 1",
    "address_2": null,
    "address_3": null,
    "city": "Spokane",
    "state_province": "Washington",
    "postal_code": "99208-4571",
    "country": "United States",
    "longitude": null,
    "latitude": null,
    "phone": "5093217818",
    "website_url": "http://www.waddellsbrewery.com",
    "state": "Washington",
    "street": "6501 N Cedar Rd Ste 1"
  },
  {
    "id": "298c427c-b928-4d61-a268-9f09b793699f",
    "name": "Wadsworth Brewing Company",
    "brewery_type": "brewpub",
    "address_1": "126 Main St",
    "address_2": null,
    "address_3": null,
    "city": "Wadsworth",
    "state_province": "Ohio",
    "postal_code": "44281-1432",
    "country": "United States",
    "longitude": -81.72980288,
    "latitude": 41.02478661,
    "phone": "3304754935",
    "website_url": "http://www.wadsworthbrewingcompany.com",
    "state": "Ohio",
    "street": "126 Main St"
  },
  {
    "id": "735992cf-009c-457b-962a-28574c77db3c",
    "name": "Waganupa Brewing",
    "brewery_type": "micro",
    "address_1": "289 Clifford Dr Unit B",
    "address_2": null,
    "address_3": null,
    "city": "Lake Almanor",
    "state_province": "California",
    "postal_code": "96137-9641",
    "country": "United States",
    "longitude": -121.1301151,
    "latitude": 40.27765103,
    "phone": "5302593705",
    "website_url": "http://www.waganupa.com",
    "state": "California",
    "street": "289 Clifford Dr Unit B"
  },
  {
    "id": "bd5f13e7-c53f-4bfb-9845-619a7ad059e7",
    "name": "Wages Brewing Company",
    "brewery_type": "micro",
    "address_1": "1382 Bill Virdon Blvd",
    "address_2": null,
    "address_3": null,
    "city": "West Plains",
    "state_province": "Missouri",
    "postal_code": "65775-3383",
    "country": "United States",
    "longitude": -91.835109,
    "latitude": 36.72461005,
    "phone": "4172933119",
    "website_url": "http://www.wagesbrewco.com",
    "state": "Missouri",
    "street": "1382 Bill Virdon Blvd"
  },
  {
    "id": "2821037d-83b8-494d-bebd-da8bb7ed1481",
    "name": "Wagner Valley Brewing Co",
    "brewery_type": "micro",
    "address_1": "9322 Route 414",
    "address_2": null,
    "address_3": null,
    "city": "Lodi",
    "state_province": "New York",
    "postal_code": "14860-9641",
    "country": "United States",
    "longitude": null,
    "latitude": null,
    "phone": "6075826450",
    "website_url": "http://www.wagnerbrewing.com",
    "state": "New York",
    "street": "9322 Route 414"
  },
  {
    "id": "150e5041-28b6-4a3c-9dbe-2b739c4f1a1f",
    "name": "Waikiki Brewing Company",
    "brewery_type": "brewpub",
    "address_1": "1945 Kalakaua Ave",
    "address_2": null,
    "address_3": null,
    "city": "Honolulu",
    "state_province": "Hawaii",
    "postal_code": "96815-1851",
    "country": "United States",
    "longitude": -157.8334964,
    "latitude": 21.2858755,
    "phone": null,
    "website_url": "http://www.waikikibrewing.com",
    "state": "Hawaii",
    "street": "1945 Kalakaua Ave"
  },
  {
    "id": "7e06716a-cf35-431f-8097-611364da644c",
    "name": "Waikiki Brewing Company, Kaka'ako",
    "brewery_type": "micro",
    "address_1": "831 Queen St",
    "address_2": null,
    "address_3": null,
    "city": "Honolulu",
    "state_province": "Hawaii",
    "postal_code": "96813-5203",
    "country": "United States",
    "longitude": -157.8559271,
    "latitude": 21.29964432,
    "phone": null,
    "website_url": null,
    "state": "Hawaii",
    "street": "831 Queen St"
  },
  {
    "id": "32b7bb46-102b-45a3-800a-6dc7222fd731",
    "name": "Wake Brewing",
    "brewery_type": "micro",
    "address_1": "2529 5th Ave",
    "address_2": null,
    "address_3": null,
    "city": "Rock Island",
    "state_province": "Illinois",
    "postal_code": "61201",
    "country": "United States",
    "longitude": -90.50132856,
    "latitude": 41.51035669,
    "phone": "3095580878",
    "website_url": "http://www.wakebrewing.com",
    "state": "Illinois",
    "street": "2529 5th Ave"
  },
  {
    "id": "07fc25d5-1782-4022-a941-305925d8c9ab",
    "name": "Waldmann Brewery & Wurstery",
    "brewery_type": "brewpub",
    "address_1": "445 Smith Ave N",
    "address_2": null,
    "address_3": null,
    "city": "Saint Paul",
    "state_province": "Minnesota",
    "postal_code": "55102-2725",
    "country": "United States",
    "longitude": null,
    "latitude": null,
    "phone": "6512221857",
    "website_url": "http://www.waldmannbrewery.com",
    "state": "Minnesota",
    "street": "445 Smith Ave N"
  },
  {
    "id": "d046c044-cd15-464d-87b0-2bb25e634200",
    "name": "Walkabout Brewing Co",
    "brewery_type": "micro",
    "address_1": "921 Mason Way",
    "address_2": null,
    "address_3": null,
    "city": "Medford",
    "state_province": "Oregon",
    "postal_code": "97501",
    "country": "United States",
    "longitude": -122.9027355,
    "latitude": 42.34806544,
    "phone": "5417344677",
    "website_url": null,
    "state": "Oregon",
    "street": "921 Mason Way"
  },
  {
    "id": "bbd5c52e-ce60-4b89-a0fe-6c5f15324f40",
    "name": "Walking Man Brewing Co",
    "brewery_type": "micro",
    "address_1": "240 SW 1st St",
    "address_2": null,
    "address_3": null,
    "city": "Stevenson",
    "state_province": "Washington",
    "postal_code": "98648-6649",
    "country": "United States",
    "longitude": -121.88385512899,
    "latitude": 45.692482431816,
    "phone": "5094275520",
    "website_url": "http://www.walkingmanbeer.com",
    "state": "Washington",
    "street": "240 SW 1st St"
  },
  {
    "id": "eadec31f-a82e-40c6-97ce-a160689e95cd",
    "name": "Walking Tree Brewery",
    "brewery_type": "micro",
    "address_1": "3209 Dodger Rd",
    "address_2": null,
    "address_3": null,
    "city": "Vero Beach",
    "state_province": "Florida",
    "postal_code": "32960-7976",
    "country": "United States",
    "longitude": -80.41852475,
    "latitude": 27.6455742,
    "phone": "3055623717",
    "website_url": "http://www.walkingtreebrewery.com",
    "state": "Florida",
    "street": "3209 Dodger Rd"
  },
  {
    "id": "58d8f296-48fb-4385-bdfe-88ecc9d2684f",
    "name": "Wallace Brewing Co",
    "brewery_type": "micro",
    "address_1": "610 Bank St",
    "address_2": null,
    "address_3": null,
    "city": "Wallace",
    "state_province": "Idaho",
    "postal_code": "83873-2227",
    "country": "United States",
    "longitude": -115.9227103,
    "latitude": 47.47153133,
    "phone": "2085565600",
    "website_url": "http://www.wallacebrewing.com",
    "state": "Idaho",
    "street": "610 Bank St"
  },
  {
    "id": "6a6b79df-5cd8-4b54-9cf7-021fd47069bb",
    "name": "Walldorff Brewpub & Bistro",
    "brewery_type": "brewpub",
    "address_1": "105 E State St",
    "address_2": null,
    "address_3": null,
    "city": "Hastings",
    "state_province": "Michigan",
    "postal_code": "49058-1808",
    "country": "United States",
    "longitude": -85.284584,
    "latitude": 42.6487487,
    "phone": "2699454400",
    "website_url": "http://www.walldorffbrewpub.com",
    "state": "Michigan",
    "street": "105 E State St"
  },
  {
    "id": "6a7acc2e-1fd6-47a7-ab20-83ac86aad50c",
    "name": "Wallenpaupack Brewing Company",
    "brewery_type": "brewpub",
    "address_1": "73 Welwood Ave",
    "address_2": null,
    "address_3": null,
    "city": "Hawley",
    "state_province": "Pennsylvania",
    "postal_code": "18428-1500",
    "country": "United States",
    "longitude": -75.17619182,
    "latitude": 41.46873956,
    "phone": "5703907933",
    "website_url": "http://www.wallenpaupackbrewingco.com",
    "state": "Pennsylvania",
    "street": "73 Welwood Ave"
  },
  {
    "id": "32cee56d-132f-404d-a744-598476b6351c",
    "name": "Walnut River Brewing Company",
    "brewery_type": "micro",
    "address_1": "111 W Locust Ave",
    "address_2": null,
    "address_3": null,
    "city": "El Dorado",
    "state_province": "Kansas",
    "postal_code": "67042-3513",
    "country": "United States",
    "longitude": -96.85004869,
    "latitude": 37.81367549,
    "phone": "3163518086",
    "website_url": "http://www.walnutriverbrewing.com",
    "state": "Kansas",
    "street": "111 W Locust Ave"
  },
  {
    "id": "506021c9-6f03-49a4-b7f2-55f68f23f365",
    "name": "Walter Brewing Company",
    "brewery_type": "micro",
    "address_1": "126 Oneida St",
    "address_2": null,
    "address_3": null,
    "city": "Pueblo",
    "state_province": "Colorado",
    "postal_code": "81003-3424",
    "country": "United States",
    "longitude": -104.6103677,
    "latitude": 38.26241645,
    "phone": "7195420766",
    "website_url": "http://www.waltersbeer.com",
    "state": "Colorado",
    "street": "126 Oneida St"
  },
  {
    "id": "4435d82d-70bf-4e0d-90df-d9b849ed8931",
    "name": "Walter Station Brewery",
    "brewery_type": "planning",
    "address_1": null,
    "address_2": null,
    "address_3": null,
    "city": "Phoenix",
    "state_province": "Arizona",
    "postal_code": "85034-1820",
    "country": "United States",
    "longitude": -112.0773456,
    "latitude": 33.4485866,
    "phone": "2674216316",
    "website_url": "http://www.walterstation.beer",
    "state": "Arizona",
    "street": null
  },
  {
    "id": "1b75785d-e64b-4c39-bc06-8650d653e2a6",
    "name": "Waltz Brewing",
    "brewery_type": "micro",
    "address_1": "1900 A St",
    "address_2": null,
    "address_3": null,
    "city": "Forest Grove",
    "state_province": "Oregon",
    "postal_code": "97116-2303",
    "country": "United States",
    "longitude": -123.1142562,
    "latitude": 45.5185238,
    "phone": "5038966057",
    "website_url": "http://www.waltzbrewing.com",
    "state": "Oregon",
    "street": "1900 A St"
  },
  {
    "id": "b93629ce-5fd4-407e-88dc-af339c012b2e",
    "name": "Wander Brewing",
    "brewery_type": "micro",
    "address_1": "1807 Dean Ave",
    "address_2": null,
    "address_3": null,
    "city": "Bellingham",
    "state_province": "Washington",
    "postal_code": "98225-4616",
    "country": "United States",
    "longitude": -122.4737559,
    "latitude": 48.75410947,
    "phone": "3606476152",
    "website_url": "http://www.wanderbrewing.com",
    "state": "Washington",
    "street": "1807 Dean Ave"
  },
  {
    "id": "4bf53592-21c4-46b8-96a8-595144ed971d",
    "name": "Wandering Griffin",
    "brewery_type": "planning",
    "address_1": null,
    "address_2": null,
    "address_3": null,
    "city": "Beavercreek",
    "state_province": "Ohio",
    "postal_code": "45324-9095",
    "country": "United States",
    "longitude": null,
    "latitude": null,
    "phone": "9379565216",
    "website_url": "http://www.wanderinggriffin.com",
    "state": "Ohio",
    "street": null
  },
  {
    "id": "e4889e72-ac10-44c1-8dc8-ede75496a898",
    "name": "Wandering Hop Brewery",
    "brewery_type": "micro",
    "address_1": "508 N 20th Ave",
    "address_2": null,
    "address_3": null,
    "city": "Yakima",
    "state_province": "Washington",
    "postal_code": "98902-1839",
    "country": "United States",
    "longitude": -120.5356617,
    "latitude": 46.60627214,
    "phone": "5099018011",
    "website_url": "http://www.wanderinghop.com",
    "state": "Washington",
    "street": "508 N 20th Ave"
  },
  {
    "id": "60cc92dc-9216-4fff-81cf-24d84adfe8aa",
    "name": "Wandering Star Brewing Co",
    "brewery_type": "micro",
    "address_1": "11 Gifford St",
    "address_2": null,
    "address_3": null,
    "city": "Pittsfield",
    "state_province": "Massachusetts",
    "postal_code": "01201-3701",
    "country": "United States",
    "longitude": -73.21202303,
    "latitude": 42.45706449,
    "phone": "9175733942",
    "website_url": "http://www.wanderingstarbrewing.com",
    "state": "Massachusetts",
    "street": "11 Gifford St"
  },
  {
    "id": "97442f4a-e025-4be1-b523-20b48e48e0b2",
    "name": "WanderLinger Brewing Co",
    "brewery_type": "planning",
    "address_1": null,
    "address_2": null,
    "address_3": null,
    "city": "Chattanooga",
    "state_province": "Tennessee",
    "postal_code": "37403-4331",
    "country": "United States",
    "longitude": null,
    "latitude": null,
    "phone": "6156535407",
    "website_url": "http://www.wanderlinger.com",
    "state": "Tennessee",
    "street": null
  },
  {
    "id": "4c4bc3c0-81f1-483c-831f-64994ae72105",
    "name": "Wanderlust Brewing Company",
    "brewery_type": "micro",
    "address_1": "1519 N Main St Ste 102",
    "address_2": null,
    "address_3": null,
    "city": "Flagstaff",
    "state_province": "Arizona",
    "postal_code": "86004-4970",
    "country": "United States",
    "longitude": null,
    "latitude": null,
    "phone": "9283517952",
    "website_url": "http://www.wanderlustbrewing.com",
    "state": "Arizona",
    "street": "1519 N Main St Ste 102"
  },
  {
    "id": "cd97ead9-98b6-43c6-802b-cb943b9ae469",
    "name": "Wapn\u00f6 G\u00e5rd",
    "brewery_type": "micro",
    "address_1": "Wapn\u00f6 G\u00e5rd 215",
    "address_2": null,
    "address_3": null,
    "city": "Halmstad",
    "state_province": "Halland",
    "postal_code": "305 91",
    "country": "Sweden",
    "longitude": null,
    "latitude": null,
    "phone": "+46 35 299 03 00",
    "website_url": "https://www.wapno.se/en-gb/",
    "state": "Halland",
    "street": "Wapn\u00f6 G\u00e5rd 215"
  },
  {
    "id": "fe1a5d83-f9d0-4f80-9e0e-5553442a99a5",
    "name": "War Flag Brewing Co",
    "brewery_type": "proprietor",
    "address_1": "649 Morgan Ave Ste B16-5",
    "address_2": null,
    "address_3": null,
    "city": "Brooklyn",
    "state_province": "New York",
    "postal_code": "11222-3940",
    "country": "United States",
    "longitude": null,
    "latitude": null,
    "phone": "6466968096",
    "website_url": "http://www.warflag.nyc",
    "state": "New York",
    "street": "649 Morgan Ave Ste B16-5"
  },
  {
    "id": "760e1abe-0311-49a4-b025-893d6da40335",
    "name": "War Horse Brewing Company",
    "brewery_type": "brewpub",
    "address_1": "623 Lerch Rd Ste 5",
    "address_2": null,
    "address_3": null,
    "city": "Geneva",
    "state_province": "New York",
    "postal_code": "14456-9295",
    "country": "United States",
    "longitude": null,
    "latitude": null,
    "phone": "3155854432",
    "website_url": "http://www.3brotherswinery.com",
    "state": "New York",
    "street": "623 Lerch Rd Ste 5"
  },
  {
    "id": "86ac6974-4c49-4e84-8d51-47f97fda5ac4",
    "name": "WAR WATER BREWERY",
    "brewery_type": "brewpub",
    "address_1": "201 N Riverside Ave Ste C1-11",
    "address_2": null,
    "address_3": null,
    "city": "Saint Clair",
    "state_province": "Michigan",
    "postal_code": "48079-5498",
    "country": "United States",
    "longitude": null,
    "latitude": null,
    "phone": "8102893921",
    "website_url": "http://www.warwaterbrewery.com",
    "state": "Michigan",
    "street": "201 N Riverside Ave Ste C1-11"
  }
]