[
  {
    "id": "625c43c9-7a7d-4434-abb2-fac1028b28ae",
    "name": "Seven Jars Products",
    "brewery_type": "micro",
    "address_1": "6148-B Brookshire Blvd",
    "address_2": null,
    "address_3": null,
    "city": "Charlotte",
    "state_province": "North Carolina",
    "postal_code": "28216",
    "country": "United States",
    "longitude": null,
    "latitude": null,
    "phone": "7049190278",
    "website_url": "http://sevenjars.com/brewery",
    "state": "North Carolina",
    "street": "6148-B Brookshire Blvd"
  },
  {
    "id": "6a4851e9-4d90-4cdd-a96b-0b794f93e887",
    "name": "Seven Sirens Brewing Company",
    "brewery_type": "planning",
    "address_1": null,
    "address_2": null,
    "address_3": null,
    "city": "Bethlehem",
    "state_province": "Pennsylvania",
    "postal_code": "18015",
    "country": "United States",
    "longitude": null,
    "latitude": null,
    "phone": "4842396544",
    "website_url": null,
    "state": "Pennsylvania",
    "street": null
  },
  {
    "id": "b1f636c4-b1b6-44dc-9ea5-637da406d097",
    "name": "Seven Stills",
    "brewery_type": "micro",
    "address_1": "100 Hooper St Ste. 4",
    "address_2": null,
    "address_3": null,
    "city": "San Francisco",
    "state_province": "California",
    "postal_code": "94107",
    "country": "United States",
    "longitude": -122.3991969,
    "latitude": 37.76881492,
    "phone": "4157570178",
    "website_url": "http://www.sevenstillsofsf.com",
    "state": "California",
    "street": "100 Hooper St Ste. 4"
  },
  {
    "id": "cf69d73b-a98d-456a-b50d-e65e88134e20",
    "name": "Seven Stills",
    "brewery_type": "micro",
    "address_1": "3645 Lawton St",
    "address_2": null,
    "address_3": null,
    "city": "San Francisco",
    "state_province": "California",
    "postal_code": "94112",
    "country": "United States",
    "longitude": -122.5022326,
    "latitude": 37.75694059,
    "phone": "4153403654",
    "website_url": "http://www.sevenstillsofsf.com",
    "state": "California",
    "street": "3645 Lawton St"
  },
  {
    "id": "efd1757f-4c9f-4bcc-a4b1-0b8dc5ae0326",
    "name": "Sevens Brew Pub",
    "brewery_type": "brewpub",
    "address_1": "5857 Route 96",
    "address_2": null,
    "address_3": null,
    "city": "Farmington",
    "state_province": "New York",
    "postal_code": "14425",
    "country": "United States",
    "longitude": null,
    "latitude": null,
    "phone": "5959243232",
    "website_url": "http://www.fingerlakesgaming.com",
    "state": "New York",
    "street": "5857 Route 96"
  },
  {
    "id": "81491cd1-e954-4409-bc3c-b5a7b2dc7c3d",
    "name": "Seventh Son Brewing Co",
    "brewery_type": "micro",
    "address_1": "1101 N 4th St",
    "address_2": null,
    "address_3": null,
    "city": "Columbus",
    "state_province": "Ohio",
    "postal_code": "43201-3683",
    "country": "United States",
    "longitude": -83.0019404,
    "latitude": 39.985351,
    "phone": "6144212337",
    "website_url": "http://www.seventhsonbrewing.com",
    "state": "Ohio",
    "street": "1101 N 4th St"
  },
  {
    "id": "524df279-0a14-4e66-958e-f67a1e172731",
    "name": "Severance Brewing Company",
    "brewery_type": "micro",
    "address_1": "701 N Phillips Ave",
    "address_2": null,
    "address_3": null,
    "city": "Sioux Falls",
    "state_province": "South Dakota",
    "postal_code": "57104-1623",
    "country": "United States",
    "longitude": -96.72724272,
    "latitude": 43.5560742,
    "phone": "6052715480",
    "website_url": "http://severancebeer.com/",
    "state": "South Dakota",
    "street": "701 N Phillips Ave"
  },
  {
    "id": "b9f88dc8-a3b6-40b5-9875-b16095b2993c",
    "name": "Sew Hop'd Brewery LLC",
    "brewery_type": "planning",
    "address_1": null,
    "address_2": null,
    "address_3": null,
    "city": "Huntley",
    "state_province": "Illinois",
    "postal_code": "60142",
    "country": "United States",
    "longitude": null,
    "latitude": null,
    "phone": "8476694501",
    "website_url": "http://www.sewhopd.com",
    "state": "Illinois",
    "street": null
  },
  {
    "id": "b54fad5f-9951-461c-b393-e1993698a69b",
    "name": "Seward Brewing",
    "brewery_type": "brewpub",
    "address_1": "139 4th Ave",
    "address_2": null,
    "address_3": null,
    "city": "Seward",
    "state_province": "Alaska",
    "postal_code": "99664",
    "country": "United States",
    "longitude": -149.440886,
    "latitude": 60.101258,
    "phone": "9074220337",
    "website_url": "http://www.sewardbrewingcompany.com",
    "state": "Alaska",
    "street": "139 4th Ave"
  },
  {
    "id": "a5252773-86c6-4b69-a224-8c9e07598c75",
    "name": "SFLBrewery In Planning",
    "brewery_type": "planning",
    "address_1": null,
    "address_2": null,
    "address_3": null,
    "city": "Weston",
    "state_province": "Florida",
    "postal_code": "33326-4041",
    "country": "United States",
    "longitude": null,
    "latitude": null,
    "phone": null,
    "website_url": null,
    "state": "Florida",
    "street": null
  },
  {
    "id": "83df9a40-1c9b-4854-a84c-86bd9c32f8b2",
    "name": "Shacketts Brewing Company",
    "brewery_type": "micro",
    "address_1": "26 Central Square",
    "address_2": null,
    "address_3": null,
    "city": "Bristol",
    "state_province": "New Hampshire",
    "postal_code": "03222",
    "country": "United States",
    "longitude": null,
    "latitude": null,
    "phone": "6032177730",
    "website_url": null,
    "state": "New Hampshire",
    "street": "26 Central Square"
  },
  {
    "id": "02585410-3bdb-41d1-96b9-e44ee53be372",
    "name": "Shade Tree Brewing",
    "brewery_type": "micro",
    "address_1": "19305 Indian Summer Rd",
    "address_2": null,
    "address_3": null,
    "city": "Bend",
    "state_province": "Oregon",
    "postal_code": "97702",
    "country": "United States",
    "longitude": -121.3588559,
    "latitude": 43.99269969,
    "phone": "5413833730",
    "website_url": "http://www.shadetreebrewing.com",
    "state": "Oregon",
    "street": "19305 Indian Summer Rd"
  },
  {
    "id": "9d2a7779-6e21-4052-8c9a-a7a14fe70af1",
    "name": "Shade Tree Saloon & Grill",
    "brewery_type": "brewpub",
    "address_1": "13530 Hwy 281 N",
    "address_2": null,
    "address_3": null,
    "city": "Spring Branch",
    "state_province": "Texas",
    "postal_code": "78070",
    "country": "United States",
    "longitude": null,
    "latitude": null,
    "phone": "8308855550",
    "website_url": "http://www.shadetreesaloon.com",
    "state": "Texas",
    "street": "13530 Hwy 281 N"
  },
  {
    "id": "23a4fe98-b79e-4031-977a-29a4776e59a2",
    "name": "Shades Brewery",
    "brewery_type": "micro",
    "address_1": "154 W Utopia Ave",
    "address_2": null,
    "address_3": null,
    "city": "Salt Lake City",
    "state_province": "Utah",
    "postal_code": "84115-2507",
    "country": "United States",
    "longitude": -111.895566,
    "latitude": 40.7240264,
    "phone": "4352003009",
    "website_url": "https://www.shadesbrewing.beer",
    "state": "Utah",
    "street": "154 W Utopia Ave"
  },
  {
    "id": "ecc1dfba-f441-4798-9749-e7bbdae86b6e",
    "name": "Shadow Puppet Brewing Company",
    "brewery_type": "brewpub",
    "address_1": "4771 Arroyo Vis Ste B",
    "address_2": null,
    "address_3": null,
    "city": "Livermore",
    "state_province": "California",
    "postal_code": "94551-4847",
    "country": "United States",
    "longitude": -121.7392687,
    "latitude": 37.69918669,
    "phone": "9254536498",
    "website_url": "http://www.shadowpuppetbrewing.com",
    "state": "California",
    "street": "4771 Arroyo Vis Ste B"
  },
  {
    "id": "a9b450fc-d3d8-4437-9b51-1f945243f882",
    "name": "ShadowView Brewing",
    "brewery_type": "planning",
    "address_1": null,
    "address_2": null,
    "address_3": null,
    "city": "Woodstock",
    "state_province": "Illinois",
    "postal_code": "60098-6911",
    "country": "United States",
    "longitude": null,
    "latitude": null,
    "phone": "8477779323",
    "website_url": "http://www.shadowviewbrewing.com",
    "state": "Illinois",
    "street": null
  },
  {
    "id": "20463428-1d27-4391-83f7-3fd7b838c3c0",
    "name": "Shady Oak Barrel House",
    "brewery_type": "micro",
    "address_1": "420 1st St",
    "address_2": null,
    "address_3": null,
    "city": "Santa Rosa",
    "state_province": "California",
    "postal_code": "95401-6339",
    "country": "United States",
    "longitude": -122.7154726,
    "latitude": 38.43709396,
    "phone": "7075958958",
    "website_url": "http://shadyoakbarrelhouse.com",
    "state": "California",
    "street": "420 1st St"
  },
  {
    "id": "9ec301b9-5b19-4277-9c8c-4b59576ae1c9",
    "name": "Shaidzon Beer Company, LLC",
    "brewery_type": "micro",
    "address_1": "141 Fairgrounds Rd.",
    "address_2": null,
    "address_3": null,
    "city": "West Kingston",
    "state_province": "Rhode Island",
    "postal_code": "02892",
    "country": "United States",
    "longitude": -71.56763232,
    "latitude": 41.48127985,
    "phone": "4013148730",
    "website_url": "http://www.shaidzonbeerco.com",
    "state": "Rhode Island",
    "street": "141 Fairgrounds Rd."
  },
  {
    "id": "820ff9c7-8083-4573-9f36-e57f7bece0f7",
    "name": "Shakopee Brewhall",
    "brewery_type": "micro",
    "address_1": "124 1st Ave E",
    "address_2": null,
    "address_3": null,
    "city": "Shakopee",
    "state_province": "Minnesota",
    "postal_code": "55379-1310",
    "country": "United States",
    "longitude": -93.5258437,
    "latitude": 44.7985452,
    "phone": "9525824292",
    "website_url": "http://www.shakopeebrewhall.com",
    "state": "Minnesota",
    "street": "124 1st Ave E"
  },
  {
    "id": "a4459eb6-9f7b-45b2-b060-2aed5d7169d4",
    "name": "Shale Brewing Co",
    "brewery_type": "micro",
    "address_1": "7253 Whipple Ave NW",
    "address_2": null,
    "address_3": null,
    "city": "North Canton",
    "state_province": "Ohio",
    "postal_code": "44720",
    "country": "United States",
    "longitude": -81.422424,
    "latitude": 40.866706,
    "phone": "3307768812",
    "website_url": "http://www.shalebrewing.com",
    "state": "Ohio",
    "street": "7253 Whipple Ave NW"
  },
  {
    "id": "ed8f70f3-466a-49c4-a4f3-ec51ee6093a0",
    "name": "Shamrock Brewing Company",
    "brewery_type": "brewpub",
    "address_1": "108 W 3rd St",
    "address_2": null,
    "address_3": null,
    "city": "Pueblo",
    "state_province": "Colorado",
    "postal_code": "81003-3225",
    "country": "United States",
    "longitude": -104.6078644,
    "latitude": 38.26965302,
    "phone": "7195429974",
    "website_url": "http://www.shamrockbrewing.com",
    "state": "Colorado",
    "street": "108 W 3rd St"
  },
  {
    "id": "17d0b9b5-8782-4f73-8ca5-d9fc1b1e2b13",
    "name": "Shannon Brewing Company, LLC",
    "brewery_type": "micro",
    "address_1": "818 N Main St",
    "address_2": null,
    "address_3": null,
    "city": "Keller",
    "state_province": "Texas",
    "postal_code": "76248-3801",
    "country": "United States",
    "longitude": -97.25396446,
    "latitude": 32.94797684,
    "phone": "8173379892",
    "website_url": "http://www.shannonbrewing.com",
    "state": "Texas",
    "street": "818 N Main St"
  },
  {
    "id": "add5d596-7b50-45f2-8b7b-0152e638124d",
    "name": "Shanty Irish Brewing Company/Rooney's Irish Pub",
    "brewery_type": "closed",
    "address_1": "241 S Broadway St",
    "address_2": null,
    "address_3": null,
    "city": "Santa Maria",
    "state_province": "California",
    "postal_code": "93455-4657",
    "country": "United States",
    "longitude": -120.4359806,
    "latitude": 34.95220575,
    "phone": "8059343777",
    "website_url": "http://www.rooneysirishpub.net",
    "state": "California",
    "street": "241 S Broadway St"
  },
  {
    "id": "1d9847fa-918e-4962-8f11-20748380d85b",
    "name": "Shanty Shack Brewing",
    "brewery_type": "brewpub",
    "address_1": "138 Fern St",
    "address_2": null,
    "address_3": null,
    "city": "Santa Cruz",
    "state_province": "California",
    "postal_code": "95060-2118",
    "country": "United States",
    "longitude": -122.030853,
    "latitude": 36.9859968,
    "phone": "8313160800",
    "website_url": "http://shantyshackbrewing.com",
    "state": "California",
    "street": "138 Fern St"
  },
  {
    "id": "0c676482-5235-4212-b9fd-2fb977e56487",
    "name": "Shattuck Brewery",
    "brewery_type": "micro",
    "address_1": "52106 Hwy 8",
    "address_2": null,
    "address_3": null,
    "city": "Elk River",
    "state_province": "Idaho",
    "postal_code": "83827",
    "country": "United States",
    "longitude": -116.191962,
    "latitude": 46.778848,
    "phone": null,
    "website_url": "http://www.shattuckbrewery.com",
    "state": "Idaho",
    "street": "52106 Hwy 8"
  },
  {
    "id": "6af2107d-649c-4dca-b2de-029a34638dae",
    "name": "Shawnee Craft Brewery",
    "brewery_type": "brewpub",
    "address_1": "1 River Rd",
    "address_2": null,
    "address_3": null,
    "city": "Shawnee on Delaware",
    "state_province": "Pennsylvania",
    "postal_code": "18356",
    "country": "United States",
    "longitude": -75.1107249,
    "latitude": 41.0118539,
    "phone": "5704244000",
    "website_url": null,
    "state": "Pennsylvania",
    "street": "1 River Rd"
  },
  {
    "id": "a4b896e5-db07-4193-a28b-1ece5ce84e58",
    "name": "Shebeen Brewing Company",
    "brewery_type": "closed",
    "address_1": "1 Wolcott Rd",
    "address_2": null,
    "address_3": null,
    "city": "Wolcott",
    "state_province": "Connecticut",
    "postal_code": "06716-2611",
    "country": "United States",
    "longitude": -73.000062,
    "latitude": 41.575855,
    "phone": "2035142336",
    "website_url": "http://www.shebeenbrewing.com",
    "state": "Connecticut",
    "street": "1 Wolcott Rd"
  },
  {
    "id": "4c341d27-de9a-4840-8590-dd1b7d7e180f",
    "name": "Sheep Mountain Brewery",
    "brewery_type": "micro",
    "address_1": "85 Meadow Plains Rd",
    "address_2": null,
    "address_3": null,
    "city": "Laramie",
    "state_province": "Wyoming",
    "postal_code": "82070-8527",
    "country": "United States",
    "longitude": -106.00943837453,
    "latitude": 41.271506208614,
    "phone": "3076890220",
    "website_url": null,
    "state": "Wyoming",
    "street": "85 Meadow Plains Rd"
  },
  {
    "id": "da2a220d-dd8f-455d-ba9e-ab8d512dbefd",
    "name": "Sheepscot Valley Brewing Co",
    "brewery_type": "micro",
    "address_1": "74 Hollywood Blvd",
    "address_2": null,
    "address_3": null,
    "city": "Whitefield",
    "state_province": "Maine",
    "postal_code": "04353-3729",
    "country": "United States",
    "longitude": null,
    "latitude": null,
    "phone": "2075495530",
    "website_url": "http://www.sheepscotbrewing.com",
    "state": "Maine",
    "street": "74 Hollywood Blvd"
  },
  {
    "id": "b0915552-89e6-437d-ad2e-c9141c3b0ecb",
    "name": "Shelter Island Craft Brewery",
    "brewery_type": "brewpub",
    "address_1": "55 N Ferry Rd",
    "address_2": null,
    "address_3": null,
    "city": "Shelter Island",
    "state_province": "New York",
    "postal_code": "11964",
    "country": "United States",
    "longitude": -72.33987616,
    "latitude": 41.0714822,
    "phone": "6317495977",
    "website_url": "http://www.home.shelterislandcraftbrewery.com",
    "state": "New York",
    "street": "55 N Ferry Rd"
  },
  {
    "id": "92dd6146-0d7b-489b-8607-76db257492e8",
    "name": "Shenandoah Valley Brewing Company",
    "brewery_type": "micro",
    "address_1": "19 Middlebrook Ave",
    "address_2": null,
    "address_3": null,
    "city": "Staunton",
    "state_province": "Virginia",
    "postal_code": "24401-4259",
    "country": "United States",
    "longitude": -79.07377931,
    "latitude": 38.1472346,
    "phone": "5408872337",
    "website_url": "http://www.shenvalbrew.com",
    "state": "Virginia",
    "street": "19 Middlebrook Ave"
  },
  {
    "id": "0fd5b8e5-1941-4bb6-95da-9e2ed09dd6a8",
    "name": "Sheridan Brewing company",
    "brewery_type": "micro",
    "address_1": null,
    "address_2": null,
    "address_3": null,
    "city": "Sheridan",
    "state_province": "Wyoming",
    "postal_code": "82801",
    "country": "United States",
    "longitude": null,
    "latitude": null,
    "phone": "3076735333",
    "website_url": "https://sheridanbeer.com",
    "state": "Wyoming",
    "street": null
  },
  {
    "id": "ce3c744d-ba60-47b2-9260-53593f6af57b",
    "name": "Sherpa Brewery Pvt. Ltd.",
    "brewery_type": "contract",
    "address_1": "1708 W 17th Dr",
    "address_2": null,
    "address_3": null,
    "city": "Golden",
    "state_province": "Colorado",
    "postal_code": "80401-2507",
    "country": "United States",
    "longitude": -105.1963424,
    "latitude": 39.7443713,
    "phone": null,
    "website_url": null,
    "state": "Colorado",
    "street": "1708 W 17th Dr"
  },
  {
    "id": "80300e21-0491-4835-8d5e-660c45fcc2c6",
    "name": "Sherwood Brewing Co",
    "brewery_type": "brewpub",
    "address_1": "45689 Hayes Rd",
    "address_2": null,
    "address_3": null,
    "city": "Shelby Township",
    "state_province": "Michigan",
    "postal_code": "48315-6214",
    "country": "United States",
    "longitude": -82.97361414,
    "latitude": 42.63202014,
    "phone": "5865329669",
    "website_url": "http://www.sherwoodbrewing.com",
    "state": "Michigan",
    "street": "45689 Hayes Rd"
  },
  {
    "id": "2efebbef-cc50-428c-a2e5-5a21c5bcf731",
    "name": "Shiny Top Brewing",
    "brewery_type": "micro",
    "address_1": "520 Central Ave",
    "address_2": null,
    "address_3": null,
    "city": "Fort Dodge",
    "state_province": "Iowa",
    "postal_code": "50501-3810",
    "country": "United States",
    "longitude": -94.19057896,
    "latitude": 42.50474204,
    "phone": "5153028055",
    "website_url": "http://www.shinytopbrewing.com",
    "state": "Iowa",
    "street": "520 Central Ave"
  },
  {
    "id": "f0e43f16-db91-418d-a56a-1f1bcfc32ae1",
    "name": "Ship Bottom Brewery",
    "brewery_type": "micro",
    "address_1": "830 N Bay Ave, Store 23",
    "address_2": null,
    "address_3": null,
    "city": "Beach Haven",
    "state_province": "New Jersey",
    "postal_code": "08008-2053",
    "country": "United States",
    "longitude": null,
    "latitude": null,
    "phone": "6092076331",
    "website_url": "http://www.shipbottombrewery.com",
    "state": "New Jersey",
    "street": "830 N Bay Ave, Store 23"
  },
  {
    "id": "d5f30d02-1b70-4254-8535-ff5877cb0406",
    "name": "Ship's Wheel Hard Cider",
    "brewery_type": "micro",
    "address_1": "1033 E Montague Ave",
    "address_2": null,
    "address_3": null,
    "city": "North Charleston",
    "state_province": "South Carolina",
    "postal_code": "29405",
    "country": "United States",
    "longitude": -79.97517,
    "latitude": 32.88124,
    "phone": "8432123153",
    "website_url": "https://www.shipswheelhardcider.com/",
    "state": "South Carolina",
    "street": "1033 E Montague Ave"
  },
  {
    "id": "b0a53b92-378b-4e92-86b2-904b865837a0",
    "name": "Shipwreck Brewing Company",
    "brewery_type": "brewpub",
    "address_1": "24409 Jefferson Ave",
    "address_2": null,
    "address_3": null,
    "city": "Saint Clair Shores",
    "state_province": "Michigan",
    "postal_code": "48080-1318",
    "country": "United States",
    "longitude": -82.88877859,
    "latitude": 42.47122231,
    "phone": "5869442266",
    "website_url": "http://www.shipwreckbrewingcompany.com",
    "state": "Michigan",
    "street": "24409 Jefferson Ave"
  },
  {
    "id": "96a20f94-b865-451a-bc62-da10e3a59998",
    "name": "Shipwrecked Restaurant and Brewery",
    "brewery_type": "brewpub",
    "address_1": "7791 Egg Harbor Road\u00c2\u00a0",
    "address_2": null,
    "address_3": null,
    "city": "Egg Harbor",
    "state_province": "Wisconsin",
    "postal_code": "54209",
    "country": "United States",
    "longitude": null,
    "latitude": null,
    "phone": "9208682767",
    "website_url": "http://www.shipwreckedmicrobrew.com",
    "state": "Wisconsin",
    "street": "7791 Egg Harbor Road\u00c2\u00a0"
  },
  {
    "id": "2d27191c-75fa-4255-a2c1-411366d73527",
    "name": "Shipyard Brew Pub Eliot",
    "brewery_type": "brewpub",
    "address_1": "28 Levesque Dr Ste 4 C/O Eliot Commons",
    "address_2": null,
    "address_3": null,
    "city": "Eliot",
    "state_province": "Maine",
    "postal_code": "03903-2073",
    "country": "United States",
    "longitude": null,
    "latitude": null,
    "phone": "2076862026",
    "website_url": "http://www.shipyard.com",
    "state": "Maine",
    "street": "28 Levesque Dr Ste 4 C/O Eliot Commons"
  },
  {
    "id": "136e3e55-0345-4951-96b6-de63339426b5",
    "name": "Shipyard Brewing Co",
    "brewery_type": "regional",
    "address_1": "86 Newbury St",
    "address_2": null,
    "address_3": null,
    "city": "Portland",
    "state_province": "Maine",
    "postal_code": "04101-4219",
    "country": "United States",
    "longitude": -70.24862314,
    "latitude": 43.6615851,
    "phone": "2077610807",
    "website_url": "http://www.shipyard.com",
    "state": "Maine",
    "street": "86 Newbury St"
  },
  {
    "id": "84c013fc-1f60-4569-b009-973a48e480dc",
    "name": "Shire Breu Hous",
    "brewery_type": "brewpub",
    "address_1": "63 Flansburg Ave",
    "address_2": null,
    "address_3": null,
    "city": "Dalton",
    "state_province": "Massachusetts",
    "postal_code": "01226",
    "country": "United States",
    "longitude": -73.1730985,
    "latitude": 42.4745867,
    "phone": "4138428313",
    "website_url": "http://www.shire.beer",
    "state": "Massachusetts",
    "street": "63 Flansburg Ave"
  },
  {
    "id": "471d0089-67db-448f-844f-7821e66d9af2",
    "name": "Shire Station Brewing Company",
    "brewery_type": "closed",
    "address_1": "12913 17th Ave",
    "address_2": null,
    "address_3": null,
    "city": "Lemoore",
    "state_province": "California",
    "postal_code": "93245-9485",
    "country": "United States",
    "longitude": -119.7617855,
    "latitude": 36.28513704,
    "phone": "5592502797",
    "website_url": "http://www.shirestation.com",
    "state": "California",
    "street": "12913 17th Ave"
  },
  {
    "id": "08ca7ef4-2169-46d6-bc1c-ee4e4c6591db",
    "name": "Shmaltz Brewing Co",
    "brewery_type": "micro",
    "address_1": "6 Fairchild Sq # 1",
    "address_2": null,
    "address_3": null,
    "city": "Clifton Park",
    "state_province": "New York",
    "postal_code": "12065-1254",
    "country": "United States",
    "longitude": null,
    "latitude": null,
    "phone": "5184065430",
    "website_url": "http://www.shmaltzbrewing.com",
    "state": "New York",
    "street": "6 Fairchild Sq # 1"
  },
  {
    "id": "303f1b38-dfab-4cd8-83ef-853d4a0c0401",
    "name": "Shoe Tree Brewing Co.",
    "brewery_type": "micro",
    "address_1": "1496 Old Hot Springs Rd",
    "address_2": null,
    "address_3": null,
    "city": "Carson City",
    "state_province": "Nevada",
    "postal_code": "89706-0627",
    "country": "United States",
    "longitude": null,
    "latitude": null,
    "phone": "7752220108",
    "website_url": "http://www.shoetreebrewing.com",
    "state": "Nevada",
    "street": "1496 Old Hot Springs Rd"
  },
  {
    "id": "ce303141-1450-4df6-9a83-6214aeabeec7",
    "name": "Shoes & Brews",
    "brewery_type": "micro",
    "address_1": "63 S Pratt Pkwy Unit B",
    "address_2": null,
    "address_3": null,
    "city": "Longmont",
    "state_province": "Colorado",
    "postal_code": "80501-1702",
    "country": "United States",
    "longitude": null,
    "latitude": null,
    "phone": "7203404290",
    "website_url": "http://www.shoesbrews.com",
    "state": "Colorado",
    "street": "63 S Pratt Pkwy Unit B"
  },
  {
    "id": "f1c0b05d-9aea-4dbf-991c-b48e652c2fe6",
    "name": "Shoreline Brewery",
    "brewery_type": "brewpub",
    "address_1": "208 Wabash St",
    "address_2": null,
    "address_3": null,
    "city": "Michigan City",
    "state_province": "Indiana",
    "postal_code": "46360-3244",
    "country": "United States",
    "longitude": -86.90621968,
    "latitude": 41.71931311,
    "phone": "2198794677",
    "website_url": "http://www.shorelinebrewery.com",
    "state": "Indiana",
    "street": "208 Wabash St"
  },
  {
    "id": "782c6620-ce1e-48ff-9f85-271387b63df8",
    "name": "Short Fuse Brewing Company",
    "brewery_type": "brewpub",
    "address_1": "5000 River Rd",
    "address_2": null,
    "address_3": null,
    "city": "Schiller Park",
    "state_province": "Illinois",
    "postal_code": "60176-1021",
    "country": "United States",
    "longitude": null,
    "latitude": null,
    "phone": "8472605044",
    "website_url": "http://www.shortfusebrewing.com",
    "state": "Illinois",
    "street": "5000 River Rd"
  },
  {
    "id": "af6eaa73-2763-49d5-86ec-001b84cd8e84",
    "name": "Short Story Brewing",
    "brewery_type": "brewpub",
    "address_1": "5904 Fairmont Rd",
    "address_2": null,
    "address_3": null,
    "city": "Rivesville",
    "state_province": "West Virginia",
    "postal_code": "26588-8844",
    "country": "United States",
    "longitude": -80.119282,
    "latitude": 39.544687,
    "phone": "3049332165",
    "website_url": "http://www.shortstorybrewing.com",
    "state": "West Virginia",
    "street": "5904 Fairmont Rd"
  },
  {
    "id": "41af66db-d524-43e4-a866-7c4ddefe8752",
    "name": "Short's Brewing Co",
    "brewery_type": "brewpub",
    "address_1": "121 N Bridge St",
    "address_2": null,
    "address_3": null,
    "city": "Bellaire",
    "state_province": "Michigan",
    "postal_code": "49615-9509",
    "country": "United States",
    "longitude": -85.21012429,
    "latitude": 44.975604,
    "phone": "2315336622",
    "website_url": "http://www.shortsbrewing.com",
    "state": "Michigan",
    "street": "121 N Bridge St"
  }
]