[
  {
    "id": "dd09fff1-43e0-42e7-b9c6-88e804053082",
    "name": "Cascade Brewing Barrel House",
    "brewery_type": "micro",
    "address_1": "939 SE Belmont St",
    "address_2": null,
    "address_3": null,
    "city": "Portland",
    "state_province": "Oregon",
    "postal_code": "97214-2519",
    "country": "United States",
    "longitude": -122.6560057,
    "latitude": 45.5167536,
    "phone": "5032658603",
    "website_url": "http://www.cascadebrewing.com",
    "state": "Oregon",
    "street": "939 SE Belmont St"
  },
  {
    "id": "972e11db-ca46-4a75-bef1-24c596036a66",
    "name": "Cascade Brewing Blending House",
    "brewery_type": "micro",
    "address_1": "6770 SW 111th Ave",
    "address_2": null,
    "address_3": null,
    "city": "Beaverton",
    "state_province": "Oregon",
    "postal_code": "97008-5336",
    "country": "United States",
    "longitude": -122.7900557,
    "latitude": 45.4709556,
    "phone": "5033660730",
    "website_url": "http://www.cascadebrewing.com",
    "state": "Oregon",
    "street": "6770 SW 111th Ave"
  },
  {
    "id": "977d5b69-e92b-4f9b-8c1d-67f9e481365c",
    "name": "Cascade Lakes Brewing Co",
    "brewery_type": "micro",
    "address_1": "2141 SW 1st St",
    "address_2": null,
    "address_3": null,
    "city": "Redmond",
    "state_province": "Oregon",
    "postal_code": "97756-7131",
    "country": "United States",
    "longitude": -121.1700542,
    "latitude": 44.26491002,
    "phone": "5419233110",
    "website_url": "http://www.cascadelakes.com",
    "state": "Oregon",
    "street": "2141 SW 1st St"
  },
  {
    "id": "2e7ae73a-42cf-4e35-89c2-41d5557727eb",
    "name": "Cascadia Brewing Co.",
    "brewery_type": "closed",
    "address_1": "211 4th Ave E",
    "address_2": null,
    "address_3": null,
    "city": "Olympia",
    "state_province": "Washington",
    "postal_code": "98501-1104",
    "country": "United States",
    "longitude": -122.900174,
    "latitude": 47.04491273,
    "phone": "3609432337",
    "website_url": "http://www.cascadiahomebrew.com",
    "state": "Washington",
    "street": "211 4th Ave E"
  },
  {
    "id": "180883d5-ee43-4a24-b7b8-b385358eddd1",
    "name": "Casey Brewing and Blending",
    "brewery_type": "micro",
    "address_1": "3421 Grand Ave Ste 4D",
    "address_2": null,
    "address_3": null,
    "city": "Glenwood Springs",
    "state_province": "Colorado",
    "postal_code": "81601-4493",
    "country": "United States",
    "longitude": null,
    "latitude": null,
    "phone": "9702309691",
    "website_url": "http://www.caseybrewing.com",
    "state": "Colorado",
    "street": "3421 Grand Ave Ste 4D"
  },
  {
    "id": "37adfb0e-f64e-4e66-98d9-9dde6a7df11d",
    "name": "Cash Brewing Company",
    "brewery_type": "closed",
    "address_1": "3388 NW Byron St Ste 100",
    "address_2": null,
    "address_3": null,
    "city": "Silverdale",
    "state_province": "Washington",
    "postal_code": "98383-8548",
    "country": "United States",
    "longitude": null,
    "latitude": null,
    "phone": "3606337852",
    "website_url": "http://www.cashbrewing.com",
    "state": "Washington",
    "street": "3388 NW Byron St Ste 100"
  },
  {
    "id": "1b1cb9a2-6eeb-4995-9639-86e6b7610fe0",
    "name": "Castle Brewing Co",
    "brewery_type": "brewpub",
    "address_1": "1310 W Washington",
    "address_2": null,
    "address_3": null,
    "city": "Greenville",
    "state_province": "Michigan",
    "postal_code": "48838",
    "country": "United States",
    "longitude": null,
    "latitude": null,
    "phone": "6167126226",
    "website_url": "http://www.castlebrewingco.com",
    "state": "Michigan",
    "street": "1310 W Washington"
  },
  {
    "id": "51b16993-d99b-4a27-8e00-b9af14c372fa",
    "name": "Castle Church Brewing Community",
    "brewery_type": "planning",
    "address_1": null,
    "address_2": null,
    "address_3": null,
    "city": "Kissimmee",
    "state_province": "Florida",
    "postal_code": "34744-3990",
    "country": "United States",
    "longitude": null,
    "latitude": null,
    "phone": null,
    "website_url": "http://www.castlechurchbrewing.com",
    "state": "Florida",
    "street": null
  },
  {
    "id": "7440477a-6410-4967-b856-c031ced810b3",
    "name": "Castle Danger Brewery",
    "brewery_type": "micro",
    "address_1": "17 7th St",
    "address_2": null,
    "address_3": null,
    "city": "Two Harbors",
    "state_province": "Minnesota",
    "postal_code": "55616-1672",
    "country": "United States",
    "longitude": -91.6731853,
    "latitude": 47.0194124,
    "phone": "2188345800",
    "website_url": "http://www.castledangerbrewery.com",
    "state": "Minnesota",
    "street": "17 7th St"
  },
  {
    "id": "de3d4ee8-375c-4980-8ed1-c053afaf121e",
    "name": "Castle Island Brewing Co.",
    "brewery_type": "micro",
    "address_1": "31 Astor Ave",
    "address_2": null,
    "address_3": null,
    "city": "Norwood",
    "state_province": "Massachusetts",
    "postal_code": "02062-5016",
    "country": "United States",
    "longitude": -71.19186438,
    "latitude": 42.16931297,
    "phone": "7819512029",
    "website_url": "http://www.castleislandbeer.com",
    "state": "Massachusetts",
    "street": "31 Astor Ave"
  },
  {
    "id": "fdeb1948-d245-4ab5-986f-5b5e42e5633b",
    "name": "Castle Point Brewery",
    "brewery_type": "contract",
    "address_1": "200 Garden St C/O Red Bridge Homes",
    "address_2": null,
    "address_3": null,
    "city": "Hoboken",
    "state_province": "New Jersey",
    "postal_code": "07030-3793",
    "country": "United States",
    "longitude": null,
    "latitude": null,
    "phone": "9185328525",
    "website_url": "http://www.castlepointbrewery.com",
    "state": "New Jersey",
    "street": "200 Garden St C/O Red Bridge Homes"
  },
  {
    "id": "51a0b7c1-2250-44a6-a188-7bfd732ef861",
    "name": "Castle Rock Beer Company",
    "brewery_type": "closed",
    "address_1": "514 Perry St Ste C106",
    "address_2": null,
    "address_3": null,
    "city": "Castle Rock",
    "state_province": "Colorado",
    "postal_code": "80104-1711",
    "country": "United States",
    "longitude": null,
    "latitude": null,
    "phone": "7203289008",
    "website_url": "http://www.castlerockbeerco.com",
    "state": "Colorado",
    "street": "514 Perry St Ste C106"
  },
  {
    "id": "e815c800-2ec4-4008-96be-aef173fbe112",
    "name": "Castleburg Brewery",
    "brewery_type": "micro",
    "address_1": "1626 Ownby Ln",
    "address_2": null,
    "address_3": null,
    "city": "Richmond",
    "state_province": "Virginia",
    "postal_code": "23220-1317",
    "country": "United States",
    "longitude": null,
    "latitude": null,
    "phone": "8043531256",
    "website_url": "http://www.castleburgbrewery.com",
    "state": "Virginia",
    "street": "1626 Ownby Ln"
  },
  {
    "id": "dd121468-1064-4fab-98b5-8b2044e3a3b4",
    "name": "Casual Animal",
    "brewery_type": "micro",
    "address_1": "1725 McGee St",
    "address_2": null,
    "address_3": null,
    "city": "Kansas City",
    "state_province": "Missouri",
    "postal_code": "64108",
    "country": "United States",
    "longitude": -94.57977386,
    "latitude": 39.0924045,
    "phone": "8162145388",
    "website_url": "http://www.casualanimalbrewing.com",
    "state": "Missouri",
    "street": "1725 McGee St"
  },
  {
    "id": "f8d5fa60-f3d6-41b1-8e60-750dc9baf9e4",
    "name": "Catalina Brewing Company",
    "brewery_type": "micro",
    "address_1": "6918 N Camino Martin",
    "address_2": null,
    "address_3": null,
    "city": "Tucson",
    "state_province": "Arizona",
    "postal_code": "85741-2281",
    "country": "United States",
    "longitude": null,
    "latitude": null,
    "phone": "5203293622",
    "website_url": "http://www.catalinabrewingco.com/",
    "state": "Arizona",
    "street": "6918 N Camino Martin"
  },
  {
    "id": "44c0bc74-7c1a-47d7-8bd5-535c17fef433",
    "name": "Catalina Island Brew House",
    "brewery_type": "micro",
    "address_1": "417 Crescent Ave",
    "address_2": null,
    "address_3": null,
    "city": "Avalon",
    "state_province": "California",
    "postal_code": "90704",
    "country": "United States",
    "longitude": -118.3256345,
    "latitude": 33.3434987,
    "phone": "3105906905",
    "website_url": "http://www.catalinaislandbrewhouse.com",
    "state": "California",
    "street": "417 Crescent Ave"
  },
  {
    "id": "3b1a5b42-5517-4da1-b1ee-93b3e3bce99d",
    "name": "Catawba Brewing Co",
    "brewery_type": "regional",
    "address_1": "212 S Green St",
    "address_2": null,
    "address_3": null,
    "city": "Morganton",
    "state_province": "North Carolina",
    "postal_code": "28655-3525",
    "country": "United States",
    "longitude": -81.68543695,
    "latitude": 35.74471934,
    "phone": "8284306883",
    "website_url": "http://www.CatawbaBrewing.com",
    "state": "North Carolina",
    "street": "212 S Green St"
  },
  {
    "id": "5d4d326a-dc02-4959-aab7-2d23a36bfc9e",
    "name": "Catawba Brewing Co - Asheville",
    "brewery_type": "micro",
    "address_1": "63 Brook St Ste 1",
    "address_2": null,
    "address_3": null,
    "city": "Asheville",
    "state_province": "North Carolina",
    "postal_code": "28803-2685",
    "country": "United States",
    "longitude": null,
    "latitude": null,
    "phone": "8284247290",
    "website_url": "http://www.catawbavalleybrewingcompany.com",
    "state": "North Carolina",
    "street": "63 Brook St Ste 1"
  },
  {
    "id": "612795ac-9fca-4569-8b5c-2e4056fdbd8f",
    "name": "Catawba Brewing Co - Charlotte",
    "brewery_type": "micro",
    "address_1": "933 Louise Ave Ste 105",
    "address_2": null,
    "address_3": null,
    "city": "Charlotte",
    "state_province": "North Carolina",
    "postal_code": "28204-2299",
    "country": "United States",
    "longitude": null,
    "latitude": null,
    "phone": "9804986145",
    "website_url": null,
    "state": "North Carolina",
    "street": "933 Louise Ave Ste 105"
  },
  {
    "id": "476e6a16-b68f-4b13-ac67-b8774e4bfa23",
    "name": "Catawba Island Brewing Company",
    "brewery_type": "micro",
    "address_1": "2330 East Harbor Rd",
    "address_2": null,
    "address_3": null,
    "city": "Port Clinton",
    "state_province": "Ohio",
    "postal_code": "43452-1517",
    "country": "United States",
    "longitude": null,
    "latitude": null,
    "phone": "4199607764",
    "website_url": "http://catawbaislandbrewing.com",
    "state": "Ohio",
    "street": "2330 East Harbor Rd"
  },
  {
    "id": "c14fb00c-7034-45e9-8581-e5865bc72e0a",
    "name": "Catfish Charlies / Catfish Creek Brew Pub",
    "brewery_type": "brewpub",
    "address_1": "1630 E 16th St",
    "address_2": null,
    "address_3": null,
    "city": "Dubuque",
    "state_province": "Iowa",
    "postal_code": "52001-2306",
    "country": "United States",
    "longitude": -90.65372886,
    "latitude": 42.51225898,
    "phone": "5635828600",
    "website_url": "http://www.catfishcharliesdubuque.com",
    "state": "Iowa",
    "street": "1630 E 16th St"
  },
  {
    "id": "946fddaa-7222-4ece-823e-52896e661874",
    "name": "Cathedral Square Brewery",
    "brewery_type": "closed",
    "address_1": "3914 Lindell Blvd",
    "address_2": null,
    "address_3": null,
    "city": "Saint Louis",
    "state_province": "Missouri",
    "postal_code": "63108-3204",
    "country": "United States",
    "longitude": -90.2439837,
    "latitude": 38.6394897,
    "phone": "3148033605",
    "website_url": "http://www.cathedralsquarebrewery.com",
    "state": "Missouri",
    "street": "3914 Lindell Blvd"
  },
  {
    "id": "f6695f12-3197-484d-9830-503bc41bfc74",
    "name": "Catskill Brewery",
    "brewery_type": "micro",
    "address_1": "672 Old Route 17",
    "address_2": null,
    "address_3": null,
    "city": "Livingston Manor",
    "state_province": "New York",
    "postal_code": "12758-0033",
    "country": "United States",
    "longitude": -74.827173,
    "latitude": 41.911407,
    "phone": "8454391232",
    "website_url": "http://www.catskillbrewery.com",
    "state": "New York",
    "street": "672 Old Route 17"
  },
  {
    "id": "282e53a4-054a-4047-a7ff-bde26dfad708",
    "name": "Cave Brewing Co",
    "brewery_type": "micro",
    "address_1": "1407 Seidersville Rd",
    "address_2": null,
    "address_3": null,
    "city": "Bethlehem",
    "state_province": "Pennsylvania",
    "postal_code": "18015-4219",
    "country": "United States",
    "longitude": -75.3464618,
    "latitude": 40.5910341,
    "phone": "6107391381",
    "website_url": "http://www.cavebrewing.com",
    "state": "Pennsylvania",
    "street": "1407 Seidersville Rd"
  },
  {
    "id": "5a4c2070-48c1-4385-8e3b-e9de15514941",
    "name": "Cave Mountain Brewing Co",
    "brewery_type": "brewpub",
    "address_1": "5359 State Route 23",
    "address_2": null,
    "address_3": null,
    "city": "Windham",
    "state_province": "New York",
    "postal_code": "12496-5906",
    "country": "United States",
    "longitude": null,
    "latitude": null,
    "phone": "5187349222",
    "website_url": "http://www.cavemountainbrewing.com",
    "state": "New York",
    "street": "5359 State Route 23"
  },
  {
    "id": "7cabd85d-217f-49c7-b0eb-3031a9efca4d",
    "name": "Cavendish Brewing Company",
    "brewery_type": "micro",
    "address_1": "207 N Chester St",
    "address_2": null,
    "address_3": null,
    "city": "Gastonia",
    "state_province": "North Carolina",
    "postal_code": "28052-2234",
    "country": "United States",
    "longitude": -81.18741223,
    "latitude": 35.26577507,
    "phone": "7048300435",
    "website_url": "http://www.cavendishbrewing.com",
    "state": "North Carolina",
    "street": "207 N Chester St"
  },
  {
    "id": "de78fdc6-98f3-4a6b-b3f7-acce58a94271",
    "name": "Cavern Brewing At Lowes Foods",
    "brewery_type": "brewpub",
    "address_1": "1381 Old Mill Cir Ste 200",
    "address_2": null,
    "address_3": null,
    "city": "Winston Salem",
    "state_province": "North Carolina",
    "postal_code": "27103-1497",
    "country": "United States",
    "longitude": null,
    "latitude": null,
    "phone": "3367753007",
    "website_url": "http://www.lowesfoods.com",
    "state": "North Carolina",
    "street": "1381 Old Mill Cir Ste 200"
  },
  {
    "id": "a134143f-1c86-4a90-8ded-458aaed9a374",
    "name": "Cayucos Brewing Co",
    "brewery_type": "contract",
    "address_1": "136 Ocean Front Ln",
    "address_2": null,
    "address_3": null,
    "city": "Cayucos",
    "state_province": "California",
    "postal_code": "93430-1649",
    "country": "United States",
    "longitude": -120.9021884,
    "latitude": 35.44711022,
    "phone": "8059951993",
    "website_url": "http://www.cayucosbeer.com",
    "state": "California",
    "street": "136 Ocean Front Ln"
  },
  {
    "id": "0ff4c7dc-c0b0-4f25-8a80-effcf912ffe6",
    "name": "CB Craft Brewers",
    "brewery_type": "micro",
    "address_1": "300 Village Square Blvd",
    "address_2": null,
    "address_3": null,
    "city": "Honeoye Falls",
    "state_province": "New York",
    "postal_code": "14472-1180",
    "country": "United States",
    "longitude": null,
    "latitude": null,
    "phone": "5856244386",
    "website_url": "http://www.cbcraftbrewers.com",
    "state": "New York",
    "street": "300 Village Square Blvd"
  },
  {
    "id": "5b1e7138-19f6-45fa-a899-70d808b55591",
    "name": "Cedar Creek Brewery",
    "brewery_type": "brewpub",
    "address_1": "336 E Cedar Creek Pkwy",
    "address_2": null,
    "address_3": null,
    "city": "Seven Points",
    "state_province": "Texas",
    "postal_code": "75143-8395",
    "country": "United States",
    "longitude": null,
    "latitude": null,
    "phone": "2145029795",
    "website_url": "http://www.cedarcreekbrewery.com",
    "state": "Texas",
    "street": "336 E Cedar Creek Pkwy"
  },
  {
    "id": "9560132e-e992-4036-9274-1ba8de498c1e",
    "name": "Cedar Creek Brewing Co.",
    "brewery_type": "micro",
    "address_1": "3820 Leonard Rd",
    "address_2": null,
    "address_3": null,
    "city": "Martinsville",
    "state_province": "Indiana",
    "postal_code": "46151-5600",
    "country": "United States",
    "longitude": null,
    "latitude": null,
    "phone": "7653429000",
    "website_url": "http://www.drinkatthecreek.com",
    "state": "Indiana",
    "street": "3820 Leonard Rd"
  },
  {
    "id": "50da8137-1da4-4939-932d-50fa93a11ad5",
    "name": "Cedar Crest Brewing and Wine Bar",
    "brewery_type": "brewpub",
    "address_1": "615 Main St",
    "address_2": null,
    "address_3": null,
    "city": "Red Bluff",
    "state_province": "California",
    "postal_code": "96080-3343",
    "country": "United States",
    "longitude": -122.2344167,
    "latitude": 40.17675757,
    "phone": "5307279016",
    "website_url": "http://www.facebook.com/enjoythestoreredbluff",
    "state": "California",
    "street": "615 Main St"
  },
  {
    "id": "efecf28c-1f97-43b4-b283-11b8ad902d42",
    "name": "Cedar Point Brewery",
    "brewery_type": "planning",
    "address_1": null,
    "address_2": null,
    "address_3": null,
    "city": "Scituate",
    "state_province": "Massachusetts",
    "postal_code": "02066-1317",
    "country": "United States",
    "longitude": null,
    "latitude": null,
    "phone": "7818311724",
    "website_url": null,
    "state": "Massachusetts",
    "street": null
  },
  {
    "id": "1faa8def-e465-4b92-b77c-e9da87845ff7",
    "name": "Cedar Run Brewery",
    "brewery_type": "planning",
    "address_1": null,
    "address_2": null,
    "address_3": null,
    "city": "Nokesville",
    "state_province": "Virginia",
    "postal_code": "20181-2506",
    "country": "United States",
    "longitude": null,
    "latitude": null,
    "phone": "7032032641",
    "website_url": null,
    "state": "Virginia",
    "street": null
  },
  {
    "id": "9552b15e-81e1-4941-a0a7-86f07ffa5d0e",
    "name": "Cedar Springs Brewing Company",
    "brewery_type": "brewpub",
    "address_1": "95 N Main # 34",
    "address_2": null,
    "address_3": null,
    "city": "Cedar Springs",
    "state_province": "Michigan",
    "postal_code": "49319-5140",
    "country": "United States",
    "longitude": null,
    "latitude": null,
    "phone": "616696",
    "website_url": "http://www.CSBrew.com",
    "state": "Michigan",
    "street": "95 N Main # 34"
  },
  {
    "id": "1e5fd874-e6fa-4189-ad30-a6aab5e2ec7b",
    "name": "Celis Brewery",
    "brewery_type": "micro",
    "address_1": "10001 Metic Blvd.",
    "address_2": null,
    "address_3": null,
    "city": "Austin",
    "state_province": "Texas",
    "postal_code": "78758",
    "country": "United States",
    "longitude": null,
    "latitude": null,
    "phone": "5125242377",
    "website_url": "http://www.celisbeers.com",
    "state": "Texas",
    "street": "10001 Metic Blvd."
  },
  {
    "id": "86bb1d32-ad5f-42c6-a7b9-70c92801d1d9",
    "name": "Cellar Brewing Co",
    "brewery_type": "brewpub",
    "address_1": "133 E Division St",
    "address_2": null,
    "address_3": null,
    "city": "Sparta",
    "state_province": "Michigan",
    "postal_code": "49345-1329",
    "country": "United States",
    "longitude": -85.70639839,
    "latitude": 43.16082496,
    "phone": "6168830777",
    "website_url": "http://www.cellarbrewingco.com",
    "state": "Michigan",
    "street": "133 E Division St"
  },
  {
    "id": "c8914288-0a70-4f53-9c72-d65595b103f8",
    "name": "Cellar West Artisan Ales",
    "brewery_type": "micro",
    "address_1": "1001 Lee Hill Dr Ste 10",
    "address_2": null,
    "address_3": null,
    "city": "Boulder",
    "state_province": "Colorado",
    "postal_code": "80302-9471",
    "country": "United States",
    "longitude": null,
    "latitude": null,
    "phone": "2627198795",
    "website_url": "http://www.cellarwest.com",
    "state": "Colorado",
    "street": "1001 Lee Hill Dr Ste 10"
  },
  {
    "id": "a15b076b-cec2-43fc-bd9b-dd530d8985dc",
    "name": "Cellar Works Brewing Co.",
    "brewery_type": "micro",
    "address_1": "110 S Pike Rd Ste 205",
    "address_2": null,
    "address_3": null,
    "city": "Sarver",
    "state_province": "Pennsylvania",
    "postal_code": "16055-9682",
    "country": "United States",
    "longitude": null,
    "latitude": null,
    "phone": "7245242120",
    "website_url": "http://www.cellarworksbrewing.com",
    "state": "Pennsylvania",
    "street": "110 S Pike Rd Ste 205"
  },
  {
    "id": "7d69186e-193b-47cd-84dc-60ccdea2b1b3",
    "name": "Cellarmaker Brewing Company",
    "brewery_type": "micro",
    "address_1": "1150 Howard St",
    "address_2": null,
    "address_3": null,
    "city": "San Francisco",
    "state_province": "California",
    "postal_code": "94103-3914",
    "country": "United States",
    "longitude": -122.4106996,
    "latitude": 37.7771589,
    "phone": "4158633940",
    "website_url": "http://www.cellarmakerbrewing.com",
    "state": "California",
    "street": "1150 Howard St"
  },
  {
    "id": "8a784d6c-14f0-4df9-b49c-37950ef9c8d1",
    "name": "Cellarman's Pub & Brewery",
    "brewery_type": "brewpub",
    "address_1": "2130 Texoma Pkwy",
    "address_2": null,
    "address_3": null,
    "city": "Sherman",
    "state_province": "Texas",
    "postal_code": "75090-2622",
    "country": "United States",
    "longitude": -96.59953011,
    "latitude": 33.66188865,
    "phone": "9038130994",
    "website_url": "http://www.cellarmanspub.com",
    "state": "Texas",
    "street": "2130 Texoma Pkwy"
  },
  {
    "id": "15ceab0b-ebef-46a3-9bf9-7915a219eeda",
    "name": "Cellarmen's Meadery, Microbrewery and Cidery",
    "brewery_type": "micro",
    "address_1": "24310 John R Rd",
    "address_2": null,
    "address_3": null,
    "city": "Hazel Park",
    "state_province": "Michigan",
    "postal_code": "48030-1112",
    "country": "United States",
    "longitude": null,
    "latitude": null,
    "phone": "5864134206",
    "website_url": "http://www.cellarmens.com",
    "state": "Michigan",
    "street": "24310 John R Rd"
  },
  {
    "id": "c37ba1f6-a014-4529-b8f0-240e95740556",
    "name": "Center Ice Brewing Company",
    "brewery_type": "micro",
    "address_1": "3126 Olive St.",
    "address_2": null,
    "address_3": null,
    "city": "Saint Louis",
    "state_province": "Missouri",
    "postal_code": "63103",
    "country": "United States",
    "longitude": -90.22430637,
    "latitude": 38.63530006,
    "phone": "3142779843",
    "website_url": "http://www.centericebrewery.com",
    "state": "Missouri",
    "street": "3126 Olive St."
  },
  {
    "id": "9b07942e-75fc-4df3-85d1-611544fb766c",
    "name": "Center of the Universe Brewing Co",
    "brewery_type": "micro",
    "address_1": "11293 Air Park Rd",
    "address_2": null,
    "address_3": null,
    "city": "Ashland",
    "state_province": "Virginia",
    "postal_code": "23005-3436",
    "country": "United States",
    "longitude": null,
    "latitude": null,
    "phone": "8043680299",
    "website_url": "http://www.cotubrewing.com",
    "state": "Virginia",
    "street": "11293 Air Park Rd"
  },
  {
    "id": "b77f57dd-6d85-4cf1-a1ee-bf44e3ef7935",
    "name": "Center Pivot",
    "brewery_type": "planning",
    "address_1": null,
    "address_2": null,
    "address_3": null,
    "city": "Quinter",
    "state_province": "Kansas",
    "postal_code": "67752",
    "country": "United States",
    "longitude": null,
    "latitude": null,
    "phone": "7857548344",
    "website_url": null,
    "state": "Kansas",
    "street": null
  },
  {
    "id": "1fcb0371-fb13-48b5-bfd4-a87939d6650c",
    "name": "Center Square Brewing / Altland House",
    "brewery_type": "brewpub",
    "address_1": "1 Center Sq",
    "address_2": null,
    "address_3": null,
    "city": "Abbottstown",
    "state_province": "Pennsylvania",
    "postal_code": "17301-9502",
    "country": "United States",
    "longitude": null,
    "latitude": null,
    "phone": "7172599535",
    "website_url": "http://centersquarebrew.com",
    "state": "Pennsylvania",
    "street": "1 Center Sq"
  },
  {
    "id": "542588a9-82dd-4f6f-a72c-53363d4ae57d",
    "name": "Center Street Brewing Company",
    "brewery_type": "planning",
    "address_1": null,
    "address_2": null,
    "address_3": null,
    "city": "Wallingford",
    "state_province": "Connecticut",
    "postal_code": "06492",
    "country": "United States",
    "longitude": null,
    "latitude": null,
    "phone": null,
    "website_url": "http://n/a",
    "state": "Connecticut",
    "street": null
  },
  {
    "id": "20a578cc-439f-40f6-ae2d-02e6798108a1",
    "name": "Centerpoint Brewing",
    "brewery_type": "micro",
    "address_1": "1125 E Brookside Ave",
    "address_2": null,
    "address_3": null,
    "city": "Indianapolis",
    "state_province": "Indiana",
    "postal_code": "46202-3587",
    "country": "United States",
    "longitude": -86.13740465,
    "latitude": 39.78129031,
    "phone": "3176028386",
    "website_url": "http://www.centerpointbrewing.com",
    "state": "Indiana",
    "street": "1125 E Brookside Ave"
  },
  {
    "id": "f72eb79f-b910-4ab2-bee9-6af0c1abb7e7",
    "name": "Central 28 Beer Company",
    "brewery_type": "micro",
    "address_1": "290 Springview Commerce Dr Ste 1",
    "address_2": null,
    "address_3": null,
    "city": "Debary",
    "state_province": "Florida",
    "postal_code": "32713-4848",
    "country": "United States",
    "longitude": null,
    "latitude": null,
    "phone": "3866682811",
    "website_url": "http://www.central28beer.com",
    "state": "Florida",
    "street": "290 Springview Commerce Dr Ste 1"
  },
  {
    "id": "b067aab3-c4e6-4417-b84f-3f8b4290084b",
    "name": "Central Coast Brewing Co - Higuera St.",
    "brewery_type": "brewpub",
    "address_1": "6 Higuera St.",
    "address_2": null,
    "address_3": null,
    "city": "San Luis Obispo",
    "state_province": "California",
    "postal_code": "93401",
    "country": "United States",
    "longitude": -120.6709908,
    "latitude": 35.2651725,
    "phone": "8057832739",
    "website_url": null,
    "state": "California",
    "street": "6 Higuera St."
  }
]