[
  {
    "id": "c5ddef5e-2664-4f02-b59b-d37f00967414",
    "name": "Tequesta Brewing Co",
    "brewery_type": "micro",
    "address_1": "287 S US Highway 1",
    "address_2": null,
    "address_3": null,
    "city": "Tequesta",
    "state_province": "Florida",
    "postal_code": "33469-2701",
    "country": "United States",
    "longitude": null,
    "latitude": null,
    "phone": "5617455000",
    "website_url": "http://www.tequestabrewing.com",
    "state": "Florida",
    "street": "287 S US Highway 1"
  },
  {
    "id": "fffae80b-1654-4d69-95ad-7a349e246db0",
    "name": "Terminal Brewhouse, The",
    "brewery_type": "brewpub",
    "address_1": "1464 Market St",
    "address_2": null,
    "address_3": null,
    "city": "Chattanooga",
    "state_province": "Tennessee",
    "postal_code": "37402-4448",
    "country": "United States",
    "longitude": -85.30723077,
    "latitude": 35.03644493,
    "phone": "4237528090",
    "website_url": "http://www.terminalbrewhouse.com",
    "state": "Tennessee",
    "street": "1464 Market St"
  },
  {
    "id": "10d1743f-5e4f-43b8-bd0c-11d0cd5e719c",
    "name": "Terminal Gravity Brewing Co",
    "brewery_type": "micro",
    "address_1": "803 SE School St",
    "address_2": null,
    "address_3": null,
    "city": "Enterprise",
    "state_province": "Oregon",
    "postal_code": "97828-1674",
    "country": "United States",
    "longitude": -117.2713718,
    "latitude": 45.4187654,
    "phone": "5414260158",
    "website_url": "http://www.terminalgravitybrewing.com",
    "state": "Oregon",
    "street": "803 SE School St"
  },
  {
    "id": "0d82e30e-9eb0-4f5f-8615-436007d38e3e",
    "name": "Terramar Brewstillery",
    "brewery_type": "micro",
    "address_1": "5712 Gilkey Ave",
    "address_2": null,
    "address_3": null,
    "city": "Bow",
    "state_province": "Washington",
    "postal_code": "98232-9353",
    "country": "United States",
    "longitude": -122.443599,
    "latitude": 48.564097,
    "phone": "3603996222",
    "website_url": "http://terramarcraft.com",
    "state": "Washington",
    "street": "5712 Gilkey Ave"
  },
  {
    "id": "21c0cd50-3ad8-4525-8085-1ed7a9e378ad",
    "name": "Terrapin Beer Co",
    "brewery_type": "large",
    "address_1": "265 Newton Bridge Rd",
    "address_2": null,
    "address_3": null,
    "city": "Athens",
    "state_province": "Georgia",
    "postal_code": "30607-1145",
    "country": "United States",
    "longitude": -83.39779284,
    "latitude": 33.9885289,
    "phone": "7065493377",
    "website_url": "http://www.terrapinbeer.com",
    "state": "Georgia",
    "street": "265 Newton Bridge Rd"
  },
  {
    "id": "34400740-8da8-4c22-bf6f-9f4fe675a43c",
    "name": "Terre Haute Brewing Company",
    "brewery_type": "brewpub",
    "address_1": "401 S 9th St",
    "address_2": null,
    "address_3": null,
    "city": "Terre Haute",
    "state_province": "Indiana",
    "postal_code": "47807-4417",
    "country": "United States",
    "longitude": -87.404517,
    "latitude": 39.462286,
    "phone": "8128143071",
    "website_url": "http://www.terrehautebrewingcompany.com",
    "state": "Indiana",
    "street": "401 S 9th St"
  },
  {
    "id": "7000641c-5ae1-4c4e-9c82-8b18d7a12660",
    "name": "Terrestrial Brewing Company",
    "brewery_type": "micro",
    "address_1": "7524 Father Frascati Dr",
    "address_2": null,
    "address_3": null,
    "city": "Cleveland",
    "state_province": "Ohio",
    "postal_code": "44102-2087",
    "country": "United States",
    "longitude": -81.7361552,
    "latitude": 41.4869219,
    "phone": "2164659999",
    "website_url": null,
    "state": "Ohio",
    "street": "7524 Father Frascati Dr"
  },
  {
    "id": "2c7a936f-eed9-48b4-9f00-7309dd34277c",
    "name": "Territorial Brewing Company",
    "brewery_type": "brewpub",
    "address_1": "256 Helmer Rd N",
    "address_2": null,
    "address_3": null,
    "city": "Springfield",
    "state_province": "Michigan",
    "postal_code": "49037-7914",
    "country": "United States",
    "longitude": -85.23565712,
    "latitude": 42.3151618,
    "phone": "2692821694",
    "website_url": "http://www.territorialbrewing.com",
    "state": "Michigan",
    "street": "256 Helmer Rd N"
  },
  {
    "id": "9dcd48bb-9b48-498a-ada4-91d77cfef610",
    "name": "Territorial Brewing Company Production Facility",
    "brewery_type": "micro",
    "address_1": "2815 6th Ave",
    "address_2": null,
    "address_3": null,
    "city": "Springfield",
    "state_province": "Michigan",
    "postal_code": "49037-7986",
    "country": "United States",
    "longitude": -85.22954317,
    "latitude": 42.31466956,
    "phone": "2694410030",
    "website_url": null,
    "state": "Michigan",
    "street": "2815 6th Ave"
  },
  {
    "id": "84d2bd86-eaec-49d4-b4b8-8076e4905e01",
    "name": "Texas Ale Project",
    "brewery_type": "micro",
    "address_1": "1001 N Riverfront Blvd",
    "address_2": null,
    "address_3": null,
    "city": "Dallas",
    "state_province": "Texas",
    "postal_code": "75207-4201",
    "country": "United States",
    "longitude": -96.8148593,
    "latitude": 32.7818812,
    "phone": "2149650606",
    "website_url": "http://www.texasaleproject.com",
    "state": "Texas",
    "street": "1001 N Riverfront Blvd"
  },
  {
    "id": "271219df-fb1a-4947-953b-056c59afda19",
    "name": "Texas Beer Company",
    "brewery_type": "micro",
    "address_1": "1331 W 2nd St",
    "address_2": null,
    "address_3": null,
    "city": "Taylor",
    "state_province": "Texas",
    "postal_code": "76574-2434",
    "country": "United States",
    "longitude": -97.42424416,
    "latitude": 30.56782579,
    "phone": "5122897460",
    "website_url": "http://www.texasbeerco.com",
    "state": "Texas",
    "street": "1331 W 2nd St"
  },
  {
    "id": "a2e6a255-50ee-4c54-9746-85c186d7bacf",
    "name": "Texas Beer Company",
    "brewery_type": "micro",
    "address_1": "201 N Main St",
    "address_2": null,
    "address_3": null,
    "city": "Taylor",
    "state_province": "Texas",
    "postal_code": "76574",
    "country": "United States",
    "longitude": -97.409585,
    "latitude": 30.568804,
    "phone": "5124666939",
    "website_url": null,
    "state": "Texas",
    "street": "201 N Main St"
  },
  {
    "id": "34ea89cc-a9a9-4435-8bec-a3a26bc4de2a",
    "name": "Texas Beer Refinery",
    "brewery_type": "micro",
    "address_1": "1825 Dickinson Ave Unit B",
    "address_2": null,
    "address_3": null,
    "city": "Dickinson",
    "state_province": "Texas",
    "postal_code": "77539-7799",
    "country": "United States",
    "longitude": null,
    "latitude": null,
    "phone": "8327791221",
    "website_url": "http://www.texasbeerrefinery.com",
    "state": "Texas",
    "street": "1825 Dickinson Ave Unit B"
  },
  {
    "id": "eb50673e-fea6-4b57-b295-0654561eb908",
    "name": "Texas Corners Brewing Company",
    "brewery_type": "brewpub",
    "address_1": "6970 Texas Dr",
    "address_2": null,
    "address_3": null,
    "city": "Kalamazoo",
    "state_province": "Michigan",
    "postal_code": "49009-9795",
    "country": "United States",
    "longitude": -85.6486336,
    "latitude": 42.2300087,
    "phone": "2698707724",
    "website_url": "http://www.texascornersbrewing.com",
    "state": "Michigan",
    "street": "6970 Texas Dr"
  },
  {
    "id": "505134f2-092b-4275-a96e-d26953c00b4e",
    "name": "Texas Leaguer Brewing Company",
    "brewery_type": "micro",
    "address_1": "13503 Pike Rd",
    "address_2": null,
    "address_3": null,
    "city": "Missouri City",
    "state_province": "Texas",
    "postal_code": "77489-1033",
    "country": "United States",
    "longitude": -95.5480643,
    "latitude": 29.627854,
    "phone": "8328959000",
    "website_url": "http://www.txleaguer.com",
    "state": "Texas",
    "street": "13503 Pike Rd"
  },
  {
    "id": "f3e387ba-a709-4788-8be7-40544b60d002",
    "name": "THAT Brewery - Cottonwood",
    "brewery_type": "micro",
    "address_1": "300 E Cherry St Unit B",
    "address_2": null,
    "address_3": null,
    "city": "Cottonwood",
    "state_province": "Arizona",
    "postal_code": "86326-6178",
    "country": "United States",
    "longitude": null,
    "latitude": null,
    "phone": "9282023013",
    "website_url": "http://www.thatbrewery.com",
    "state": "Arizona",
    "street": "300 E Cherry St Unit B"
  },
  {
    "id": "3d20ed64-08b1-4d6e-ab7b-556365e66c3f",
    "name": "THAT Brewery & Pub - Pine",
    "brewery_type": "brewpub",
    "address_1": "3270 N Az Highway 87",
    "address_2": null,
    "address_3": null,
    "city": "Pine",
    "state_province": "Arizona",
    "postal_code": "85544-5036",
    "country": "United States",
    "longitude": null,
    "latitude": null,
    "phone": "9284763349",
    "website_url": "http://www.thatbrewery.com",
    "state": "Arizona",
    "street": "3270 N Az Highway 87"
  },
  {
    "id": "84dcf5e8-221e-4bc1-bc7a-fb9fdc122797",
    "name": "The 1648 Brewing Co Ltd",
    "brewery_type": "micro",
    "address_1": "Mill Lane",
    "address_2": "East Hoathly",
    "address_3": null,
    "city": "Lewes",
    "state_province": "East Sussex",
    "postal_code": "BN8 6QB",
    "country": "England",
    "longitude": -0.02828,
    "latitude": 50.93968,
    "phone": "1825840830",
    "website_url": "http://www.1648brewing.co.uk/",
    "state": "East Sussex",
    "street": "Mill Lane"
  },
  {
    "id": "5d90a63a-6a22-430e-a403-ecfd5f041f16",
    "name": "The 377 Brewery",
    "brewery_type": "micro",
    "address_1": "2027 Yale Blvd SE",
    "address_2": null,
    "address_3": null,
    "city": "Albuquerque",
    "state_province": "New Mexico",
    "postal_code": "87106-4139",
    "country": "United States",
    "longitude": -106.6219267,
    "latitude": 35.0561133,
    "phone": "5052503388",
    "website_url": "http://www.the377.com",
    "state": "New Mexico",
    "street": "2027 Yale Blvd SE"
  },
  {
    "id": "964e02eb-eda8-45e4-a21c-cd679757dbfc",
    "name": "The Address Brewing / 1702 Beer & Pizza",
    "brewery_type": "micro",
    "address_1": "1702 E Speedway Blvd",
    "address_2": null,
    "address_3": null,
    "city": "Tucson",
    "state_province": "Arizona",
    "postal_code": "85719-4515",
    "country": "United States",
    "longitude": -110.9465853,
    "latitude": 32.23567665,
    "phone": "5203251702",
    "website_url": "http://www.1702az.com",
    "state": "Arizona",
    "street": "1702 E Speedway Blvd"
  },
  {
    "id": "9097584b-ecb6-4f1a-b2b7-1b38123eb478",
    "name": "The Ale Apothecary",
    "brewery_type": "micro",
    "address_1": "30 SW Century Drive Suite 140",
    "address_2": null,
    "address_3": null,
    "city": "Bend",
    "state_province": "Oregon",
    "postal_code": "97702",
    "country": "United States",
    "longitude": -121.3314277,
    "latitude": 44.05140622,
    "phone": "5414081525",
    "website_url": "http://www.thealeapothecary.com",
    "state": "Oregon",
    "street": "30 SW Century Drive Suite 140"
  },
  {
    "id": "65a3a0bc-ba55-4e9b-930d-dd98eeea3f3d",
    "name": "The Alementary",
    "brewery_type": "micro",
    "address_1": "58 Voorhis Ln",
    "address_2": null,
    "address_3": null,
    "city": "Hackensack",
    "state_province": "New Jersey",
    "postal_code": "07601-4820",
    "country": "United States",
    "longitude": -74.0400401,
    "latitude": 40.90460655,
    "phone": "2019681290",
    "website_url": "http://www.alementary.com",
    "state": "New Jersey",
    "street": "58 Voorhis Ln"
  },
  {
    "id": "ffe46b43-ebe3-4102-a3d2-4110fe1752a7",
    "name": "The Amelia Tavern",
    "brewery_type": "brewpub",
    "address_1": "318 Centre St",
    "address_2": null,
    "address_3": null,
    "city": "Fernandina Beach",
    "state_province": "Florida",
    "postal_code": "32034-4241",
    "country": "United States",
    "longitude": -81.46236272,
    "latitude": 30.67106045,
    "phone": "9043106088",
    "website_url": "http://www.TheAmeliaTavern.com",
    "state": "Florida",
    "street": "318 Centre St"
  },
  {
    "id": "e7c79215-daf5-46b7-8013-2e1088496ee8",
    "name": "The Angry Swede Brewing Company",
    "brewery_type": "micro",
    "address_1": "513 Francis St",
    "address_2": null,
    "address_3": null,
    "city": "St Joseph",
    "state_province": "Missouri",
    "postal_code": "64501",
    "country": "United States",
    "longitude": -94.867977,
    "latitude": 39.808641,
    "phone": "8166174038",
    "website_url": null,
    "state": "Missouri",
    "street": "513 Francis St"
  },
  {
    "id": "0bd870c5-c24f-4d98-8bfc-795c17ebfeb0",
    "name": "The Answer Brewpub",
    "brewery_type": "brewpub",
    "address_1": "6008 W Broad St",
    "address_2": null,
    "address_3": null,
    "city": "Richmond",
    "state_province": "Virginia",
    "postal_code": "23230-2222",
    "country": "United States",
    "longitude": -77.5070979,
    "latitude": 37.5931962,
    "phone": "8042821248",
    "website_url": "http://www.theanswerbrewpub.com",
    "state": "Virginia",
    "street": "6008 W Broad St"
  },
  {
    "id": "89edb92f-550b-4b68-a503-b583d3dcba8f",
    "name": "The Austin Beer Garden Brewing Co",
    "brewery_type": "brewpub",
    "address_1": "1305 W Oltorf St Ste B",
    "address_2": null,
    "address_3": null,
    "city": "Austin",
    "state_province": "Texas",
    "postal_code": "78704-5362",
    "country": "United States",
    "longitude": null,
    "latitude": null,
    "phone": null,
    "website_url": null,
    "state": "Texas",
    "street": "1305 W Oltorf St Ste B"
  },
  {
    "id": "f0c74a4a-7f80-4b93-b6c8-6b261c30e222",
    "name": "The Bakers' Brewery",
    "brewery_type": "brewpub",
    "address_1": "531 Silverthorne Ln",
    "address_2": null,
    "address_3": null,
    "city": "Silverthorne",
    "state_province": "Colorado",
    "postal_code": "80498",
    "country": "United States",
    "longitude": -106.0672002,
    "latitude": 39.62976193,
    "phone": "9704680170",
    "website_url": "http://www.thebakersbrewery.com",
    "state": "Colorado",
    "street": "531 Silverthorne Ln"
  },
  {
    "id": "f4fecb5f-3385-48ae-947c-d4296389bc96",
    "name": "The Barley House Brewing Company LLC",
    "brewery_type": "brewpub",
    "address_1": "8399 Sharon Mercer Rd",
    "address_2": null,
    "address_3": null,
    "city": "Mercer",
    "state_province": "Pennsylvania",
    "postal_code": "16137",
    "country": "United States",
    "longitude": -80.265315,
    "latitude": 41.225933,
    "phone": "7242697837",
    "website_url": "http://www.barleyhousebrewing.com",
    "state": "Pennsylvania",
    "street": "8399 Sharon Mercer Rd"
  },
  {
    "id": "27853f3a-ed0f-48d9-bce7-4bc73989d658",
    "name": "The Beak Brewery Limited",
    "brewery_type": "taproom",
    "address_1": "South Street",
    "address_2": null,
    "address_3": null,
    "city": "Lewes",
    "state_province": "East Sussex",
    "postal_code": "BN8 6JL",
    "country": "England",
    "longitude": 0.024917,
    "latitude": 50.868313,
    "phone": "1273473094",
    "website_url": "https://beakbrewery.com/",
    "state": "East Sussex",
    "street": "South Street"
  },
  {
    "id": "c78c54d8-ef9a-417c-838e-548e5a4d0f4f",
    "name": "The Bear And Peacock",
    "brewery_type": "micro",
    "address_1": "1288 Orange Ave",
    "address_2": null,
    "address_3": null,
    "city": "Winter Park",
    "state_province": "Florida",
    "postal_code": "32789-4940",
    "country": "United States",
    "longitude": -81.3566559,
    "latitude": 28.5929429,
    "phone": "4078012714",
    "website_url": "http://www.thebearandpeacock.com",
    "state": "Florida",
    "street": "1288 Orange Ave"
  },
  {
    "id": "501931a5-0055-452f-b2a4-c1d8ec9c9a17",
    "name": "The Beer Diviner",
    "brewery_type": "micro",
    "address_1": "243 Bly Hollow Rd",
    "address_2": null,
    "address_3": null,
    "city": "Petersburg",
    "state_province": "New York",
    "postal_code": "12040",
    "country": "United States",
    "longitude": null,
    "latitude": null,
    "phone": "5182106196",
    "website_url": "http://www.thebeerdiviner.com",
    "state": "New York",
    "street": "243 Bly Hollow Rd"
  },
  {
    "id": "a2515bf8-f823-45a8-a3b3-eb94815218ee",
    "name": "The Beer'd Brewing Company",
    "brewery_type": "micro",
    "address_1": "22 Bayview Ave Ste 15",
    "address_2": null,
    "address_3": null,
    "city": "Stonington",
    "state_province": "Connecticut",
    "postal_code": "06378-1143",
    "country": "United States",
    "longitude": null,
    "latitude": null,
    "phone": "8602139307",
    "website_url": "http://www.beerdbrewing.com",
    "state": "Connecticut",
    "street": "22 Bayview Ave Ste 15"
  },
  {
    "id": "a31979ec-6440-4be9-bfdc-1d274c5e8cee",
    "name": "The Bell Marker",
    "brewery_type": "brewpub",
    "address_1": "602 Broadway Ste 101",
    "address_2": null,
    "address_3": null,
    "city": "San Diego",
    "state_province": "California",
    "postal_code": "92101-5449",
    "country": "United States",
    "longitude": -117.0763473,
    "latitude": 32.597261,
    "phone": null,
    "website_url": "http://www.thebellmarker.com",
    "state": "California",
    "street": "602 Broadway Ste 101"
  },
  {
    "id": "5cd9906b-f553-4313-b5fb-32b307bbb820",
    "name": "The Berghoff Brewery Inc.",
    "brewery_type": "contract",
    "address_1": "1730 W Superior St Apt 3W",
    "address_2": null,
    "address_3": null,
    "city": "Chicago",
    "state_province": "Illinois",
    "postal_code": "60622-5639",
    "country": "United States",
    "longitude": null,
    "latitude": null,
    "phone": "6083584992",
    "website_url": "http://www.berghoffbeer.com",
    "state": "Illinois",
    "street": "1730 W Superior St Apt 3W"
  },
  {
    "id": "0ba3f3ba-fd0d-4328-8932-664701461504",
    "name": "The Berghoff Restaurant",
    "brewery_type": "planning",
    "address_1": null,
    "address_2": null,
    "address_3": null,
    "city": "Chicago",
    "state_province": "Illinois",
    "postal_code": "60603-5502",
    "country": "United States",
    "longitude": null,
    "latitude": null,
    "phone": "3126176283",
    "website_url": "http://www.berghoff.com",
    "state": "Illinois",
    "street": null
  },
  {
    "id": "85bbe1ad-ae05-4487-919e-59a15370ffa9",
    "name": "The Best Of Hands Barrelhouse",
    "brewery_type": "closed",
    "address_1": "7500 35th Ave SW",
    "address_2": null,
    "address_3": null,
    "city": "Seattle",
    "state_province": "Washington",
    "postal_code": "98126-3228",
    "country": "United States",
    "longitude": -122.3763338731,
    "latitude": 47.535586195503,
    "phone": "2067081166",
    "website_url": "http://www.bestofhandsbarrelhouse.com",
    "state": "Washington",
    "street": "7500 35th Ave SW"
  },
  {
    "id": "494f6cf6-7e51-4087-8abe-fcf6960d8025",
    "name": "The Black Abbey Brewing Company",
    "brewery_type": "micro",
    "address_1": "2952 Sidco Dr Ste 211",
    "address_2": null,
    "address_3": null,
    "city": "Nashville",
    "state_province": "Tennessee",
    "postal_code": "37204-3710",
    "country": "United States",
    "longitude": -86.755903,
    "latitude": 36.10481686,
    "phone": "6157550070",
    "website_url": "http://www.blackabbeybrewing.com",
    "state": "Tennessee",
    "street": "2952 Sidco Dr Ste 211"
  },
  {
    "id": "59cfe7a7-cbc9-416b-a54e-fdae2591266b",
    "name": "The Blue Grasshopper Brew Pub",
    "brewery_type": "brewpub",
    "address_1": "4500 Arrowhead Ridge Dr SE",
    "address_2": null,
    "address_3": null,
    "city": "Rio Rancho",
    "state_province": "New Mexico",
    "postal_code": "87124-5986",
    "country": "United States",
    "longitude": -106.648789,
    "latitude": 35.254421,
    "phone": "5058968579",
    "website_url": "http://www.bghnm.com",
    "state": "New Mexico",
    "street": "4500 Arrowhead Ridge Dr SE"
  },
  {
    "id": "3141c2ff-c808-4ef7-a8bf-77abe27fda02",
    "name": "The Blue Heron Brewery",
    "brewery_type": "planning",
    "address_1": null,
    "address_2": null,
    "address_3": null,
    "city": "Hinckley",
    "state_province": "Ohio",
    "postal_code": "44233",
    "country": "United States",
    "longitude": null,
    "latitude": null,
    "phone": null,
    "website_url": "http://www.bookblueheron.com",
    "state": "Ohio",
    "street": null
  },
  {
    "id": "6bbcccba-e7c3-45f4-9ce1-26adf05b50d5",
    "name": "The Blue Onion Brewpub",
    "brewery_type": "brewpub",
    "address_1": "423 S International Blvd",
    "address_2": null,
    "address_3": null,
    "city": "Weslaco",
    "state_province": "Texas",
    "postal_code": "78596-9114",
    "country": "United States",
    "longitude": null,
    "latitude": null,
    "phone": "9564470067",
    "website_url": "http://www.myblueonion.com",
    "state": "Texas",
    "street": "423 S International Blvd"
  },
  {
    "id": "0362e61c-eec8-4420-8c1a-406131162923",
    "name": "The Blue Poppy Brewery",
    "brewery_type": "planning",
    "address_1": null,
    "address_2": null,
    "address_3": null,
    "city": "Yorba Linda",
    "state_province": "California",
    "postal_code": "92886-7300",
    "country": "United States",
    "longitude": -117.8249705,
    "latitude": 33.8901096,
    "phone": null,
    "website_url": null,
    "state": "California",
    "street": null
  },
  {
    "id": "491c8c8d-594c-4b82-b3bc-2caab02068a4",
    "name": "The Boathouse Beer Co and Boozery",
    "brewery_type": "brewpub",
    "address_1": "450 W Lake St",
    "address_2": null,
    "address_3": null,
    "city": "Tawas City",
    "state_province": "Michigan",
    "postal_code": "48763-8320",
    "country": "United States",
    "longitude": -83.5169024,
    "latitude": 44.26826378,
    "phone": "9899845233",
    "website_url": "http://www.boathousebeerco.com",
    "state": "Michigan",
    "street": "450 W Lake St"
  },
  {
    "id": "14bbd16f-2874-46d2-8762-6bbde9003183",
    "name": "The Boiler Room Brewhaus LLC",
    "brewery_type": "micro",
    "address_1": "10 S National Ave",
    "address_2": null,
    "address_3": null,
    "city": "Fort Scott",
    "state_province": "Kansas",
    "postal_code": "66701-1311",
    "country": "United States",
    "longitude": -94.70741825,
    "latitude": 37.84103842,
    "phone": "6202232702",
    "website_url": "http://www.Boileroombrewhaus.com",
    "state": "Kansas",
    "street": "10 S National Ave"
  },
  {
    "id": "27313516-7956-4f46-88cb-c87317331608",
    "name": "The Bold Mariner Brewing Company",
    "brewery_type": "micro",
    "address_1": "2409 Bowdens Ferry Rd",
    "address_2": null,
    "address_3": null,
    "city": "Norfolk",
    "state_province": "Virginia",
    "postal_code": "23508-2450",
    "country": "United States",
    "longitude": -76.30542793,
    "latitude": 36.87609575,
    "phone": null,
    "website_url": "http://www.boldmariner.com",
    "state": "Virginia",
    "street": "2409 Bowdens Ferry Rd"
  },
  {
    "id": "eb167d69-3606-463a-bb33-99ac50f94bbf",
    "name": "The Booth Brewing Co.",
    "brewery_type": "micro",
    "address_1": "123 W 3rd St",
    "address_2": null,
    "address_3": null,
    "city": "Eureka",
    "state_province": "California",
    "postal_code": "95501-0222",
    "country": "United States",
    "longitude": -124.1743072,
    "latitude": 40.80226985,
    "phone": "7075725728",
    "website_url": "http://www.theboothbrewing.com",
    "state": "California",
    "street": "123 W 3rd St"
  },
  {
    "id": "609ff65b-c360-4866-be7c-8ae0f56dc818",
    "name": "The BottleHouse Brewery And Meadery",
    "brewery_type": "micro",
    "address_1": "2050 Lee Rd",
    "address_2": null,
    "address_3": null,
    "city": "Cleveland Heights",
    "state_province": "Ohio",
    "postal_code": "44118-2557",
    "country": "United States",
    "longitude": -81.5658351,
    "latitude": 41.503726,
    "phone": "2162142120",
    "website_url": "http://www.thebottlehousebrewingcompany.com",
    "state": "Ohio",
    "street": "2050 Lee Rd"
  },
  {
    "id": "0d0e109d-9d2b-4ada-b823-00026df3a5e8",
    "name": "The Brew Brothers / Scioto Downs Racino",
    "brewery_type": "brewpub",
    "address_1": "6000 S. High Street",
    "address_2": null,
    "address_3": null,
    "city": "Columbus",
    "state_province": "Ohio",
    "postal_code": "43207",
    "country": "United States",
    "longitude": -82.995426,
    "latitude": 39.922819,
    "phone": "614-295-4675",
    "website_url": "https://www.sciotodowns.com/venue/restaurants/brew-brothers?utm_source=gmb&utm_medium=brew%20brothers",
    "state": "Ohio",
    "street": "6000 S. High Street"
  },
  {
    "id": "021d289b-c290-4792-a688-633c2fcbe626",
    "name": "The Brew Brothers/Eldorado Hotel and Casino",
    "brewery_type": "brewpub",
    "address_1": "345 N Virginia St",
    "address_2": null,
    "address_3": null,
    "city": "Reno",
    "state_province": "Nevada",
    "postal_code": "89501-1136",
    "country": "United States",
    "longitude": -119.8164176,
    "latitude": 39.5367577,
    "phone": "7757865700",
    "website_url": "http://www.eldoradoresorts.com",
    "state": "Nevada",
    "street": "345 N Virginia St"
  },
  {
    "id": "b40519e8-a25b-4443-828f-8082a3a31ba3",
    "name": "The Brew Kettle, Taproom and Smokehouse",
    "brewery_type": "brewpub",
    "address_1": "8377 Pearl Rd",
    "address_2": null,
    "address_3": null,
    "city": "Strongsville",
    "state_province": "Ohio",
    "postal_code": "44136-1637",
    "country": "United States",
    "longitude": -81.8224061,
    "latitude": 41.3471323,
    "phone": "4402398788",
    "website_url": "http://www.thebrewkettle.com",
    "state": "Ohio",
    "street": "8377 Pearl Rd"
  },
  {
    "id": "a38fc148-8e8e-4e22-84d2-d67be494a013",
    "name": "The Brew Mentor",
    "brewery_type": "micro",
    "address_1": "9528 Diamond Centre Dr",
    "address_2": null,
    "address_3": null,
    "city": "Mentor",
    "state_province": "Ohio",
    "postal_code": "44060-1876",
    "country": "United States",
    "longitude": -81.30001012,
    "latitude": 41.71468462,
    "phone": "4409512739",
    "website_url": "http://www.thebrewmentor.com",
    "state": "Ohio",
    "street": "9528 Diamond Centre Dr"
  }
]