[
  {
    "id": "d1646dcc-bbf1-4ffe-ac3f-47e3e7031bf1",
    "name": "Phat Fish Brewing",
    "brewery_type": "brewpub",
    "address_1": "1031 W Villard St",
    "address_2": null,
    "address_3": null,
    "city": "Dickinson",
    "state_province": "North Dakota",
    "postal_code": "58601-4845",
    "country": "United States",
    "longitude": -102.8019477,
    "latitude": 46.88119882,
    "phone": "7017610170",
    "website_url": "http://www.phatfishbrewing.com",
    "state": "North Dakota",
    "street": "1031 W Villard St"
  },
  {
    "id": "911d3c95-36af-45ad-b01e-8bf8e76e94be",
    "name": "Philadelphia Brewing Co",
    "brewery_type": "micro",
    "address_1": "2423 Amber St",
    "address_2": null,
    "address_3": null,
    "city": "Philadelphia",
    "state_province": "Pennsylvania",
    "postal_code": "19125-1606",
    "country": "United States",
    "longitude": -75.12769991,
    "latitude": 39.98282736,
    "phone": "2154272739",
    "website_url": "http://www.philadelphiabrewing.com",
    "state": "Pennsylvania",
    "street": "2423 Amber St"
  },
  {
    "id": "f66ca9a9-2128-41b0-ac3d-3b1805a91dd1",
    "name": "Philipsburg Brewing Co",
    "brewery_type": "micro",
    "address_1": "106 Brewery Road",
    "address_2": null,
    "address_3": null,
    "city": "Philipsburg",
    "state_province": "Montana",
    "postal_code": "59858",
    "country": "United States",
    "longitude": -113.2871976,
    "latitude": 46.3299328,
    "phone": "4068592739",
    "website_url": null,
    "state": "Montana",
    "street": "106 Brewery Road"
  },
  {
    "id": "8d111536-e72d-4f2e-86b6-f3c1585e21a4",
    "name": "Philipsburg Brewing Co",
    "brewery_type": "micro",
    "address_1": "101 W Broadway",
    "address_2": null,
    "address_3": null,
    "city": "Philipsburg",
    "state_province": "Montana",
    "postal_code": "59858",
    "country": "United States",
    "longitude": null,
    "latitude": null,
    "phone": "4068592739",
    "website_url": "http://www.philipsburgbrewingcompany.com",
    "state": "Montana",
    "street": "101 W Broadway"
  },
  {
    "id": "75e58a42-3f5b-416e-b7e1-abd3f1207bd0",
    "name": "Picacho Peak Brewing Company",
    "brewery_type": "brewpub",
    "address_1": "3900 W Picacho Ave",
    "address_2": null,
    "address_3": null,
    "city": "Las Cruces",
    "state_province": "New Mexico",
    "postal_code": "88007",
    "country": "United States",
    "longitude": -106.8024024,
    "latitude": 32.3118566,
    "phone": "5756806394",
    "website_url": "http://www.picachopeakbrewery.com",
    "state": "New Mexico",
    "street": "3900 W Picacho Ave"
  },
  {
    "id": "7db7b882-21a1-47fa-a2a2-75449c83d328",
    "name": "Pie & Pints Restaurant & Brewery",
    "brewery_type": "contract",
    "address_1": null,
    "address_2": null,
    "address_3": null,
    "city": "Oxford",
    "state_province": "Connecticut",
    "postal_code": "06478",
    "country": "United States",
    "longitude": null,
    "latitude": null,
    "phone": "2035731743",
    "website_url": "http://www.piesandpints.biz",
    "state": "Connecticut",
    "street": null
  },
  {
    "id": "48140e90-91e9-483e-b66f-99b99b1448e9",
    "name": "Piece Brewery",
    "brewery_type": "brewpub",
    "address_1": "1927 W North Ave",
    "address_2": null,
    "address_3": null,
    "city": "Chicago",
    "state_province": "Illinois",
    "postal_code": "60622-1316",
    "country": "United States",
    "longitude": -87.6760621,
    "latitude": 41.9102937,
    "phone": "7737724422",
    "website_url": "http://www.piecechicago.com",
    "state": "Illinois",
    "street": "1927 W North Ave"
  },
  {
    "id": "dd41a944-6c7c-4a68-9ca3-f584a5e4d545",
    "name": "Piedmont Brewery and Kitchen",
    "brewery_type": "brewpub",
    "address_1": "450-B Third Street",
    "address_2": null,
    "address_3": null,
    "city": "Macon",
    "state_province": "Georgia",
    "postal_code": "31201",
    "country": "United States",
    "longitude": null,
    "latitude": null,
    "phone": "4782542337",
    "website_url": "http://www.piedmontbrerwery.com",
    "state": "Georgia",
    "street": "450-B Third Street"
  },
  {
    "id": "389ffa15-0ced-4099-b832-10da54e9add9",
    "name": "Pig Iron Brewing Co",
    "brewery_type": "brewpub",
    "address_1": "40 E Front St",
    "address_2": null,
    "address_3": null,
    "city": "Marietta",
    "state_province": "Pennsylvania",
    "postal_code": "17547-1538",
    "country": "United States",
    "longitude": -76.55317283,
    "latitude": 40.05569372,
    "phone": "7176041161",
    "website_url": "http://www.pigironbrewingco.com",
    "state": "Pennsylvania",
    "street": "40 E Front St"
  },
  {
    "id": "80f35301-8149-4307-affe-e6e4442b2df3",
    "name": "Pig Island Brewery",
    "brewery_type": "planning",
    "address_1": null,
    "address_2": null,
    "address_3": null,
    "city": "Bradford",
    "state_province": "Pennsylvania",
    "postal_code": "16701-1304",
    "country": "United States",
    "longitude": null,
    "latitude": null,
    "phone": "8143667612",
    "website_url": null,
    "state": "Pennsylvania",
    "street": null
  },
  {
    "id": "c8d3c288-3993-4c62-8cf7-8d0a74af9350",
    "name": "Pig Minds Brewing Co",
    "brewery_type": "brewpub",
    "address_1": "4080 Steele Dr",
    "address_2": null,
    "address_3": null,
    "city": "Machesney Park",
    "state_province": "Illinois",
    "postal_code": "61115-8358",
    "country": "United States",
    "longitude": -89.0232046,
    "latitude": 42.3692457,
    "phone": "8159687447",
    "website_url": "http://www.pigmindsbrewing.com",
    "state": "Illinois",
    "street": "4080 Steele Dr"
  },
  {
    "id": "86e9610f-9d70-45d5-a43a-cdf824923728",
    "name": "Pig Pounder Brewery",
    "brewery_type": "micro",
    "address_1": "1107 Grecade St",
    "address_2": null,
    "address_3": null,
    "city": "Greensboro",
    "state_province": "North Carolina",
    "postal_code": "27408-8709",
    "country": "United States",
    "longitude": -79.804196,
    "latitude": 36.084466,
    "phone": "3365531290",
    "website_url": "http://www.pigpounder.com",
    "state": "North Carolina",
    "street": "1107 Grecade St"
  },
  {
    "id": "07fe858e-1a42-477e-ab51-dac36447ae8a",
    "name": "Pigeon Head Brewery",
    "brewery_type": "micro",
    "address_1": "840 E 5th St",
    "address_2": null,
    "address_3": null,
    "city": "Reno",
    "state_province": "Nevada",
    "postal_code": "89512-3508",
    "country": "United States",
    "longitude": -119.802685,
    "latitude": 39.53337578,
    "phone": "7752766766",
    "website_url": "http://www.pigeonheadbrewery.com",
    "state": "Nevada",
    "street": "840 E 5th St"
  },
  {
    "id": "88293b57-bdc4-4fb7-afb4-1de24a9e82e9",
    "name": "Pigeon Hill Brewery Production Facility",
    "brewery_type": "planning",
    "address_1": null,
    "address_2": null,
    "address_3": null,
    "city": "Muskegon",
    "state_province": "Michigan",
    "postal_code": "49440-1109",
    "country": "United States",
    "longitude": null,
    "latitude": null,
    "phone": null,
    "website_url": null,
    "state": "Michigan",
    "street": null
  },
  {
    "id": "c7296318-3def-485e-9f58-b76d2db04b25",
    "name": "Pigeon Hill Brewing Co",
    "brewery_type": "micro",
    "address_1": "500 W Western Ave Ste 100",
    "address_2": null,
    "address_3": null,
    "city": "Muskegon",
    "state_province": "Michigan",
    "postal_code": "49440-1000",
    "country": "United States",
    "longitude": null,
    "latitude": null,
    "phone": "2313755184",
    "website_url": "http://www.pigeonhillbrew.com",
    "state": "Michigan",
    "street": "500 W Western Ave Ste 100"
  },
  {
    "id": "adb1a784-30f8-4e7f-a43c-2759087c4dc7",
    "name": "Pigeon River Brewing",
    "brewery_type": "brewpub",
    "address_1": "1103 N Main St",
    "address_2": null,
    "address_3": null,
    "city": "Marion",
    "state_province": "Wisconsin",
    "postal_code": "54950-9182",
    "country": "United States",
    "longitude": -88.88978978,
    "latitude": 44.67986485,
    "phone": "7152567721",
    "website_url": "http://www.pigeonriverbrewing.com",
    "state": "Wisconsin",
    "street": "1103 N Main St"
  },
  {
    "id": "6f2798c9-c9ac-48bb-b220-d48bdc3bc5ae",
    "name": "Pigs Eye Pub",
    "brewery_type": "proprietor",
    "address_1": "10107 Bridgewater Pkwy",
    "address_2": null,
    "address_3": null,
    "city": "Woodbury",
    "state_province": "Minnesota",
    "postal_code": "55129-8587",
    "country": "United States",
    "longitude": -92.90133962,
    "latitude": 44.92277843,
    "phone": "6517341661",
    "website_url": "http://www.pigseyebeer.com",
    "state": "Minnesota",
    "street": "10107 Bridgewater Pkwy"
  },
  {
    "id": "886981c9-f7df-4bc6-8d39-193176fe3d15",
    "name": "Pigsfly Kitchen and Bar",
    "brewery_type": "bar",
    "address_1": "19 East Coast Road",
    "address_2": null,
    "address_3": "#01-03",
    "city": "Singapore",
    "state_province": "Singapore",
    "postal_code": "428746",
    "country": "Singapore",
    "longitude": 1.3045323352254,
    "latitude": 103.9024138,
    "phone": "+65 6348 2283",
    "website_url": null,
    "state": "Singapore",
    "street": "19 East Coast Road"
  },
  {
    "id": "4f4eb2c0-5053-4232-a3b4-eaa37434ef33",
    "name": "Pigskin Brewing Company",
    "brewery_type": "brewpub",
    "address_1": "81 Mill St Ste 150",
    "address_2": null,
    "address_3": null,
    "city": "Gahanna",
    "state_province": "Ohio",
    "postal_code": "43230-1718",
    "country": "United States",
    "longitude": null,
    "latitude": null,
    "phone": "6149449311",
    "website_url": null,
    "state": "Ohio",
    "street": "81 Mill St Ste 150"
  },
  {
    "id": "a98948f7-7271-475a-b681-fb52c09d8506",
    "name": "Pike 51 Brewing",
    "brewery_type": "brewpub",
    "address_1": "3768 Chicago Dr",
    "address_2": null,
    "address_3": null,
    "city": "Hudsonville",
    "state_province": "Michigan",
    "postal_code": "49426-1637",
    "country": "United States",
    "longitude": -85.87944718,
    "latitude": 42.8606644,
    "phone": "6166624589",
    "website_url": "http://www.hudsonvillewinery.com",
    "state": "Michigan",
    "street": "3768 Chicago Dr"
  },
  {
    "id": "b8b7963b-ef34-4b45-b9e2-402504abfa23",
    "name": "Pike Brewing Co",
    "brewery_type": "micro",
    "address_1": "1415 1st Ave",
    "address_2": null,
    "address_3": null,
    "city": "Seattle",
    "state_province": "Washington",
    "postal_code": "98101-2017",
    "country": "United States",
    "longitude": -122.3397179,
    "latitude": 47.6082151,
    "phone": "2066223373",
    "website_url": "http://www.pikebrewing.com",
    "state": "Washington",
    "street": "1415 1st Ave"
  },
  {
    "id": "d99db2dc-a8fa-4027-8afd-4deae0112c88",
    "name": "Pikes Peak Brewing",
    "brewery_type": "micro",
    "address_1": "1756 Lake Woodmoor Dr",
    "address_2": null,
    "address_3": null,
    "city": "Monument",
    "state_province": "Colorado",
    "postal_code": "80132-9215",
    "country": "United States",
    "longitude": null,
    "latitude": null,
    "phone": "7192084098",
    "website_url": "http://www.pikespeakbrewing.com",
    "state": "Colorado",
    "street": "1756 Lake Woodmoor Dr"
  },
  {
    "id": "9078765f-0ed2-4b9e-8ab4-108885f696df",
    "name": "Pileated Brewing Co",
    "brewery_type": "micro",
    "address_1": "2290 South Industrial Highway",
    "address_2": null,
    "address_3": null,
    "city": "Ann Arbor",
    "state_province": "Michigan",
    "postal_code": "48104",
    "country": "United States",
    "longitude": -83.73385304,
    "latitude": 42.2528625,
    "phone": "7343696290",
    "website_url": "http://www.pileatedbrewing.com",
    "state": "Michigan",
    "street": "2290 South Industrial Highway"
  },
  {
    "id": "e9841166-8a2c-481b-8fbf-0a8c50bc31b6",
    "name": "Pilot Brewing",
    "brewery_type": "planning",
    "address_1": null,
    "address_2": null,
    "address_3": null,
    "city": "Charlotte",
    "state_province": "North Carolina",
    "postal_code": "28205",
    "country": "United States",
    "longitude": null,
    "latitude": null,
    "phone": null,
    "website_url": null,
    "state": "North Carolina",
    "street": null
  },
  {
    "id": "50368316-c57b-44d3-bfaa-b4d1c4cc9370",
    "name": "Pilothouse Brewing Company",
    "brewery_type": "closed",
    "address_1": "4233 S Buckley Rd",
    "address_2": null,
    "address_3": null,
    "city": "Aurora",
    "state_province": "Colorado",
    "postal_code": "80013-2947",
    "country": "United States",
    "longitude": -104.7915508,
    "latitude": 39.63993222,
    "phone": "3039944971",
    "website_url": "http://www.pilothousebrewco.com",
    "state": "Colorado",
    "street": "4233 S Buckley Rd"
  },
  {
    "id": "6040935f-f4dc-4318-b456-502caa825118",
    "name": "Pin-up Beers Ltd",
    "brewery_type": "micro",
    "address_1": "Manor Hall Road",
    "address_2": null,
    "address_3": null,
    "city": "Brighton",
    "state_province": "East Sussex",
    "postal_code": "BN42 4NH",
    "country": "England",
    "longitude": -0.220415,
    "latitude": 50.835048,
    "phone": "1273411127",
    "website_url": "https://www.pinupbrewingco.com/",
    "state": "East Sussex",
    "street": "Manor Hall Road"
  },
  {
    "id": "640a31f6-7697-4b49-a990-ff796588a283",
    "name": "Pine and Palm Brewing",
    "brewery_type": "micro",
    "address_1": "352 W Bedford Ave Ste 102",
    "address_2": null,
    "address_3": null,
    "city": "Fresno",
    "state_province": "California",
    "postal_code": "93711-6079",
    "country": "United States",
    "longitude": -119.7978837,
    "latitude": 36.84630567,
    "phone": null,
    "website_url": "http://www.pineandpalmbrewing.com",
    "state": "California",
    "street": "352 W Bedford Ave Ste 102"
  },
  {
    "id": "c94c18cf-8bb3-46d7-9703-1d72bb920feb",
    "name": "Pine Island Brewing",
    "brewery_type": "micro",
    "address_1": "682 County Route 1 Ste B",
    "address_2": null,
    "address_3": null,
    "city": "Pine Island",
    "state_province": "New York",
    "postal_code": "10969-1715",
    "country": "United States",
    "longitude": null,
    "latitude": null,
    "phone": "8452882646",
    "website_url": "http://www.pineislandbeer.com",
    "state": "New York",
    "street": "682 County Route 1 Ste B"
  },
  {
    "id": "5dd40d8f-6b42-4f9c-9e8b-094a91c1e436",
    "name": "Pine Street Brewery",
    "brewery_type": "micro",
    "address_1": null,
    "address_2": null,
    "address_3": null,
    "city": "San Francisco",
    "state_province": "California",
    "postal_code": "94109-4929",
    "country": "United States",
    "longitude": -122.4192363,
    "latitude": 37.7792808,
    "phone": "4157444062",
    "website_url": "http://www.pinestreetbrewery.com",
    "state": "California",
    "street": null
  },
  {
    "id": "a418742c-1196-4602-8a28-6f4f4203d82b",
    "name": "Pinehurst Brewery",
    "brewery_type": "planning",
    "address_1": null,
    "address_2": null,
    "address_3": null,
    "city": "Pinehurst",
    "state_province": "North Carolina",
    "postal_code": "28374",
    "country": "United States",
    "longitude": null,
    "latitude": null,
    "phone": null,
    "website_url": null,
    "state": "North Carolina",
    "street": null
  },
  {
    "id": "3882eece-5d4c-4783-89dc-03717599fcdd",
    "name": "Pinehurst Resort",
    "brewery_type": "planning",
    "address_1": null,
    "address_2": null,
    "address_3": null,
    "city": "Pinehurst",
    "state_province": "North Carolina",
    "postal_code": "28374",
    "country": "United States",
    "longitude": null,
    "latitude": null,
    "phone": "9102358703",
    "website_url": null,
    "state": "North Carolina",
    "street": null
  },
  {
    "id": "d6ad6491-193e-48bb-b785-467752117b86",
    "name": "Pinelands Brewing",
    "brewery_type": "micro",
    "address_1": "140 7th Ave Unit 15",
    "address_2": null,
    "address_3": null,
    "city": "Little Egg Harbor Twp",
    "state_province": "New Jersey",
    "postal_code": "08087-4259",
    "country": "United States",
    "longitude": null,
    "latitude": null,
    "phone": "6092966169",
    "website_url": "http://www.pinelandsbrewing.com",
    "state": "New Jersey",
    "street": "140 7th Ave Unit 15"
  },
  {
    "id": "1d263d88-3e19-4945-864d-fdd8dd5cb715",
    "name": "Pinellas Ale Works",
    "brewery_type": "micro",
    "address_1": "1962 1st Ave S",
    "address_2": null,
    "address_3": null,
    "city": "Saint Petersburg",
    "state_province": "Florida",
    "postal_code": "33712-1345",
    "country": "United States",
    "longitude": -82.6597329,
    "latitude": 27.77012863,
    "phone": "7272350970",
    "website_url": "http://www.pawbeer.com",
    "state": "Florida",
    "street": "1962 1st Ave S"
  },
  {
    "id": "d93bb3a9-c080-4c8a-8a4e-5181fc15b35a",
    "name": "Pinetop Brewing Company",
    "brewery_type": "brewpub",
    "address_1": "159 W White Mountain Blvd",
    "address_2": null,
    "address_3": null,
    "city": "Lakeside",
    "state_province": "Arizona",
    "postal_code": "85929-6527",
    "country": "United States",
    "longitude": -109.9561769,
    "latitude": 34.14301231,
    "phone": "9283581971",
    "website_url": "http://www.pinetopbeer.com",
    "state": "Arizona",
    "street": "159 W White Mountain Blvd"
  },
  {
    "id": "bfb0e8c9-fed1-4332-9fff-c4b45b49a7bf",
    "name": "Piney River Brewing Company",
    "brewery_type": "micro",
    "address_1": "15194 Walnut Grove Dr",
    "address_2": null,
    "address_3": null,
    "city": "Bucyrus",
    "state_province": "Missouri",
    "postal_code": "65444-9002",
    "country": "United States",
    "longitude": -92.01768537,
    "latitude": 37.32148798,
    "phone": "4179674001",
    "website_url": "http://www.pineyriverbrewing.com",
    "state": "Missouri",
    "street": "15194 Walnut Grove Dr"
  },
  {
    "id": "2c7c2d1e-c48c-4842-9753-a0bb88a605c7",
    "name": "Piney River Taproom",
    "brewery_type": "brewpub",
    "address_1": "326 US Rte 66 E",
    "address_2": null,
    "address_3": null,
    "city": "Waynesville",
    "state_province": "Missouri",
    "postal_code": "65583",
    "country": "United States",
    "longitude": -92.193612,
    "latitude": 37.87597,
    "phone": "5734332739",
    "website_url": "http://www.pineyriverbrewing.com",
    "state": "Missouri",
    "street": "326 US Rte 66 E"
  },
  {
    "id": "3802e9d2-1bbd-4a80-a045-ab7e15c28113",
    "name": "Pinglehead Brewery / Brewer's Pizza",
    "brewery_type": "brewpub",
    "address_1": "14B  Blanding Blvd Ste B",
    "address_2": null,
    "address_3": null,
    "city": "Orange Park",
    "state_province": "Florida",
    "postal_code": "32073-2232",
    "country": "United States",
    "longitude": null,
    "latitude": null,
    "phone": "9042765159",
    "website_url": "http://www.brewerspizza.com",
    "state": "Florida",
    "street": "14B  Blanding Blvd Ste B"
  },
  {
    "id": "dd87a0e6-c13b-49ac-ad00-e4ee2ca428be",
    "name": "Pint",
    "brewery_type": "brewpub",
    "address_1": "332 Clay St",
    "address_2": null,
    "address_3": null,
    "city": "Kerrville",
    "state_province": "Texas",
    "postal_code": "78028-4502",
    "country": "United States",
    "longitude": -99.141,
    "latitude": 30.0494005,
    "phone": "8303157468",
    "website_url": "http://www.pintandplow.com",
    "state": "Texas",
    "street": "332 Clay St"
  },
  {
    "id": "9022e968-f018-46f2-8027-ad91feba9c22",
    "name": "Pint 9 Brewing Co",
    "brewery_type": "micro",
    "address_1": "10411 Portal Rd",
    "address_2": null,
    "address_3": null,
    "city": "La Vista",
    "state_province": "Nebraska",
    "postal_code": "68128",
    "country": "United States",
    "longitude": -96.07590229,
    "latitude": 41.17191269,
    "phone": "4023591418",
    "website_url": "https://pintninebrewing.com",
    "state": "Nebraska",
    "street": "10411 Portal Rd"
  },
  {
    "id": "590c1861-3175-4f4f-8b2d-051d2db81294",
    "name": "Pinthouse Pizza North",
    "brewery_type": "brewpub",
    "address_1": "4729 Burnet Rd",
    "address_2": null,
    "address_3": null,
    "city": "Austin",
    "state_province": "Texas",
    "postal_code": "78756-2826",
    "country": "United States",
    "longitude": -97.7390631,
    "latitude": 30.3187523,
    "phone": null,
    "website_url": "http://www.pinthousepizza.com",
    "state": "Texas",
    "street": "4729 Burnet Rd"
  },
  {
    "id": "6bf22b2c-4836-4d2f-8f0a-88c5f40a0a56",
    "name": "Pinthouse Pizza Round Rock",
    "brewery_type": "planning",
    "address_1": null,
    "address_2": null,
    "address_3": null,
    "city": "Round Rock",
    "state_province": "Texas",
    "postal_code": "78681",
    "country": "United States",
    "longitude": null,
    "latitude": null,
    "phone": null,
    "website_url": null,
    "state": "Texas",
    "street": null
  },
  {
    "id": "9a8b0b19-2a32-4f4e-97c6-890cb9bf42b9",
    "name": "Pinthouse Pizza South",
    "brewery_type": "brewpub",
    "address_1": "4236 S Lamar Blvd",
    "address_2": null,
    "address_3": null,
    "city": "Austin",
    "state_province": "Texas",
    "postal_code": "78704-7905",
    "country": "United States",
    "longitude": -97.7958917,
    "latitude": 30.2361072,
    "phone": "5125685300",
    "website_url": "http://www.pinthousepizza.com",
    "state": "Texas",
    "street": "4236 S Lamar Blvd"
  },
  {
    "id": "b44103c8-48e8-4156-8367-4381e34d3f87",
    "name": "Pints Brewery and Sports Bar",
    "brewery_type": "brewpub",
    "address_1": "2100 S Casino Dr",
    "address_2": null,
    "address_3": null,
    "city": "Laughlin",
    "state_province": "Nevada",
    "postal_code": "89029",
    "country": "United States",
    "longitude": -114.574559,
    "latitude": 35.157448,
    "phone": "7022984000",
    "website_url": "http://www.coloradobelle.com",
    "state": "Nevada",
    "street": "2100 S Casino Dr"
  },
  {
    "id": "6ed57500-9e54-4468-bbc2-4b8b113c6ebe",
    "name": "PINTS Brewing Company and Urban Taproom",
    "brewery_type": "micro",
    "address_1": "412 NW 5th Ave Suite 200",
    "address_2": null,
    "address_3": null,
    "city": "Portland",
    "state_province": "Oregon",
    "postal_code": "97209-3893",
    "country": "United States",
    "longitude": -122.6754225,
    "latitude": 45.5261944,
    "phone": "5035642739",
    "website_url": "http://www.pintsbrewing.com",
    "state": "Oregon",
    "street": "412 NW 5th Ave Suite 200"
  },
  {
    "id": "26c5bf08-f1a2-4e4f-b092-e802ee69d039",
    "name": "Pints Pub Brewery and Freehouse",
    "brewery_type": "brewpub",
    "address_1": "221 W 13th Ave",
    "address_2": null,
    "address_3": null,
    "city": "Denver",
    "state_province": "Colorado",
    "postal_code": "80204-2711",
    "country": "United States",
    "longitude": -104.9908538,
    "latitude": 39.737018,
    "phone": "3035347543",
    "website_url": "http://www.pintspub.com",
    "state": "Colorado",
    "street": "221 W 13th Ave"
  },
  {
    "id": "b649ace0-0985-41c2-828e-807cbee21bcc",
    "name": "Pinups & Pints",
    "brewery_type": "micro",
    "address_1": "10963 Lower Valley Pike",
    "address_2": null,
    "address_3": null,
    "city": "Medway",
    "state_province": "Ohio",
    "postal_code": "45341-9706",
    "country": "United States",
    "longitude": -84.045082,
    "latitude": 39.860912,
    "phone": "9378491400",
    "website_url": "http://www.pinupsandpints.com",
    "state": "Ohio",
    "street": "10963 Lower Valley Pike"
  },
  {
    "id": "e61d8398-eb60-49f0-a3e2-92534c5bc02a",
    "name": "Pipe Dream Brewing",
    "brewery_type": "closed",
    "address_1": "49 Harvey Rd Unit 4",
    "address_2": null,
    "address_3": null,
    "city": "Londonderry",
    "state_province": "New Hampshire",
    "postal_code": "03053-7442",
    "country": "United States",
    "longitude": null,
    "latitude": null,
    "phone": "6034040751",
    "website_url": "http://www.pipedreambrewingnh.com",
    "state": "New Hampshire",
    "street": "49 Harvey Rd Unit 4"
  },
  {
    "id": "e195223f-feb9-4782-9ce8-98a48b15ca2a",
    "name": "Pipeworks Brewing Co",
    "brewery_type": "micro",
    "address_1": "3912 W McLean Ave Ste B",
    "address_2": null,
    "address_3": null,
    "city": "Chicago",
    "state_province": "Illinois",
    "postal_code": "60647-5973",
    "country": "United States",
    "longitude": null,
    "latitude": null,
    "phone": "8479109493",
    "website_url": "http://pipeworksbrewing.com",
    "state": "Illinois",
    "street": "3912 W McLean Ave Ste B"
  },
  {
    "id": "cf3bbe8d-9956-48c4-a576-9e691b26c50e",
    "name": "Pipeworks Brewing Co",
    "brewery_type": "micro",
    "address_1": null,
    "address_2": null,
    "address_3": null,
    "city": "Chicago",
    "state_province": "Illinois",
    "postal_code": "60647-5972",
    "country": "United States",
    "longitude": null,
    "latitude": null,
    "phone": "8479109493",
    "website_url": null,
    "state": "Illinois",
    "street": null
  },
  {
    "id": "b9ffed7c-9569-4f18-82a6-b51b59dd5bb8",
    "name": "Pisgah Brewing Co",
    "brewery_type": "micro",
    "address_1": "150 Eastside Dr",
    "address_2": null,
    "address_3": null,
    "city": "Black Mountain",
    "state_province": "North Carolina",
    "postal_code": "28711-8208",
    "country": "United States",
    "longitude": -82.35826,
    "latitude": 35.6079376,
    "phone": "8286690190",
    "website_url": "http://www.pisgahbrewing.com",
    "state": "North Carolina",
    "street": "150 Eastside Dr"
  }
]