[
  {
    "id": "6e254f25-f604-465e-96ed-5e995ad04059",
    "name": "Granite City Food & Brewery",
    "brewery_type": "brewpub",
    "address_1": "100 Renaissance Ctr",
    "address_2": null,
    "address_3": null,
    "city": "Detroit",
    "state_province": "Michigan",
    "postal_code": "48243-1114",
    "country": "United States",
    "longitude": -83.04053931,
    "latitude": 42.32916295,
    "phone": null,
    "website_url": null,
    "state": "Michigan",
    "street": "100 Renaissance Ctr"
  },
  {
    "id": "686f9013-ad05-449b-bf35-b76061c96c52",
    "name": "Granite City Food & Brewery",
    "brewery_type": "brewpub",
    "address_1": "200 American Way",
    "address_2": null,
    "address_3": null,
    "city": "Oxon Hill",
    "state_province": "Maryland",
    "postal_code": "20745-4502",
    "country": "United States",
    "longitude": null,
    "latitude": null,
    "phone": "2404933900",
    "website_url": null,
    "state": "Maryland",
    "street": "200 American Way"
  },
  {
    "id": "010441de-4cf0-4e29-9f81-4b458e212ee6",
    "name": "Granite City Food & Brewery",
    "brewery_type": "brewpub",
    "address_1": "150 W 96th St",
    "address_2": null,
    "address_3": null,
    "city": "Indianapolis",
    "state_province": "Indiana",
    "postal_code": "46260-4802",
    "country": "United States",
    "longitude": null,
    "latitude": null,
    "phone": null,
    "website_url": null,
    "state": "Indiana",
    "street": "150 W 96th St"
  },
  {
    "id": "783f7e0b-c250-4db0-b46e-6db6ca85bb6e",
    "name": "Granite City Food & Brewery",
    "brewery_type": "brewpub",
    "address_1": "992 Willow Rd",
    "address_2": null,
    "address_3": null,
    "city": "Northbrook",
    "state_province": "Illinois",
    "postal_code": "60062-6806",
    "country": "United States",
    "longitude": -87.8570648,
    "latitude": 42.1056946,
    "phone": "8475040277",
    "website_url": null,
    "state": "Illinois",
    "street": "992 Willow Rd"
  },
  {
    "id": "2c27d5f3-3bc0-46e0-99d6-643ea0793c2b",
    "name": "Granite City Food & Brewery (#1)",
    "brewery_type": "brewpub",
    "address_1": "3945 2nd St S",
    "address_2": null,
    "address_3": null,
    "city": "Saint Cloud",
    "state_province": "Minnesota",
    "postal_code": "56301-3792",
    "country": "United States",
    "longitude": -94.2053715,
    "latitude": 45.5497329,
    "phone": "3202039000",
    "website_url": "http://www.gcfb.net",
    "state": "Minnesota",
    "street": "3945 2nd St S"
  },
  {
    "id": "4b782498-3563-4805-a691-548493182001",
    "name": "Granite City Food & Brewery (#10)",
    "brewery_type": "brewpub",
    "address_1": "3330 Pilot Knob Rd",
    "address_2": null,
    "address_3": null,
    "city": "Eagan",
    "state_province": "Minnesota",
    "postal_code": "55121-2055",
    "country": "United States",
    "longitude": -93.16714524,
    "latitude": 44.83779871,
    "phone": "6514524600",
    "website_url": "http://www.gcfb.net",
    "state": "Minnesota",
    "street": "3330 Pilot Knob Rd"
  },
  {
    "id": "8b012caf-eea9-47a0-a9e3-93a8f30f8403",
    "name": "Granite City Food & Brewery (#11)",
    "brewery_type": "brewpub",
    "address_1": "8461 NW Prairie View Rd",
    "address_2": null,
    "address_3": null,
    "city": "Kansas City",
    "state_province": "Missouri",
    "postal_code": "64153-1842",
    "country": "United States",
    "longitude": -94.66105,
    "latitude": 39.24936415,
    "phone": "8165873838",
    "website_url": "http://www.gcfb.net",
    "state": "Missouri",
    "street": "8461 NW Prairie View Rd"
  },
  {
    "id": "65f4e5eb-5d05-4b40-acb8-a7311ad1460c",
    "name": "Granite City Food & Brewery (#12)",
    "brewery_type": "brewpub",
    "address_1": "1701 Village West Pkwy",
    "address_2": null,
    "address_3": null,
    "city": "Kansas City",
    "state_province": "Kansas",
    "postal_code": "66111-1879",
    "country": "United States",
    "longitude": -94.8239539,
    "latitude": 39.1233376,
    "phone": "9133342255",
    "website_url": "http://www.gcfb.net",
    "state": "Kansas",
    "street": "1701 Village West Pkwy"
  },
  {
    "id": "34899927-e405-4bc0-8fdb-56887498737f",
    "name": "Granite City Food & Brewery (#13)",
    "brewery_type": "brewpub",
    "address_1": "15085 W 119th St",
    "address_2": null,
    "address_3": null,
    "city": "Olathe",
    "state_province": "Kansas",
    "postal_code": "66062-9628",
    "country": "United States",
    "longitude": -94.75995296,
    "latitude": 38.91268389,
    "phone": "9138296060",
    "website_url": "http://www.gcfb.net",
    "state": "Kansas",
    "street": "15085 W 119th St"
  },
  {
    "id": "92f4e0c5-ec29-40e4-8798-019f1bbded65",
    "name": "Granite City Food & Brewery (#16)",
    "brewery_type": "brewpub",
    "address_1": "1001 N 102nd St",
    "address_2": null,
    "address_3": null,
    "city": "Omaha",
    "state_province": "Nebraska",
    "postal_code": "68114-2155",
    "country": "United States",
    "longitude": -96.071539,
    "latitude": 41.268008,
    "phone": "4023935000",
    "website_url": "http://www.gcfb.net",
    "state": "Nebraska",
    "street": "1001 N 102nd St"
  },
  {
    "id": "b6fcdc66-343c-4621-8a3f-d50ce05e0699",
    "name": "Granite City Food & Brewery (#17)",
    "brewery_type": "brewpub",
    "address_1": "1595 Highway 36 W Ste 1005",
    "address_2": null,
    "address_3": null,
    "city": "Saint Paul",
    "state_province": "Minnesota",
    "postal_code": "55113-1092",
    "country": "United States",
    "longitude": null,
    "latitude": null,
    "phone": "6512093500",
    "website_url": "http://www.gcfb.net",
    "state": "Minnesota",
    "street": "1595 Highway 36 W Ste 1005"
  },
  {
    "id": "0f7dc247-0bd3-4f6f-8937-c777a369c09f",
    "name": "Granite City Food & Brewery (#19)",
    "brewery_type": "brewpub",
    "address_1": "7144 Harrison Ave Ste 108",
    "address_2": null,
    "address_3": null,
    "city": "Rockford",
    "state_province": "Illinois",
    "postal_code": "61112-",
    "country": "United States",
    "longitude": -89.0966204,
    "latitude": 42.2377268,
    "phone": "8153327070",
    "website_url": null,
    "state": "Illinois",
    "street": "7144 Harrison Ave Ste 108"
  },
  {
    "id": "3299530b-ec21-407e-8882-4aedfe4cdd2c",
    "name": "Granite City Food & Brewery (#2)",
    "brewery_type": "brewpub",
    "address_1": "2620 S Louise Ave",
    "address_2": null,
    "address_3": null,
    "city": "Sioux Falls",
    "state_province": "South Dakota",
    "postal_code": "57106-4329",
    "country": "United States",
    "longitude": -96.7727844,
    "latitude": 43.52337192,
    "phone": "6053620000",
    "website_url": "http://www.gcfb.net",
    "state": "South Dakota",
    "street": "2620 S Louise Ave"
  },
  {
    "id": "547cd589-8b2b-4057-a99e-d2252bea5e71",
    "name": "Granite City Food & Brewery (#21)",
    "brewery_type": "brewpub",
    "address_1": "230 Conference Center Dr",
    "address_2": null,
    "address_3": null,
    "city": "East Peoria",
    "state_province": "Illinois",
    "postal_code": "61611-9501",
    "country": "United States",
    "longitude": -89.5898359,
    "latitude": 40.6830595,
    "phone": "3096698080",
    "website_url": "http://www.gcfb.com",
    "state": "Illinois",
    "street": "230 Conference Center Dr"
  },
  {
    "id": "fbf47d56-1454-4f27-be42-11b45099d02c",
    "name": "Granite City Food & Brewery (#22)",
    "brewery_type": "brewpub",
    "address_1": "14035 S La Grange Rd",
    "address_2": null,
    "address_3": null,
    "city": "Orland Park",
    "state_province": "Illinois",
    "postal_code": "60462-1321",
    "country": "United States",
    "longitude": -87.85389056,
    "latitude": 41.63748251,
    "phone": "7083641212",
    "website_url": "http://www.gcfb.com",
    "state": "Illinois",
    "street": "14035 S La Grange Rd"
  },
  {
    "id": "ceaf1284-e7b6-4474-8179-c4d38490c16c",
    "name": "Granite City Food & Brewery (#24)",
    "brewery_type": "brewpub",
    "address_1": "3809 Coldwater Rd",
    "address_2": null,
    "address_3": null,
    "city": "Fort Wayne",
    "state_province": "Indiana",
    "postal_code": "46805-1101",
    "country": "United States",
    "longitude": -85.13581857,
    "latitude": 41.1113216,
    "phone": "2604713030",
    "website_url": "http://www.gcfb.net",
    "state": "Indiana",
    "street": "3809 Coldwater Rd"
  },
  {
    "id": "8ee9964e-dfc5-48c0-b079-06750fad8f70",
    "name": "Granite City Food & Brewery (#25)",
    "brewery_type": "brewpub",
    "address_1": "2300 Village Dr W",
    "address_2": null,
    "address_3": null,
    "city": "Maumee",
    "state_province": "Ohio",
    "postal_code": "43537-7550",
    "country": "United States",
    "longitude": null,
    "latitude": null,
    "phone": "4198789050",
    "website_url": "http://www.gcfb.net",
    "state": "Ohio",
    "street": "2300 Village Dr W"
  },
  {
    "id": "650cddc2-44e6-4abc-8c71-d3ebd3c493d9",
    "name": "Granite City Food & Brewery (#26)",
    "brewery_type": "brewpub",
    "address_1": "6501 Grape Rd Ste 1000",
    "address_2": null,
    "address_3": null,
    "city": "Mishawaka",
    "state_province": "Indiana",
    "postal_code": "46545-1010",
    "country": "United States",
    "longitude": -86.1923429,
    "latitude": 41.7177604,
    "phone": "5742430900",
    "website_url": "http://www.gcfb.net",
    "state": "Indiana",
    "street": "6501 Grape Rd Ste 1000"
  },
  {
    "id": "8d663feb-c355-4edb-9697-6d7536bda3a1",
    "name": "Granite City Food & Brewery (#27)",
    "brewery_type": "brewpub",
    "address_1": "150 W 96th St",
    "address_2": null,
    "address_3": null,
    "city": "Indianapolis",
    "state_province": "Indiana",
    "postal_code": "46260-4802",
    "country": "United States",
    "longitude": null,
    "latitude": null,
    "phone": "3172187185",
    "website_url": "http://www.gcfb.net",
    "state": "Indiana",
    "street": "150 W 96th St"
  },
  {
    "id": "eb977cf8-8cf8-4c2d-8017-8eea84379ed5",
    "name": "Granite City Food & Brewery (#28)",
    "brewery_type": "brewpub",
    "address_1": "699 W Big Beaver Rd",
    "address_2": null,
    "address_3": null,
    "city": "Troy",
    "state_province": "Michigan",
    "postal_code": "48084-4920",
    "country": "United States",
    "longitude": -83.1616138,
    "latitude": 42.56225169,
    "phone": "2485191040",
    "website_url": "http://www.gcfb.com",
    "state": "Michigan",
    "street": "699 W Big Beaver Rd"
  },
  {
    "id": "b985d531-a4ad-426c-94da-206264dd5eb0",
    "name": "Granite City Food & Brewery (#29)",
    "brewery_type": "brewpub",
    "address_1": "11411 Olive Blvd",
    "address_2": null,
    "address_3": null,
    "city": "Creve Coeur",
    "state_province": "Missouri",
    "postal_code": "63141-7108",
    "country": "United States",
    "longitude": -90.43338752,
    "latitude": 38.67222065,
    "phone": "3144323535",
    "website_url": "http://www.gcfb.net",
    "state": "Missouri",
    "street": "11411 Olive Blvd"
  },
  {
    "id": "56feb638-f0e8-4ee7-945e-1a5402702dea",
    "name": "Granite City Food & Brewery (#3)",
    "brewery_type": "brewpub",
    "address_1": "1636 42nd St SW",
    "address_2": null,
    "address_3": null,
    "city": "Fargo",
    "state_province": "North Dakota",
    "postal_code": "58103-3324",
    "country": "United States",
    "longitude": -96.8500756,
    "latitude": 46.8559768,
    "phone": "7012933000",
    "website_url": "http://www.gcfb.net",
    "state": "North Dakota",
    "street": "1636 42nd St SW"
  },
  {
    "id": "cf2342e4-b8a8-460b-ab54-3a5a8041394f",
    "name": "Granite City Food & Brewery (#30)",
    "brewery_type": "brewpub",
    "address_1": "1828 Abriter Ct",
    "address_2": null,
    "address_3": null,
    "city": "Naperville",
    "state_province": "Illinois",
    "postal_code": "60563-9368",
    "country": "United States",
    "longitude": -88.12944727,
    "latitude": 41.80283897,
    "phone": "6305443700",
    "website_url": "http://www.gcfb.net",
    "state": "Illinois",
    "street": "1828 Abriter Ct"
  },
  {
    "id": "e01d7b7a-8df0-4110-b288-def9f385d8fd",
    "name": "Granite City Food & Brewery (#31)",
    "brewery_type": "brewpub",
    "address_1": "801 N Plaza Dr",
    "address_2": null,
    "address_3": null,
    "city": "Schaumburg",
    "state_province": "Illinois",
    "postal_code": "60173-4919",
    "country": "United States",
    "longitude": null,
    "latitude": null,
    "phone": "6305235700",
    "website_url": "http://www.gcfb.net",
    "state": "Illinois",
    "street": "801 N Plaza Dr"
  },
  {
    "id": "dffebed5-2cdf-4cfc-931e-9362d79864e9",
    "name": "Granite City Food & Brewery (#32)",
    "brewery_type": "brewpub",
    "address_1": "39603 Traditions Dr",
    "address_2": null,
    "address_3": null,
    "city": "Northville",
    "state_province": "Michigan",
    "postal_code": "48168-9496",
    "country": "United States",
    "longitude": null,
    "latitude": null,
    "phone": "2486623400",
    "website_url": "http://www.gcfb.net",
    "state": "Michigan",
    "street": "39603 Traditions Dr"
  },
  {
    "id": "eeb8b590-826b-4085-a6bc-f199c7c12d96",
    "name": "Granite City Food & Brewery (#4)",
    "brewery_type": "brewpub",
    "address_1": "12801 University Ave",
    "address_2": null,
    "address_3": null,
    "city": "Clive",
    "state_province": "Iowa",
    "postal_code": "50325-8219",
    "country": "United States",
    "longitude": -93.795293,
    "latitude": 41.600494,
    "phone": "5152241300",
    "website_url": "http://www.gcfb.net",
    "state": "Iowa",
    "street": "12801 University Ave"
  },
  {
    "id": "3e536c0b-f3ec-4723-99e5-768baf817b55",
    "name": "Granite City Food & Brewery (#5)",
    "brewery_type": "brewpub",
    "address_1": "4755 1st Ave SE",
    "address_2": null,
    "address_3": null,
    "city": "Cedar Rapids",
    "state_province": "Iowa",
    "postal_code": "52402-3211",
    "country": "United States",
    "longitude": null,
    "latitude": null,
    "phone": "3193957500",
    "website_url": "http://www.gcfb.net",
    "state": "Iowa",
    "street": "4755 1st Ave SE"
  },
  {
    "id": "f61275ff-aa86-4a3a-8612-acd3d2af70a3",
    "name": "Granite City Food & Brewery (#6)",
    "brewery_type": "brewpub",
    "address_1": "5270 Utica Ridge Rd",
    "address_2": null,
    "address_3": null,
    "city": "Davenport",
    "state_province": "Iowa",
    "postal_code": "52807-3872",
    "country": "United States",
    "longitude": -90.51357975,
    "latitude": 41.57457211,
    "phone": "5633449700",
    "website_url": "http://www.gcfb.net",
    "state": "Iowa",
    "street": "5270 Utica Ridge Rd"
  },
  {
    "id": "fe235f51-102d-4240-b5c9-b0adf45b5b92",
    "name": "Granite City Food & Brewery (#7)",
    "brewery_type": "brewpub",
    "address_1": "6200 O St",
    "address_2": null,
    "address_3": null,
    "city": "Lincoln",
    "state_province": "Nebraska",
    "postal_code": "68510-2240",
    "country": "United States",
    "longitude": -96.6872327,
    "latitude": 40.8135885,
    "phone": "4024661900",
    "website_url": "http://www.gcfb.net",
    "state": "Nebraska",
    "street": "6200 O St"
  },
  {
    "id": "7f627de4-1a32-40dd-838f-5f0e3a4d700b",
    "name": "Granite City Food & Brewery (#8)",
    "brewery_type": "brewpub",
    "address_1": "11909 Main St",
    "address_2": null,
    "address_3": null,
    "city": "Maple Grove",
    "state_province": "Minnesota",
    "postal_code": "55369-7098",
    "country": "United States",
    "longitude": -93.4404863,
    "latitude": 45.0916614,
    "phone": "7634160010",
    "website_url": "http://www.gcfb.net",
    "state": "Minnesota",
    "street": "11909 Main St"
  },
  {
    "id": "caab6c5c-2ab1-4496-8ef1-2181f9e4e912",
    "name": "Granite City Food & Wort House",
    "brewery_type": "micro",
    "address_1": "1722 Detroit St",
    "address_2": null,
    "address_3": null,
    "city": "Ellsworth",
    "state_province": "Iowa",
    "postal_code": "50075",
    "country": "United States",
    "longitude": -93.57473798,
    "latitude": 42.31330919,
    "phone": "5158364060",
    "website_url": "http://www.gcfb.net",
    "state": "Iowa",
    "street": "1722 Detroit St"
  },
  {
    "id": "4c4a6c76-3b34-4061-b690-1d263451426d",
    "name": "Granite Falls Brewing Co.",
    "brewery_type": "brewpub",
    "address_1": "47 Duke St",
    "address_2": null,
    "address_3": null,
    "city": "Granite Falls",
    "state_province": "North Carolina",
    "postal_code": "28630-1807",
    "country": "United States",
    "longitude": -81.4285158,
    "latitude": 35.7894173,
    "phone": "8282121399",
    "website_url": "http://www.GraniteFallsBrewing.com",
    "state": "North Carolina",
    "street": "47 Duke St"
  },
  {
    "id": "a4ab98db-77ec-4f71-a838-44b06827fbbd",
    "name": "Granite Mountain Brewing",
    "brewery_type": "micro",
    "address_1": "123 N Cortez St",
    "address_2": null,
    "address_3": null,
    "city": "Prescott",
    "state_province": "Arizona",
    "postal_code": "86302-1109",
    "country": "United States",
    "longitude": -112.4686018,
    "latitude": 34.54238481,
    "phone": "9287785535",
    "website_url": "http://www.granitemountainbrewing.com",
    "state": "Arizona",
    "street": "123 N Cortez St"
  },
  {
    "id": "619567a1-5820-4d76-8e6f-9a6c9fdeb0bb",
    "name": "Granite Roots Brewing",
    "brewery_type": "closed",
    "address_1": "244 N Main St",
    "address_2": null,
    "address_3": null,
    "city": "Troy",
    "state_province": "New Hampshire",
    "postal_code": "03465",
    "country": "United States",
    "longitude": -72.18973144,
    "latitude": 42.84401358,
    "phone": "6032423435",
    "website_url": "http://www.graniterootsbrewing.com",
    "state": "New Hampshire",
    "street": "244 N Main St"
  },
  {
    "id": "a9c8887b-fd79-4f21-b314-88c44a86c087",
    "name": "Granville Brewing Company",
    "brewery_type": "micro",
    "address_1": "5371 Columbus Rd",
    "address_2": null,
    "address_3": null,
    "city": "Granville",
    "state_province": "Ohio",
    "postal_code": "43023-9192",
    "country": "United States",
    "longitude": -82.58861603,
    "latitude": 40.03527379,
    "phone": null,
    "website_url": "http://www.granvillewbrewing.com",
    "state": "Ohio",
    "street": "5371 Columbus Rd"
  },
  {
    "id": "1798b840-e915-4e64-a1ca-ac81a0bb8c84",
    "name": "Grasslands Brewing Co",
    "brewery_type": "micro",
    "address_1": "603 W Gaines St Ste 7",
    "address_2": null,
    "address_3": null,
    "city": "Tallahassee",
    "state_province": "Florida",
    "postal_code": "32304-4447",
    "country": "United States",
    "longitude": null,
    "latitude": null,
    "phone": "8507653014",
    "website_url": "http://www.grasslandsbrewery.com",
    "state": "Florida",
    "street": "603 W Gaines St Ste 7"
  },
  {
    "id": "5cb67e83-2c03-4d60-b6b1-0e0aa47c72f9",
    "name": "Grateful Grain Brewing Company",
    "brewery_type": "micro",
    "address_1": "26 Route 126",
    "address_2": null,
    "address_3": null,
    "city": "Monmouth",
    "state_province": "Maine",
    "postal_code": "04259-7727",
    "country": "United States",
    "longitude": null,
    "latitude": null,
    "phone": null,
    "website_url": "http://www.gratefulgrainbrewing.com",
    "state": "Maine",
    "street": "26 Route 126"
  },
  {
    "id": "283bb159-494a-47b1-a58b-0229bbcb4891",
    "name": "Gravel Bottom Craft Brewery",
    "brewery_type": "micro",
    "address_1": "452 Ada Dr SE",
    "address_2": null,
    "address_3": null,
    "city": "Ada",
    "state_province": "Michigan",
    "postal_code": "49301",
    "country": "United States",
    "longitude": -85.4857858,
    "latitude": 42.955144,
    "phone": "6169207398",
    "website_url": "http://www.gravelbottom.com",
    "state": "Michigan",
    "street": "452 Ada Dr SE"
  },
  {
    "id": "99a1c592-3e0a-47fb-b35c-682a601b29c7",
    "name": "Gravely Brewing Co.",
    "brewery_type": "micro",
    "address_1": "514 Baxter Ave",
    "address_2": null,
    "address_3": null,
    "city": "Louisville",
    "state_province": "Kentucky",
    "postal_code": "40204-1104",
    "country": "United States",
    "longitude": -85.7301702,
    "latitude": 38.2470763,
    "phone": "5028223202",
    "website_url": "http://www.gravelybrewing.com",
    "state": "Kentucky",
    "street": "514 Baxter Ave"
  },
  {
    "id": "3eb5427c-533e-4d66-acd1-3f5643020f35",
    "name": "Gravity Ales LLC",
    "brewery_type": "planning",
    "address_1": null,
    "address_2": null,
    "address_3": null,
    "city": "Swarthmore",
    "state_province": "Pennsylvania",
    "postal_code": "19081-1421",
    "country": "United States",
    "longitude": null,
    "latitude": null,
    "phone": "6105472235",
    "website_url": "http://gravityales.com",
    "state": "Pennsylvania",
    "street": null
  },
  {
    "id": "2c912fda-7f96-474d-8871-f534c6ccdb9e",
    "name": "Gravity Brew Works",
    "brewery_type": "micro",
    "address_1": "11512 Hwy 14 E",
    "address_2": null,
    "address_3": null,
    "city": "Big Flat",
    "state_province": "Arkansas",
    "postal_code": "72617",
    "country": "United States",
    "longitude": null,
    "latitude": null,
    "phone": "8704482077",
    "website_url": "http://www.gravitybrewworks.com",
    "state": "Arkansas",
    "street": "11512 Hwy 14 E"
  },
  {
    "id": "a29926af-93f7-4b62-9c4b-fc0dadeeaee0",
    "name": "Gravity Brewing",
    "brewery_type": "micro",
    "address_1": "1150 Pine St Unit B",
    "address_2": null,
    "address_3": null,
    "city": "Louisville",
    "state_province": "Colorado",
    "postal_code": "80027-1463",
    "country": "United States",
    "longitude": null,
    "latitude": null,
    "phone": "3035440746",
    "website_url": "http://www.thegravitybrewing.com",
    "state": "Colorado",
    "street": "1150 Pine St Unit B"
  },
  {
    "id": "8e531fdc-43a7-4783-a070-546bd56b250d",
    "name": "Gravity Brewlab",
    "brewery_type": "contract",
    "address_1": "1521 Alton Rd # 591",
    "address_2": null,
    "address_3": null,
    "city": "Miami Beach",
    "state_province": "Florida",
    "postal_code": "33139-3301",
    "country": "United States",
    "longitude": null,
    "latitude": null,
    "phone": "7865367085",
    "website_url": "http://www.Gravity.beer",
    "state": "Florida",
    "street": "1521 Alton Rd # 591"
  },
  {
    "id": "166dfb9e-0c4e-4ffc-ad52-f1eb798265fc",
    "name": "GravSouth Brewing Co.",
    "brewery_type": "brewpub",
    "address_1": "7950 Redwood Dr Ste 15",
    "address_2": null,
    "address_3": null,
    "city": "Cotati",
    "state_province": "California",
    "postal_code": "94931-3054",
    "country": "United States",
    "longitude": -122.7140388,
    "latitude": 38.33255458,
    "phone": "7077534198",
    "website_url": "http://www.gravsouthbrewco.com",
    "state": "California",
    "street": "7950 Redwood Dr Ste 15"
  },
  {
    "id": "8e5e28a5-6bfb-4b74-8a0e-760cf636fd96",
    "name": "Gray Brewing Co",
    "brewery_type": "micro",
    "address_1": "2424 W Court St",
    "address_2": null,
    "address_3": null,
    "city": "Janesville",
    "state_province": "Wisconsin",
    "postal_code": "53548",
    "country": "United States",
    "longitude": -89.04972689,
    "latitude": 42.67930794,
    "phone": "6087565430",
    "website_url": null,
    "state": "Wisconsin",
    "street": "2424 W Court St"
  },
  {
    "id": "b560642e-b3a4-4ec9-9a71-00fb884ee623",
    "name": "Grayton Beer Brewpub",
    "brewery_type": "brewpub",
    "address_1": "217 Serenoa Rd",
    "address_2": null,
    "address_3": null,
    "city": "Santa Rosa Beach",
    "state_province": "Florida",
    "postal_code": "32459-6099",
    "country": "United States",
    "longitude": null,
    "latitude": null,
    "phone": "8502314786",
    "website_url": null,
    "state": "Florida",
    "street": "217 Serenoa Rd"
  },
  {
    "id": "e19d6c20-0f5a-4b68-859f-ad96654840f2",
    "name": "Grayton Beer Company",
    "brewery_type": "micro",
    "address_1": "217 Serenoa Rd",
    "address_2": null,
    "address_3": null,
    "city": "Santa Rosa Beach",
    "state_province": "Florida",
    "postal_code": "32459-6099",
    "country": "United States",
    "longitude": null,
    "latitude": null,
    "phone": "8502314786",
    "website_url": "http://www.graytonbeer.com",
    "state": "Florida",
    "street": "217 Serenoa Rd"
  },
  {
    "id": "7fc10d9b-8289-4db8-9bc4-c09e72d94b6e",
    "name": "Greasy Luck Brewery",
    "brewery_type": "brewpub",
    "address_1": "791 Purchase St",
    "address_2": null,
    "address_3": null,
    "city": "New Bedford",
    "state_province": "Massachusetts",
    "postal_code": "02740-6345",
    "country": "United States",
    "longitude": -70.92607527,
    "latitude": 41.63507079,
    "phone": "7744254600",
    "website_url": "http://www.greasyluckbrewery.com",
    "state": "Massachusetts",
    "street": "791 Purchase St"
  },
  {
    "id": "607a358d-eef1-4db9-bffc-99c6640b5932",
    "name": "Great Adirondack Brewing Company",
    "brewery_type": "brewpub",
    "address_1": "2442 Main St",
    "address_2": null,
    "address_3": null,
    "city": "Lake Placid",
    "state_province": "New York",
    "postal_code": "12946-3300",
    "country": "United States",
    "longitude": -73.985385,
    "latitude": 44.288397,
    "phone": "5185231629",
    "website_url": "http://www.adksteakandseafood.com",
    "state": "New York",
    "street": "2442 Main St"
  },
  {
    "id": "fd35a948-4353-490d-8e2c-1ea12ddf0533",
    "name": "Great American Restaurants, Sweetwater Tavern",
    "brewery_type": "brewpub",
    "address_1": "14250 Sweetwater Ln",
    "address_2": null,
    "address_3": null,
    "city": "Centreville",
    "state_province": "Virginia",
    "postal_code": "20121-5336",
    "country": "United States",
    "longitude": -77.43946496,
    "latitude": 38.82898546,
    "phone": "7034491100",
    "website_url": "http://www.greatamericanrestaurants.com",
    "state": "Virginia",
    "street": "14250 Sweetwater Ln"
  }
]