[
  {
    "id": "dc89cfaa-5024-46ca-b73f-ef654ed15a16",
    "name": "Odd Side Ales Production Facility",
    "brewery_type": "micro",
    "address_1": "1810 Industrial Dr",
    "address_2": null,
    "address_3": null,
    "city": "Grand Haven",
    "state_province": "Michigan",
    "postal_code": "49417-8930",
    "country": "United States",
    "longitude": -86.1983973,
    "latitude": 43.03124408,
    "phone": null,
    "website_url": null,
    "state": "Michigan",
    "street": "1810 Industrial Dr"
  },
  {
    "id": "b257714f-ad0b-4898-a9bc-3c6e29dc70a1",
    "name": "Odd13 Brewing Inc",
    "brewery_type": "micro",
    "address_1": "301 E Simpson St",
    "address_2": null,
    "address_3": null,
    "city": "Lafayette",
    "state_province": "Colorado",
    "postal_code": "80026-2325",
    "country": "United States",
    "longitude": -105.0878839,
    "latitude": 39.9983626,
    "phone": "3039974164",
    "website_url": "http://www.odd13brewing.com",
    "state": "Colorado",
    "street": "301 E Simpson St"
  },
  {
    "id": "ec524746-888e-4384-9f87-f8dc1af6428e",
    "name": "Odd13 Production Facility",
    "brewery_type": "micro",
    "address_1": "505 Stacy Ct Ste D",
    "address_2": null,
    "address_3": null,
    "city": "Lafayette",
    "state_province": "Colorado",
    "postal_code": "80026",
    "country": "United States",
    "longitude": null,
    "latitude": null,
    "phone": null,
    "website_url": null,
    "state": "Colorado",
    "street": "505 Stacy Ct Ste D"
  },
  {
    "id": "3d6ce7c7-5481-48c6-afd7-4b68dccec4dc",
    "name": "Oddball Brewing",
    "brewery_type": "micro",
    "address_1": "6 Glass St",
    "address_2": null,
    "address_3": null,
    "city": "Suncook",
    "state_province": "New Hampshire",
    "postal_code": "03275-1512",
    "country": "United States",
    "longitude": -71.45239635,
    "latitude": 43.1308185,
    "phone": "6032105654",
    "website_url": "http://www.oddballbrewingnh.com",
    "state": "New Hampshire",
    "street": "6 Glass St"
  },
  {
    "id": "d496c903-0a57-4e47-a859-3dd0aed44a71",
    "name": "OddPitch Brewing Co.",
    "brewery_type": "planning",
    "address_1": null,
    "address_2": null,
    "address_3": null,
    "city": "Missoula",
    "state_province": "Montana",
    "postal_code": "59801-4473",
    "country": "United States",
    "longitude": null,
    "latitude": null,
    "phone": "4063605363",
    "website_url": "http://www.oddpitch.com",
    "state": "Montana",
    "street": null
  },
  {
    "id": "2f6b7d0c-9a11-46bf-ab17-7bc72f9868a0",
    "name": "Oddstory Brewing Co",
    "brewery_type": "micro",
    "address_1": "336 E Mlk",
    "address_2": null,
    "address_3": null,
    "city": "Chattanooga",
    "state_province": "Tennessee",
    "postal_code": "37403-4121",
    "country": "United States",
    "longitude": null,
    "latitude": null,
    "phone": "2563097208",
    "website_url": "http://www.oddstorybrewing.co",
    "state": "Tennessee",
    "street": "336 E Mlk"
  },
  {
    "id": "c922d09e-1c59-44c2-906e-1cd7493b5867",
    "name": "Oddwood Ales",
    "brewery_type": "brewpub",
    "address_1": "3108 Manor Rd",
    "address_2": null,
    "address_3": null,
    "city": "Austin",
    "state_province": "Texas",
    "postal_code": "78723-5719",
    "country": "United States",
    "longitude": null,
    "latitude": null,
    "phone": null,
    "website_url": "http://www.oddwoodales.com",
    "state": "Texas",
    "street": "3108 Manor Rd"
  },
  {
    "id": "be4c4685-fff4-40c5-9b6a-96e25f809c09",
    "name": "Ode Brewing Co.",
    "brewery_type": "brewpub",
    "address_1": "3233 N Mesa St Spot 301",
    "address_2": null,
    "address_3": null,
    "city": "El Paso",
    "state_province": "Texas",
    "postal_code": "79902-2337",
    "country": "United States",
    "longitude": null,
    "latitude": null,
    "phone": "9153514377",
    "website_url": null,
    "state": "Texas",
    "street": "3233 N Mesa St Spot 301"
  },
  {
    "id": "63fd2c11-5530-4de9-8fe2-8fbf65e3a49f",
    "name": "Odell Brewing Co",
    "brewery_type": "regional",
    "address_1": "800 E Lincoln Ave",
    "address_2": null,
    "address_3": null,
    "city": "Fort Collins",
    "state_province": "Colorado",
    "postal_code": "80524-2507",
    "country": "United States",
    "longitude": -105.0633327,
    "latitude": 40.5895239,
    "phone": "9704989070",
    "website_url": "http://www.odellbrewing.com",
    "state": "Colorado",
    "street": "800 E Lincoln Ave"
  },
  {
    "id": "504a4dee-ca0d-49cf-87dc-259504ae153c",
    "name": "Odell Brewing Co - Denver",
    "brewery_type": "micro",
    "address_1": "2945 Larimer St",
    "address_2": null,
    "address_3": null,
    "city": "Denver",
    "state_province": "Colorado",
    "postal_code": "80205-2308",
    "country": "United States",
    "longitude": -104.9810078,
    "latitude": 39.7621447,
    "phone": null,
    "website_url": null,
    "state": "Colorado",
    "street": "2945 Larimer St"
  },
  {
    "id": "ed47cd56-6311-47e5-9905-eb5ecca339ff",
    "name": "Odin Brewing Co",
    "brewery_type": "brewpub",
    "address_1": "402 Baker Blvd",
    "address_2": null,
    "address_3": null,
    "city": "Tukwila",
    "state_province": "Washington",
    "postal_code": "98188-2905",
    "country": "United States",
    "longitude": -122.2520643,
    "latitude": 47.4586237,
    "phone": "2062432363",
    "website_url": "http://www.odinbrewing.com",
    "state": "Washington",
    "street": "402 Baker Blvd"
  },
  {
    "id": "4520147b-3286-4029-bbc7-c6faf486a166",
    "name": "Odra Barrels",
    "brewery_type": "micro",
    "address_1": "Mi\u0119dzyleska 2/4",
    "address_2": null,
    "address_3": null,
    "city": "Wroc\u0142aw",
    "state_province": "dolno\u015bl\u0105skie",
    "postal_code": "50-514",
    "country": "Poland",
    "longitude": 17.0706993,
    "latitude": 51.0817502,
    "phone": null,
    "website_url": null,
    "state": "dolno\u015bl\u0105skie",
    "street": "Mi\u0119dzyleska 2/4"
  },
  {
    "id": "319af5ac-111d-487e-81d2-0b25f910602d",
    "name": "Odyssey Beerwerks",
    "brewery_type": "micro",
    "address_1": "5535 W 56th Ave Ste 107",
    "address_2": null,
    "address_3": null,
    "city": "Arvada",
    "state_province": "Colorado",
    "postal_code": "80002-2806",
    "country": "United States",
    "longitude": null,
    "latitude": null,
    "phone": "3034210772",
    "website_url": "http://www.odysseybeerwerks.com",
    "state": "Colorado",
    "street": "5535 W 56th Ave Ste 107"
  },
  {
    "id": "36e353c7-895b-4ebd-ba43-01ce7b083c94",
    "name": "OEC Brewing",
    "brewery_type": "micro",
    "address_1": "7 Fox Hollow Rd",
    "address_2": null,
    "address_3": null,
    "city": "Oxford",
    "state_province": "Connecticut",
    "postal_code": "06478-3162",
    "country": "United States",
    "longitude": null,
    "latitude": null,
    "phone": "2032952831",
    "website_url": "http://www.oecbrewing.com",
    "state": "Connecticut",
    "street": "7 Fox Hollow Rd"
  },
  {
    "id": "e81874e0-d418-4c9e-aaf6-6420272a1796",
    "name": "Off Camber Brewing",
    "brewery_type": "micro",
    "address_1": "6506 114th Avenue Ct E",
    "address_2": null,
    "address_3": null,
    "city": "Puyallup",
    "state_province": "Washington",
    "postal_code": "98372-2811",
    "country": "United States",
    "longitude": -122.2772454,
    "latitude": 47.1989594,
    "phone": "2533128796",
    "website_url": "https://www.offcamberbrewing.com",
    "state": "Washington",
    "street": "6506 114th Avenue Ct E"
  },
  {
    "id": "c8e69ab9-60b6-44b9-8188-cf3d719b8d82",
    "name": "Off Color Brewing",
    "brewery_type": "micro",
    "address_1": "3925 W Dickens Ave",
    "address_2": null,
    "address_3": null,
    "city": "Chicago",
    "state_province": "Illinois",
    "postal_code": "60647-3453",
    "country": "United States",
    "longitude": -87.72538437,
    "latitude": 41.91892697,
    "phone": null,
    "website_url": "http://www.offcolorbrewing.com",
    "state": "Illinois",
    "street": "3925 W Dickens Ave"
  },
  {
    "id": "970d787c-1b48-4cf7-a213-0c1845db1391",
    "name": "Off Main Brewing",
    "brewery_type": "planning",
    "address_1": null,
    "address_2": null,
    "address_3": null,
    "city": "Davidson",
    "state_province": "North Carolina",
    "postal_code": "28036-6945",
    "country": "United States",
    "longitude": null,
    "latitude": null,
    "phone": "5124153075",
    "website_url": "http://OffMainBrewing.com",
    "state": "North Carolina",
    "street": null
  },
  {
    "id": "89cd06c5-f8ec-4d6a-9156-420f49bd1d2a",
    "name": "Off Square Brewing",
    "brewery_type": "brewpub",
    "address_1": "11000 Delaware Pkwy",
    "address_2": null,
    "address_3": null,
    "city": "Crown Point",
    "state_province": "Indiana",
    "postal_code": "46307-7895",
    "country": "United States",
    "longitude": -87.329728,
    "latitude": 41.417636,
    "phone": "2193108898",
    "website_url": "http://www.offsquarebrewing.com",
    "state": "Indiana",
    "street": "11000 Delaware Pkwy"
  },
  {
    "id": "3208af9a-4b72-4023-827c-8f41336a6227",
    "name": "Off The Cuff Brewing Company",
    "brewery_type": "planning",
    "address_1": null,
    "address_2": null,
    "address_3": null,
    "city": "West Brookfield",
    "state_province": "Massachusetts",
    "postal_code": "01585-6023",
    "country": "United States",
    "longitude": null,
    "latitude": null,
    "phone": "4132810525",
    "website_url": null,
    "state": "Massachusetts",
    "street": null
  },
  {
    "id": "ff0367d9-f73e-4002-b6ff-1fafb6649c86",
    "name": "Off the Grid Brewing Co",
    "brewery_type": "micro",
    "address_1": "13615 John Glenn Rd Ste A",
    "address_2": null,
    "address_3": null,
    "city": "Apple Valley",
    "state_province": "California",
    "postal_code": "92308-5730",
    "country": "United States",
    "longitude": -117.1827885,
    "latitude": 34.49900885,
    "phone": "7602475600",
    "website_url": "http://www.otgbrew.com",
    "state": "California",
    "street": "13615 John Glenn Rd Ste A"
  },
  {
    "id": "cf1aec2c-18d4-42cc-a4e2-f8407b060607",
    "name": "Off Track Brewing Company",
    "brewery_type": "micro",
    "address_1": "227 Stark Street",
    "address_2": null,
    "address_3": null,
    "city": "Cincinnati",
    "state_province": "Ohio",
    "postal_code": "45214",
    "country": "United States",
    "longitude": -84.522243,
    "latitude": 39.118674,
    "phone": "5136044527",
    "website_url": "http://www.OffTrackBrewingCompany.com",
    "state": "Ohio",
    "street": "227 Stark Street"
  },
  {
    "id": "0a92f902-3d1d-4ef8-9351-5352615cc749",
    "name": "Off-Kilter Brewing",
    "brewery_type": "micro",
    "address_1": "15810 Carbrey Ave",
    "address_2": null,
    "address_3": null,
    "city": "South Beloit",
    "state_province": "Illinois",
    "postal_code": "61080",
    "country": "United States",
    "longitude": -89.06082453,
    "latitude": 42.48966938,
    "phone": null,
    "website_url": "http://www.OffKilterBrewing.com",
    "state": "Illinois",
    "street": "15810 Carbrey Ave"
  },
  {
    "id": "7f85506d-f2bc-4377-9c88-43d519059151",
    "name": "Offshoot Beer Co.",
    "brewery_type": "micro",
    "address_1": "737 Dunn Way",
    "address_2": null,
    "address_3": null,
    "city": "Placentia",
    "state_province": "California",
    "postal_code": "92870",
    "country": "United States",
    "longitude": -117.880182,
    "latitude": 33.86112597,
    "phone": "7149966258",
    "website_url": "http://www.offshootbeer.com",
    "state": "California",
    "street": "737 Dunn Way"
  },
  {
    "id": "9e3524ee-a548-4089-8de2-7a82c9cd767f",
    "name": "Offshore Ale Co",
    "brewery_type": "brewpub",
    "address_1": "30 Kennebec Ave",
    "address_2": null,
    "address_3": null,
    "city": "Oak Bluffs",
    "state_province": "Massachusetts",
    "postal_code": "02557",
    "country": "United States",
    "longitude": -70.55790959,
    "latitude": 41.45488324,
    "phone": "5086932626",
    "website_url": "http://www.offshoreale.com",
    "state": "Massachusetts",
    "street": "30 Kennebec Ave"
  },
  {
    "id": "9716ba4a-bd0b-47b0-93c9-4c18bd2afaec",
    "name": "Oggi's Sports Brewhouse Pizza - Apple Valley",
    "brewery_type": "brewpub",
    "address_1": "19201 Bear Valley Rd Ste D",
    "address_2": null,
    "address_3": null,
    "city": "Apple Valley",
    "state_province": "California",
    "postal_code": "92308-2704",
    "country": "United States",
    "longitude": -117.2449244,
    "latitude": 34.47042728,
    "phone": "7607922622",
    "website_url": "http://www.oggis.com",
    "state": "California",
    "street": "19201 Bear Valley Rd Ste D"
  },
  {
    "id": "8c9cf724-6f82-4486-bbd4-d2f1ae91c4d1",
    "name": "Oggi's Sports Brewhouse Pizza - Upland",
    "brewery_type": "brewpub",
    "address_1": "1173 E 19th St",
    "address_2": null,
    "address_3": null,
    "city": "Upland",
    "state_province": "California",
    "postal_code": "91784",
    "country": "United States",
    "longitude": -117.6351899,
    "latitude": 34.1334924,
    "phone": "9099498868",
    "website_url": "http://www.oggis.com",
    "state": "California",
    "street": "1173 E 19th St"
  },
  {
    "id": "5f5febce-99e7-4d0f-9408-a0d1c1d86270",
    "name": "Oggis Pizza & Brewing Co - Carmel Mountain Ranch",
    "brewery_type": "brewpub",
    "address_1": "10155 Rancho Carmel Dr",
    "address_2": null,
    "address_3": null,
    "city": "San Diego",
    "state_province": "California",
    "postal_code": "92128-3609",
    "country": "United States",
    "longitude": -117.089795,
    "latitude": 32.965495,
    "phone": "8585927883",
    "website_url": "http://www.oggis.com",
    "state": "California",
    "street": "10155 Rancho Carmel Dr"
  },
  {
    "id": "6bd6516a-7ce7-411f-8cbe-bf77f1d43ab9",
    "name": "Oggis Pizza & Brewing Co - Mission Valley",
    "brewery_type": "brewpub",
    "address_1": "2245 Fenton Pkwy Ste 108 Fenton Marketplace",
    "address_2": null,
    "address_3": null,
    "city": "San Diego",
    "state_province": "California",
    "postal_code": "92108-4737",
    "country": "United States",
    "longitude": -117.1291243,
    "latitude": 32.78010941,
    "phone": "6196401072",
    "website_url": "http://www.oggis.com",
    "state": "California",
    "street": "2245 Fenton Pkwy Ste 108 Fenton Marketplace"
  },
  {
    "id": "5e4bf39c-a945-4ede-a628-3c8de572c419",
    "name": "Ogie Brewing",
    "brewery_type": "micro",
    "address_1": "12 South St",
    "address_2": null,
    "address_3": null,
    "city": "Milford",
    "state_province": "New Hampshire",
    "postal_code": "03055",
    "country": "United States",
    "longitude": null,
    "latitude": null,
    "phone": "6034396788",
    "website_url": null,
    "state": "New Hampshire",
    "street": "12 South St"
  },
  {
    "id": "0b2c7cb1-a556-49d7-b748-3b98c61769b8",
    "name": "Ogopogo Brewing",
    "brewery_type": "micro",
    "address_1": "864 Commercial Ave",
    "address_2": null,
    "address_3": null,
    "city": "San Gabriel",
    "state_province": "California",
    "postal_code": "91776",
    "country": "United States",
    "longitude": -118.0891476,
    "latitude": 34.096219,
    "phone": null,
    "website_url": "http://www.ogopogobrewco.com",
    "state": "California",
    "street": "864 Commercial Ave"
  },
  {
    "id": "195c9a3a-3c64-4ba9-befb-a94b9b9a9573",
    "name": "Ogres Brewing",
    "brewery_type": "micro",
    "address_1": "7693 Cultus Bay Rd Ste 1",
    "address_2": null,
    "address_3": null,
    "city": "Clinton",
    "state_province": "Washington",
    "postal_code": "98236-9432",
    "country": "United States",
    "longitude": -122.38990827309,
    "latitude": 47.931982071205,
    "phone": "4254189005",
    "website_url": "http://www.ogresbrewing.com",
    "state": "Washington",
    "street": "7693 Cultus Bay Rd Ste 1"
  },
  {
    "id": "c0757e3d-a7d9-485c-8bf2-919886691990",
    "name": "Ohana Brewing Co",
    "brewery_type": "micro",
    "address_1": "1756 E 23rd St",
    "address_2": null,
    "address_3": null,
    "city": "Los Angeles",
    "state_province": "California",
    "postal_code": "90058-1012",
    "country": "United States",
    "longitude": -118.2415609,
    "latitude": 34.01575629,
    "phone": "6262822337",
    "website_url": "http://www.ohanabrew.com",
    "state": "California",
    "street": "1756 E 23rd St"
  },
  {
    "id": "88ae39de-93d2-4832-97a1-3c28a0457ce8",
    "name": "Ohio Brewing Company",
    "brewery_type": "micro",
    "address_1": "2250 Front St",
    "address_2": null,
    "address_3": null,
    "city": "Cuyahoga Falls",
    "state_province": "Ohio",
    "postal_code": "44221-2510",
    "country": "United States",
    "longitude": -81.4748217,
    "latitude": 41.1444116,
    "phone": "2342086243",
    "website_url": "http://www.ohiobrewing.com",
    "state": "Ohio",
    "street": "2250 Front St"
  },
  {
    "id": "f40656ab-f140-4a95-8292-6f00c74b2e82",
    "name": "Oil City Beer Company",
    "brewery_type": "micro",
    "address_1": "4155 Legion LN",
    "address_2": null,
    "address_3": null,
    "city": "Casper",
    "state_province": "Wyoming",
    "postal_code": "82609-1946",
    "country": "United States",
    "longitude": -106.2752165983,
    "latitude": 42.851373807407,
    "phone": "3073371177",
    "website_url": "http://www.oilcitybeer.com",
    "state": "Wyoming",
    "street": "4155 Legion LN"
  },
  {
    "id": "4c18e0e2-d6c6-430f-a3aa-3ffecd52e29d",
    "name": "Oil Horse Brewing Company",
    "brewery_type": "micro",
    "address_1": "101 W Tyler St",
    "address_2": null,
    "address_3": null,
    "city": "Longview",
    "state_province": "Texas",
    "postal_code": "75601-6318",
    "country": "United States",
    "longitude": -94.740354,
    "latitude": 32.495365,
    "phone": "9032203414",
    "website_url": "http://Www.oilhorsebrewing.com",
    "state": "Texas",
    "street": "101 W Tyler St"
  },
  {
    "id": "8afbe041-76da-4532-8b5b-484bb190e998",
    "name": "OK3 Brewing Company",
    "brewery_type": "micro",
    "address_1": "12913 17th Ave",
    "address_2": null,
    "address_3": null,
    "city": "Lemoore",
    "state_province": "California",
    "postal_code": "93245-9485",
    "country": "United States",
    "longitude": -119.7617855,
    "latitude": 36.28513704,
    "phone": "15598164083",
    "website_url": "http://www.ok3brewing.com",
    "state": "California",
    "street": "12913 17th Ave"
  },
  {
    "id": "81916cf6-f84e-4480-a48c-93ff1e1322ad",
    "name": "Okell & Sons Ltd",
    "brewery_type": "micro",
    "address_1": "Old Castletown Road",
    "address_2": null,
    "address_3": null,
    "city": "Kewaigue",
    "state_province": "Middle",
    "postal_code": "IM2 1QG",
    "country": "Isle of Man",
    "longitude": -4.506495,
    "latitude": 54.143623,
    "phone": "+441624699400",
    "website_url": "https://www.okells.co.uk/",
    "state": "Middle",
    "street": "Old Castletown Road"
  },
  {
    "id": "eabc841f-1006-44c9-a1bf-1b067946ea0a",
    "name": "Okoboji Brewing Co",
    "brewery_type": "micro",
    "address_1": "3705 Highway 71",
    "address_2": null,
    "address_3": null,
    "city": "Spirit Lake",
    "state_province": "Iowa",
    "postal_code": "51360-7196",
    "country": "United States",
    "longitude": -95.125984,
    "latitude": 43.405983,
    "phone": "7123303363",
    "website_url": "http://www.brewokoboji.com",
    "state": "Iowa",
    "street": "3705 Highway 71"
  },
  {
    "id": "7b8b7788-ba85-4324-8ed5-44ed0770911b",
    "name": "Ol' Republic Brewery",
    "brewery_type": "micro",
    "address_1": "124 Argall Way",
    "address_2": null,
    "address_3": null,
    "city": "Nevada City",
    "state_province": "California",
    "postal_code": "95959-3002",
    "country": "United States",
    "longitude": -121.0244602,
    "latitude": 39.25272303,
    "phone": "5302647263",
    "website_url": "http://www.olrepublicbrewery.com",
    "state": "California",
    "street": "124 Argall Way"
  },
  {
    "id": "02ff9941-1dab-4ef3-b713-21f3e095d62b",
    "name": "Ol' Republic Brewery Rancho Cordova",
    "brewery_type": "micro",
    "address_1": "11151 Trade Center Dr Ste 104",
    "address_2": null,
    "address_3": null,
    "city": "Rancho Cordova",
    "state_province": "California",
    "postal_code": "95670",
    "country": "United States",
    "longitude": -121.2706039,
    "latitude": 38.60219217,
    "phone": "9162158702",
    "website_url": null,
    "state": "California",
    "street": "11151 Trade Center Dr Ste 104"
  },
  {
    "id": "9dc287b2-c3b4-41d9-943f-eb24f2e4ce10",
    "name": "Ol' Shed Brewing Company",
    "brewery_type": "planning",
    "address_1": null,
    "address_2": null,
    "address_3": null,
    "city": "Mathis",
    "state_province": "Texas",
    "postal_code": "78368-1738",
    "country": "United States",
    "longitude": null,
    "latitude": null,
    "phone": null,
    "website_url": null,
    "state": "Texas",
    "street": null
  },
  {
    "id": "74ecf1e8-780b-4fdf-a910-722bb60f8abb",
    "name": "Ola Brew Co.",
    "brewery_type": "micro",
    "address_1": "74-5598 Luhia St Ste A",
    "address_2": null,
    "address_3": null,
    "city": "Kailua Kona",
    "state_province": "Hawaii",
    "postal_code": "96740-3151",
    "country": "United States",
    "longitude": -155.99806,
    "latitude": 19.646861,
    "phone": "8083393565",
    "website_url": "http://www.olabrewco.com",
    "state": "Hawaii",
    "street": "74-5598 Luhia St Ste A"
  },
  {
    "id": "df551d63-a1b6-4973-b329-999f41e4c337",
    "name": "Old 290 Brewery",
    "brewery_type": "planning",
    "address_1": null,
    "address_2": null,
    "address_3": null,
    "city": "Santa Ana",
    "state_province": "California",
    "postal_code": "92704-7463",
    "country": "United States",
    "longitude": -117.8732213,
    "latitude": 33.7494951,
    "phone": "7145464255",
    "website_url": null,
    "state": "California",
    "street": null
  },
  {
    "id": "ac5ea286-db7c-47ea-ac22-e13289b39bbf",
    "name": "Old 690 Brewing Co",
    "brewery_type": "brewpub",
    "address_1": "15670 Ashbury Church Rd",
    "address_2": null,
    "address_3": null,
    "city": "Purcellville",
    "state_province": "Virginia",
    "postal_code": "20132-2817",
    "country": "United States",
    "longitude": null,
    "latitude": null,
    "phone": "5406687023",
    "website_url": "http://www.old690.com",
    "state": "Virginia",
    "street": "15670 Ashbury Church Rd"
  },
  {
    "id": "fd94d41b-6d0a-4a93-a700-f042096025da",
    "name": "Old 99 Brewing Co",
    "brewery_type": "micro",
    "address_1": "3750 Hooker Rd Ste A",
    "address_2": null,
    "address_3": null,
    "city": "Roseburg",
    "state_province": "Oregon",
    "postal_code": "97470-4501",
    "country": "United States",
    "longitude": -123.3532677,
    "latitude": 43.25418612,
    "phone": "5417848012",
    "website_url": "http://www.old99brewing.com",
    "state": "Oregon",
    "street": "3750 Hooker Rd Ste A"
  },
  {
    "id": "78f58f23-0430-49bf-b50b-9371cb7ab9cb",
    "name": "Old Bavarian Brewing Co",
    "brewery_type": "contract",
    "address_1": "1515 Greendale St",
    "address_2": null,
    "address_3": null,
    "city": "Menasha",
    "state_province": "Wisconsin",
    "postal_code": "54952-2620",
    "country": "United States",
    "longitude": -88.416059,
    "latitude": 44.217357,
    "phone": "9207300202",
    "website_url": "http://www.oldbavarian.com",
    "state": "Wisconsin",
    "street": "1515 Greendale St"
  },
  {
    "id": "af3289a4-80a1-4aaa-872d-3699402bfbe2",
    "name": "Old Bisbee Brewing",
    "brewery_type": "micro",
    "address_1": "23 Brewery Ave",
    "address_2": null,
    "address_3": null,
    "city": "Bisbee",
    "state_province": "Arizona",
    "postal_code": "85603",
    "country": "United States",
    "longitude": -109.9138438,
    "latitude": 31.44272169,
    "phone": "5204322739",
    "website_url": "http://www.oldbisbeebrewingcompany.com",
    "state": "Arizona",
    "street": "23 Brewery Ave"
  },
  {
    "id": "f684669c-35f3-4626-9f4e-04906fbbfb58",
    "name": "Old Black Bear Brewing",
    "brewery_type": "micro",
    "address_1": "208 Main St",
    "address_2": null,
    "address_3": null,
    "city": "Madison",
    "state_province": "Alabama",
    "postal_code": "35758-1813",
    "country": "United States",
    "longitude": -86.74922409,
    "latitude": 34.69329345,
    "phone": "2568504639",
    "website_url": null,
    "state": "Alabama",
    "street": "208 Main St"
  },
  {
    "id": "9698719a-2987-488e-aa75-6b1c5ae568fc",
    "name": "Old Boys Brewhouse",
    "brewery_type": "brewpub",
    "address_1": "971 W Savidge St",
    "address_2": null,
    "address_3": null,
    "city": "Spring Lake",
    "state_province": "Michigan",
    "postal_code": "49456-1684",
    "country": "United States",
    "longitude": -86.21215194,
    "latitude": 43.07642829,
    "phone": "6168509950",
    "website_url": "http://www.oldboysbrewhouse.com",
    "state": "Michigan",
    "street": "971 W Savidge St"
  },
  {
    "id": "60cbbd4a-6323-4ac6-8614-ca4aae338a65",
    "name": "Old Bus Tavern",
    "brewery_type": "brewpub",
    "address_1": "3193 Mission St",
    "address_2": null,
    "address_3": null,
    "city": "San Francisco",
    "state_province": "California",
    "postal_code": "94110-4515",
    "country": "United States",
    "longitude": -122.4195103,
    "latitude": 37.745701,
    "phone": "4158431938",
    "website_url": "http://www.oldbustavern.com",
    "state": "California",
    "street": "3193 Mission St"
  }
]