[
  {
    "id": "093abb2e-c49c-4581-ab52-3148c1494a61",
    "name": "Oviedo Brewing Co",
    "brewery_type": "planning",
    "address_1": null,
    "address_2": null,
    "address_3": null,
    "city": "Oviedo",
    "state_province": "Florida",
    "postal_code": "32765-7426",
    "country": "United States",
    "longitude": null,
    "latitude": null,
    "phone": "4075875400",
    "website_url": "http://www.facebook.com/OviedoBrewingCo",
    "state": "Florida",
    "street": null
  },
  {
    "id": "5e934252-53d3-4160-8021-f490d1b7eb7e",
    "name": "Owen OLearys Restaurant and Brewery",
    "brewery_type": "brewpub",
    "address_1": "17 Connector Rd",
    "address_2": null,
    "address_3": null,
    "city": "Westborough",
    "state_province": "Massachusetts",
    "postal_code": "01581-3916",
    "country": "United States",
    "longitude": -71.58591979,
    "latitude": 42.28996559,
    "phone": "5083669262",
    "website_url": "http://www.owenolearys.com",
    "state": "Massachusetts",
    "street": "17 Connector Rd"
  },
  {
    "id": "7ea048a2-85e4-4443-b543-a62f1fe07ce9",
    "name": "Owls Rest Brewery",
    "brewery_type": "planning",
    "address_1": null,
    "address_2": null,
    "address_3": null,
    "city": "Malone",
    "state_province": "New York",
    "postal_code": "12953-1517",
    "country": "United States",
    "longitude": null,
    "latitude": null,
    "phone": null,
    "website_url": null,
    "state": "New York",
    "street": null
  },
  {
    "id": "18703afa-900e-4dee-a6ab-08eb0034b8e2",
    "name": "Owls Roost Brewing",
    "brewery_type": "planning",
    "address_1": null,
    "address_2": null,
    "address_3": null,
    "city": "Wake Forest",
    "state_province": "North Carolina",
    "postal_code": "27587-2958",
    "country": "United States",
    "longitude": null,
    "latitude": null,
    "phone": "9197491428",
    "website_url": null,
    "state": "North Carolina",
    "street": null
  },
  {
    "id": "1931756b-8cf2-4dc4-9ee6-b406cdf5f5aa",
    "name": "Oxbow Blending & Bottling",
    "brewery_type": "micro",
    "address_1": "49 Washington Ave",
    "address_2": null,
    "address_3": null,
    "city": "Portland",
    "state_province": "Maine",
    "postal_code": "04101",
    "country": "United States",
    "longitude": -70.2513253,
    "latitude": 43.6649414,
    "phone": null,
    "website_url": null,
    "state": "Maine",
    "street": "49 Washington Ave"
  },
  {
    "id": "e37d3cfa-dc4a-46fe-ae52-e6b4d25f173a",
    "name": "Oxbow Brewing Co",
    "brewery_type": "micro",
    "address_1": "274 Jones Woods Rd",
    "address_2": null,
    "address_3": null,
    "city": "Newcastle",
    "state_province": "Maine",
    "postal_code": "04553-3123",
    "country": "United States",
    "longitude": -69.5639953,
    "latitude": 44.0830789,
    "phone": "2073155962",
    "website_url": "http://www.oxbowbeer.com",
    "state": "Maine",
    "street": "274 Jones Woods Rd"
  },
  {
    "id": "7768bd2f-906c-450b-9520-2fb57d0b4799",
    "name": "Oxford Brewing Company",
    "brewery_type": "nano",
    "address_1": "1215 N 20th St",
    "address_2": null,
    "address_3": null,
    "city": "Grand Forks",
    "state_province": "North Dakota",
    "postal_code": "58203-2343",
    "country": "United States",
    "longitude": -97.05511709,
    "latitude": 47.93241078,
    "phone": "7017574565",
    "website_url": null,
    "state": "North Dakota",
    "street": "1215 N 20th St"
  },
  {
    "id": "5f30ddff-dac4-472b-adb1-82f390c5f505",
    "name": "Oyster Bay Brewing",
    "brewery_type": "micro",
    "address_1": "36 Audrey Ave",
    "address_2": null,
    "address_3": null,
    "city": "Oyster Bay",
    "state_province": "New York",
    "postal_code": "11771-1548",
    "country": "United States",
    "longitude": -73.53140323,
    "latitude": 40.87304967,
    "phone": "5168025546",
    "website_url": "http://www.oysterbaybrewing.com",
    "state": "New York",
    "street": "36 Audrey Ave"
  },
  {
    "id": "43fa1fa9-3de8-45ed-b56d-b4b79349587a",
    "name": "Oyster City Brewing Company",
    "brewery_type": "micro",
    "address_1": "17 Avenue D",
    "address_2": null,
    "address_3": null,
    "city": "Apalachicola",
    "state_province": "Florida",
    "postal_code": "32320-1801",
    "country": "United States",
    "longitude": -84.98504389,
    "latitude": 29.7259562,
    "phone": null,
    "website_url": "http://www.oystercitybrewingco.com",
    "state": "Florida",
    "street": "17 Avenue D"
  },
  {
    "id": "8c600205-6e67-43a7-983a-0e2daba7bb93",
    "name": "Oyster House Brewing Co.",
    "brewery_type": "brewpub",
    "address_1": "625 Haywood Rd",
    "address_2": null,
    "address_3": null,
    "city": "Asheville",
    "state_province": "North Carolina",
    "postal_code": "28806-3255",
    "country": "United States",
    "longitude": null,
    "latitude": null,
    "phone": "8285759370",
    "website_url": "http://www.oysterhousebeers.com",
    "state": "North Carolina",
    "street": "625 Haywood Rd"
  },
  {
    "id": "62783901-9445-4424-911b-291647dc2284",
    "name": "Ozark Beer Company",
    "brewery_type": "micro",
    "address_1": "109 N Arkansas St",
    "address_2": null,
    "address_3": null,
    "city": "Rogers",
    "state_province": "Arkansas",
    "postal_code": "72756-6601",
    "country": "United States",
    "longitude": -94.1147203,
    "latitude": 36.3335034,
    "phone": "4796362337",
    "website_url": "http://www.ozarkbeercompany.com",
    "state": "Arkansas",
    "street": "109 N Arkansas St"
  },
  {
    "id": "e80e1cb2-de57-4bc2-8330-94ea13ec1c0c",
    "name": "Ozarks Brewing Company",
    "brewery_type": "closed",
    "address_1": "1872 S. U.S. Hwy. 63",
    "address_2": null,
    "address_3": null,
    "city": "West Plains",
    "state_province": "Missouri",
    "postal_code": "65775",
    "country": "United States",
    "longitude": null,
    "latitude": null,
    "phone": "4172741507",
    "website_url": "http://www.ozarksbrewing.com",
    "state": "Missouri",
    "street": "1872 S. U.S. Hwy. 63"
  },
  {
    "id": "9ed590d8-b54b-41f5-be70-ac9d695378a0",
    "name": "Ozone's Brewhouse",
    "brewery_type": "micro",
    "address_1": "305 Beaver St",
    "address_2": null,
    "address_3": null,
    "city": "Lansing",
    "state_province": "Michigan",
    "postal_code": "48906-4411",
    "country": "United States",
    "longitude": -84.54860983,
    "latitude": 42.7505921,
    "phone": "5179992739",
    "website_url": "http://www.ozonesbrewhouse.com",
    "state": "Michigan",
    "street": "305 Beaver St"
  },
  {
    "id": "95218728-13e3-4eef-9fa5-1deec394c2f6",
    "name": "Pabst Milwaukee Brewery",
    "brewery_type": "large",
    "address_1": "1037 W Juneau Ave",
    "address_2": null,
    "address_3": null,
    "city": "Milwaukee",
    "state_province": "Wisconsin",
    "postal_code": "53233-1405",
    "country": "United States",
    "longitude": -87.9255251,
    "latitude": 43.04554365,
    "phone": "4149080025",
    "website_url": null,
    "state": "Wisconsin",
    "street": "1037 W Juneau Ave"
  },
  {
    "id": "ad63e92d-15cf-45e1-9f5a-e1cc9fef0928",
    "name": "Pacific Beach Ale House",
    "brewery_type": "brewpub",
    "address_1": "721 Grand Ave",
    "address_2": null,
    "address_3": null,
    "city": "San Diego",
    "state_province": "California",
    "postal_code": "92109-3905",
    "country": "United States",
    "longitude": -117.255265,
    "latitude": 32.794255,
    "phone": "8585812337",
    "website_url": "http://www.pbalehouse.com",
    "state": "California",
    "street": "721 Grand Ave"
  },
  {
    "id": "8f3206c8-8c13-4357-875b-25fcbbc9d63f",
    "name": "Pacific Brew Haus",
    "brewery_type": "brewpub",
    "address_1": "220 S 1st St",
    "address_2": null,
    "address_3": null,
    "city": "Pacific",
    "state_province": "Missouri",
    "postal_code": "63069",
    "country": "United States",
    "longitude": -90.741706,
    "latitude": 38.500322,
    "phone": "6362572650",
    "website_url": "http://www.pacificbrewhaus.com",
    "state": "Missouri",
    "street": "220 S 1st St"
  },
  {
    "id": "035386c7-55dd-4d17-acec-2270d759a2ee",
    "name": "Pacific Brew Lab",
    "brewery_type": "closed",
    "address_1": "111 Industrial Way",
    "address_2": null,
    "address_3": null,
    "city": "Belmont",
    "state_province": "California",
    "postal_code": "94002-8202",
    "country": "United States",
    "longitude": -122.2659984,
    "latitude": 37.52175007,
    "phone": "4159377843",
    "website_url": "http://www.pacbrewlab.com",
    "state": "California",
    "street": "111 Industrial Way"
  },
  {
    "id": "5a50aa54-5ae5-4968-a8ec-fc53d5796df2",
    "name": "Pacific Brewing and Malting",
    "brewery_type": "micro",
    "address_1": "610 Pacific Ave",
    "address_2": null,
    "address_3": null,
    "city": "Tacoma",
    "state_province": "Washington",
    "postal_code": "98402-4606",
    "country": "United States",
    "longitude": -122.437927,
    "latitude": 47.250289,
    "phone": "2533832337",
    "website_url": "http://www.pacificbrewingandmalting.com",
    "state": "Washington",
    "street": "610 Pacific Ave"
  },
  {
    "id": "a45bef15-e043-4985-ad3b-ce0e1625c633",
    "name": "Pacific Islander Beer Company",
    "brewery_type": "micro",
    "address_1": "8665 Argent St ste b",
    "address_2": null,
    "address_3": null,
    "city": "Santee",
    "state_province": "California",
    "postal_code": "92071-4180",
    "country": "United States",
    "longitude": -116.9893321,
    "latitude": 32.83323005,
    "phone": "6192707777",
    "website_url": "http://www.pibbeer.com",
    "state": "California",
    "street": "8665 Argent St ste b"
  },
  {
    "id": "e8524519-a341-4027-b4ab-331fcb328f8c",
    "name": "Pacific Northwest Brewing Center, LLC",
    "brewery_type": "planning",
    "address_1": null,
    "address_2": null,
    "address_3": null,
    "city": "Everett",
    "state_province": "Washington",
    "postal_code": "98208-3320",
    "country": "United States",
    "longitude": null,
    "latitude": null,
    "phone": null,
    "website_url": null,
    "state": "Washington",
    "street": null
  },
  {
    "id": "605b3e94-9468-42de-97b8-2e3518fec767",
    "name": "Pacific Plate Brewing Co",
    "brewery_type": "micro",
    "address_1": "1999 S Myrtle Ave",
    "address_2": null,
    "address_3": null,
    "city": "Monrovia",
    "state_province": "California",
    "postal_code": "91016-4854",
    "country": "United States",
    "longitude": -118.0010497,
    "latitude": 34.1492456,
    "phone": "6262398456",
    "website_url": "http://www.pacificplatebrewing.com",
    "state": "California",
    "street": "1999 S Myrtle Ave"
  },
  {
    "id": "df821931-277e-489a-9a2c-7d4a0aa7e756",
    "name": "Packinghouse Brewing Co, The",
    "brewery_type": "micro",
    "address_1": "6421 Central Ave Ste 101",
    "address_2": null,
    "address_3": null,
    "city": "Riverside",
    "state_province": "California",
    "postal_code": "92504-1450",
    "country": "United States",
    "longitude": -117.4395735,
    "latitude": 33.95445847,
    "phone": "9513339261",
    "website_url": "http://pbbeer.com",
    "state": "California",
    "street": "6421 Central Ave Ste 101"
  },
  {
    "id": "4c9cdd7b-ea79-4d81-b629-fbfdf899dce6",
    "name": "Paddle Hard Brewing",
    "brewery_type": "micro",
    "address_1": "118 Michigan Ave",
    "address_2": null,
    "address_3": null,
    "city": "Grayling",
    "state_province": "Michigan",
    "postal_code": "49738-1741",
    "country": "United States",
    "longitude": -84.709584,
    "latitude": 44.66521,
    "phone": "9897456388",
    "website_url": "http://paddlehardbrewing.com",
    "state": "Michigan",
    "street": "118 Michigan Ave"
  },
  {
    "id": "6ea02eb4-7386-46bf-ac13-fc452dabc976",
    "name": "Paddle Hard Brewing",
    "brewery_type": "brewpub",
    "address_1": "227 E Michigan Ave",
    "address_2": null,
    "address_3": null,
    "city": "Grayling",
    "state_province": "Michigan",
    "postal_code": "49738-1742",
    "country": "United States",
    "longitude": -84.71675164,
    "latitude": 44.6600473,
    "phone": "9897456388",
    "website_url": null,
    "state": "Michigan",
    "street": "227 E Michigan Ave"
  },
  {
    "id": "084c617f-abee-4719-b085-9d44682c00c5",
    "name": "Padre Island Brewing Co",
    "brewery_type": "brewpub",
    "address_1": "3400 Padre Blvd",
    "address_2": null,
    "address_3": null,
    "city": "South Padre Island",
    "state_province": "Texas",
    "postal_code": "78597",
    "country": "United States",
    "longitude": -97.165899,
    "latitude": 26.079915,
    "phone": "9567619585",
    "website_url": "http://www.pibrewingcompany.com",
    "state": "Texas",
    "street": "3400 Padre Blvd"
  },
  {
    "id": "d3ac23ba-2221-4e04-9a2d-32afec5b12bc",
    "name": "Paducah Beer Werks",
    "brewery_type": "brewpub",
    "address_1": "301 N 4th St",
    "address_2": null,
    "address_3": null,
    "city": "Paducah",
    "state_province": "Kentucky",
    "postal_code": "42001-0753",
    "country": "United States",
    "longitude": -88.599512,
    "latitude": 37.088841,
    "phone": null,
    "website_url": "http://www.paducahbeerwerks.com",
    "state": "Kentucky",
    "street": "301 N 4th St"
  },
  {
    "id": "208fc2d7-7b2b-494f-a1ae-a3c1331f8c38",
    "name": "Pagan River Brewing Company",
    "brewery_type": "planning",
    "address_1": null,
    "address_2": null,
    "address_3": null,
    "city": "Smithfield",
    "state_province": "Virginia",
    "postal_code": "23430-2301",
    "country": "United States",
    "longitude": null,
    "latitude": null,
    "phone": "7574143247",
    "website_url": "http://www.paganriverbrewing.com",
    "state": "Virginia",
    "street": null
  },
  {
    "id": "1718be2e-b314-45d6-a208-8f79e31e8234",
    "name": "Pagosa Brewing & Grill",
    "brewery_type": "brewpub",
    "address_1": "118 N Pagosa Blvd",
    "address_2": null,
    "address_3": null,
    "city": "Pagosa Springs",
    "state_province": "Colorado",
    "postal_code": "81147-8470",
    "country": "United States",
    "longitude": null,
    "latitude": null,
    "phone": "9707312739",
    "website_url": "http://www.pagosabrewing.com",
    "state": "Colorado",
    "street": "118 N Pagosa Blvd"
  },
  {
    "id": "3446ec5f-e21e-4583-83be-a3a086f212a1",
    "name": "Pair O' Dice Brewing Company",
    "brewery_type": "micro",
    "address_1": "4400 118th Ave N Ste 208",
    "address_2": null,
    "address_3": null,
    "city": "Clearwater",
    "state_province": "Florida",
    "postal_code": "33762-4433",
    "country": "United States",
    "longitude": null,
    "latitude": null,
    "phone": "7277553423",
    "website_url": "http://www.pairodicebrewing.com",
    "state": "Florida",
    "street": "4400 118th Ave N Ste 208"
  },
  {
    "id": "b648c0ea-b1df-4f26-96fb-403d963c07e3",
    "name": "Paladin Brewing",
    "brewery_type": "micro",
    "address_1": "6520 Mahoning Ave",
    "address_2": null,
    "address_3": null,
    "city": "Austintown",
    "state_province": "Ohio",
    "postal_code": "44515-2012",
    "country": "United States",
    "longitude": -80.78742748,
    "latitude": 41.099487,
    "phone": "3305506338",
    "website_url": "http://www.paladinbrewing.com",
    "state": "Ohio",
    "street": "6520 Mahoning Ave"
  },
  {
    "id": "e7def3c1-ed4e-4225-ba15-454a3c96ddb1",
    "name": "Pale Fire Brewing Co",
    "brewery_type": "micro",
    "address_1": "217 S Liberty St Ste 105",
    "address_2": null,
    "address_3": null,
    "city": "Harrisonburg",
    "state_province": "Virginia",
    "postal_code": "22801-3675",
    "country": "United States",
    "longitude": null,
    "latitude": null,
    "phone": "5402175452",
    "website_url": "http://www.palefirebrewing.com",
    "state": "Virginia",
    "street": "217 S Liberty St Ste 105"
  },
  {
    "id": "cf834341-f73a-4e54-b4ff-e8bc965dbf0b",
    "name": "Palisade Brewing Company",
    "brewery_type": "brewpub",
    "address_1": "200 Peach Ave",
    "address_2": null,
    "address_3": null,
    "city": "Palisade",
    "state_province": "Colorado",
    "postal_code": "81526",
    "country": "United States",
    "longitude": -108.3542553,
    "latitude": 39.11109565,
    "phone": "9704641462",
    "website_url": "http://www.palisadebrewingcompany.com",
    "state": "Colorado",
    "street": "200 Peach Ave"
  },
  {
    "id": "699d53b0-0296-411c-8d95-8a7f6637448a",
    "name": "Pallister Brothers Brewing Company",
    "brewery_type": "micro",
    "address_1": "116 N Market St",
    "address_2": null,
    "address_3": null,
    "city": "Ottumwa",
    "state_province": "Iowa",
    "postal_code": "52501",
    "country": "United States",
    "longitude": -92.4101724,
    "latitude": 41.0180942,
    "phone": null,
    "website_url": null,
    "state": "Iowa",
    "street": "116 N Market St"
  },
  {
    "id": "2439bcd8-7ffc-4e87-8a39-c093ada01419",
    "name": "Palm City Brewing",
    "brewery_type": "micro",
    "address_1": "7887 Drew Cir Ste 130",
    "address_2": null,
    "address_3": null,
    "city": "Fort Myers",
    "state_province": "Florida",
    "postal_code": "33967-6083",
    "country": "United States",
    "longitude": null,
    "latitude": null,
    "phone": "2393622862",
    "website_url": null,
    "state": "Florida",
    "street": "7887 Drew Cir Ste 130"
  },
  {
    "id": "7c3cbcf7-16f2-41af-a384-804acd5261c1",
    "name": "Palm Harbor Brewery",
    "brewery_type": "brewpub",
    "address_1": "1022 Georgia Ave",
    "address_2": null,
    "address_3": null,
    "city": "Palm Harbor",
    "state_province": "Florida",
    "postal_code": "34683-4317",
    "country": "United States",
    "longitude": -82.76688529,
    "latitude": 28.07707237,
    "phone": "7277868039",
    "website_url": null,
    "state": "Florida",
    "street": "1022 Georgia Ave"
  },
  {
    "id": "a3045868-5a15-46de-9eb3-d721be2231e5",
    "name": "Palmer Brewery & Cider House",
    "brewery_type": "micro",
    "address_1": "2926 Girard Blvd NE",
    "address_2": null,
    "address_3": null,
    "city": "Albuquerque",
    "state_province": "New Mexico",
    "postal_code": "87107-1935",
    "country": "United States",
    "longitude": -106.6136878,
    "latitude": 35.11493302,
    "phone": "5055080508",
    "website_url": null,
    "state": "New Mexico",
    "street": "2926 Girard Blvd NE"
  },
  {
    "id": "7157dd7f-0dd1-4d2e-a87c-a153a762a691",
    "name": "Palmetto Brewing Co",
    "brewery_type": "regional",
    "address_1": "289 Huger St Bldg B",
    "address_2": null,
    "address_3": null,
    "city": "Charleston",
    "state_province": "South Carolina",
    "postal_code": "29403-4560",
    "country": "United States",
    "longitude": null,
    "latitude": null,
    "phone": "8439370903",
    "website_url": "http://www.palmettobrewery.com",
    "state": "South Carolina",
    "street": "289 Huger St Bldg B"
  },
  {
    "id": "244bd051-831b-41c1-9d86-a0b1c5d6af13",
    "name": "Palmia",
    "brewery_type": "proprietor",
    "address_1": "3749 Divisadero St",
    "address_2": null,
    "address_3": null,
    "city": "San Francisco",
    "state_province": "California",
    "postal_code": "94123-1010",
    "country": "United States",
    "longitude": -122.4438993,
    "latitude": 37.804342,
    "phone": "4153853100",
    "website_url": "http://www.palmiabeer.com",
    "state": "California",
    "street": "3749 Divisadero St"
  },
  {
    "id": "568ece36-a3d7-40ad-9364-592642a1cdd3",
    "name": "Palo Alto Brewing Co",
    "brewery_type": "contract",
    "address_1": "1080B La Avenida St",
    "address_2": null,
    "address_3": null,
    "city": "Mountain View",
    "state_province": "California",
    "postal_code": "94043-1422",
    "country": "United States",
    "longitude": -122.0717657,
    "latitude": 37.41326789,
    "phone": null,
    "website_url": "http://www.paloaltobrewing.com",
    "state": "California",
    "street": "1080B La Avenida St"
  },
  {
    "id": "68e10e91-616a-4760-99ad-1be117ebafcf",
    "name": "Pals Brewing Company",
    "brewery_type": "brewpub",
    "address_1": "4520 South Buffalo Bill Avenue",
    "address_2": null,
    "address_3": null,
    "city": "North Platte",
    "state_province": "Nebraska",
    "postal_code": "69101-9311",
    "country": "United States",
    "longitude": -100.7916041,
    "latitude": 41.12294,
    "phone": "6088079332",
    "website_url": "http://www.palsbrewingcompany.com",
    "state": "Nebraska",
    "street": "4520 South Buffalo Bill Avenue"
  },
  {
    "id": "fcc5674e-befb-4eab-bfb6-ec508720b7a0",
    "name": "Panacea Brewing Company / Remedy Brewing Company",
    "brewery_type": "brewpub",
    "address_1": "401 E 8th St Ste 120",
    "address_2": null,
    "address_3": null,
    "city": "Sioux Falls",
    "state_province": "South Dakota",
    "postal_code": "57103-7012",
    "country": "United States",
    "longitude": -96.7221603,
    "latitude": 43.54794988,
    "phone": "6052141327",
    "website_url": "http://www.remedybrewco.com",
    "state": "South Dakota",
    "street": "401 E 8th St Ste 120"
  },
  {
    "id": "6baeae2b-3797-4e73-84ec-1687f7f669cc",
    "name": "Panther Creek Brews",
    "brewery_type": "planning",
    "address_1": null,
    "address_2": null,
    "address_3": null,
    "city": "Christiana",
    "state_province": "Tennessee",
    "postal_code": "37037-5122",
    "country": "United States",
    "longitude": null,
    "latitude": null,
    "phone": "6155891401",
    "website_url": "http://www.panthercreekbrews.com",
    "state": "Tennessee",
    "street": null
  },
  {
    "id": "67d27756-36a8-402d-be42-843cfe015bd5",
    "name": "Panther Island Brewing Company",
    "brewery_type": "micro",
    "address_1": "501 N Main St",
    "address_2": null,
    "address_3": null,
    "city": "Fort Worth",
    "state_province": "Texas",
    "postal_code": "76164-9508",
    "country": "United States",
    "longitude": -97.33793538,
    "latitude": 32.7636809,
    "phone": "8178828121",
    "website_url": "http://www.pantherislandbrewing.com",
    "state": "Texas",
    "street": "501 N Main St"
  },
  {
    "id": "c7c2ba11-d41c-48a4-a5c5-fbd6977fe0c9",
    "name": "Pantomime Mixtures",
    "brewery_type": "planning",
    "address_1": null,
    "address_2": null,
    "address_3": null,
    "city": "Hector",
    "state_province": "New York",
    "postal_code": "14841-9629",
    "country": "United States",
    "longitude": null,
    "latitude": null,
    "phone": "6319442668",
    "website_url": "http://www.pantomimemxitures.com",
    "state": "New York",
    "street": null
  },
  {
    "id": "b4364f80-3e30-40fc-bae8-00b3fa7b9c58",
    "name": "Pantown Brewing Company",
    "brewery_type": "planning",
    "address_1": null,
    "address_2": null,
    "address_3": null,
    "city": "Saint Cloud",
    "state_province": "Minnesota",
    "postal_code": "56303-3047",
    "country": "United States",
    "longitude": null,
    "latitude": null,
    "phone": "3209803100",
    "website_url": "http://www.pantownBrewing.com",
    "state": "Minnesota",
    "street": null
  },
  {
    "id": "4a6351a8-2ec1-42b0-8c6a-ca6c630df76b",
    "name": "Paonia United Brewing Company",
    "brewery_type": "micro",
    "address_1": "325 Grand Ave",
    "address_2": null,
    "address_3": null,
    "city": "Paonia",
    "state_province": "Colorado",
    "postal_code": "81428",
    "country": "United States",
    "longitude": -107.5976969,
    "latitude": 38.86899455,
    "phone": "9704177759",
    "website_url": "http://www.paoniaunitedbrew.com",
    "state": "Colorado",
    "street": "325 Grand Ave"
  },
  {
    "id": "b96b43ff-31cd-46f3-8c14-e225aeec0841",
    "name": "Papa Marce's Cerveceria",
    "brewery_type": "planning",
    "address_1": null,
    "address_2": null,
    "address_3": null,
    "city": "Carlsbad",
    "state_province": "California",
    "postal_code": "92008",
    "country": "United States",
    "longitude": -117.3505966,
    "latitude": 33.1580933,
    "phone": "8584146976",
    "website_url": "http://www.papamarces.com",
    "state": "California",
    "street": null
  },
  {
    "id": "ceb076d0-abb4-41df-b085-6799d5356f13",
    "name": "Paper City Development LLC",
    "brewery_type": "planning",
    "address_1": null,
    "address_2": null,
    "address_3": null,
    "city": "Vicksburg",
    "state_province": "Michigan",
    "postal_code": "49097",
    "country": "United States",
    "longitude": null,
    "latitude": null,
    "phone": "6049961400",
    "website_url": "http://papercitymillworks.com",
    "state": "Michigan",
    "street": null
  },
  {
    "id": "6c521aa8-180a-4e57-a711-ea6018b3f219",
    "name": "Paper Street Brewing Company",
    "brewery_type": "brewpub",
    "address_1": "701 The Parkway",
    "address_2": null,
    "address_3": null,
    "city": "Richland",
    "state_province": "Washington",
    "postal_code": "99352-4251",
    "country": "United States",
    "longitude": -119.274455,
    "latitude": 46.274953,
    "phone": "5097137088",
    "website_url": "http://www.paperstbrewing.com",
    "state": "Washington",
    "street": "701 The Parkway"
  },
  {
    "id": "0f1246e4-cd74-4090-a807-e3cbbadac148",
    "name": "Paperback Brewing Company",
    "brewery_type": "planning",
    "address_1": null,
    "address_2": null,
    "address_3": null,
    "city": "Woodland Hills",
    "state_province": "California",
    "postal_code": "91367-2912",
    "country": "United States",
    "longitude": -118.6059197,
    "latitude": 34.1683386,
    "phone": null,
    "website_url": "http://www.paperback.la",
    "state": "California",
    "street": null
  }
]