[
  {
    "id": "1fe308b9-913a-4251-bd2c-b58b956258f1",
    "name": "Bridal Veil Brewing",
    "brewery_type": "closed",
    "address_1": "5040 Ca-140 Ste C",
    "address_2": null,
    "address_3": null,
    "city": "Mariposa",
    "state_province": "California",
    "postal_code": "95338",
    "country": "United States",
    "longitude": -119.9655984,
    "latitude": 37.4858541,
    "phone": "2099667837",
    "website_url": "http://www.facebook.com/Bridal-Veil-Brewing-114925729113371",
    "state": "California",
    "street": "5040 Ca-140 Ste C"
  },
  {
    "id": "30077396-1359-483b-b4a5-e015ac0f60e2",
    "name": "Bridewell Brewery",
    "brewery_type": "micro",
    "address_1": "Bridewell Lane",
    "address_2": null,
    "address_3": null,
    "city": "Clifden",
    "state_province": "Galway",
    "postal_code": "H71 AW08",
    "country": "Ireland",
    "longitude": -10.02041542,
    "latitude": 53.4871487,
    "phone": "353871279346",
    "website_url": "https://www.bridewellbrewery.ie/",
    "state": "Galway",
    "street": "Bridewell Lane"
  },
  {
    "id": "589c2190-6d97-4f2b-802d-2eaa6b282baf",
    "name": "Bridge 99 Brewery",
    "brewery_type": "micro",
    "address_1": "63063 Layton Ave",
    "address_2": null,
    "address_3": null,
    "city": "Bend",
    "state_province": "Oregon",
    "postal_code": "97701-7087",
    "country": "United States",
    "longitude": -121.2916707,
    "latitude": 44.09103738,
    "phone": "5412801690",
    "website_url": null,
    "state": "Oregon",
    "street": "63063 Layton Ave"
  },
  {
    "id": "087e2086-aafc-4aa7-b97c-8703f89aa199",
    "name": "Bridge And Tunnel Brewery",
    "brewery_type": "micro",
    "address_1": "15-35 Decatur St",
    "address_2": null,
    "address_3": null,
    "city": "Ridgewood",
    "state_province": "New York",
    "postal_code": "11385-5818",
    "country": "United States",
    "longitude": -73.9017521,
    "latitude": 40.6943348,
    "phone": "3473928593",
    "website_url": "http://www.bridgeandtunnelbrewery.com",
    "state": "New York",
    "street": "15-35 Decatur St"
  },
  {
    "id": "6c2e3bd6-08af-43b8-881b-35a6342be026",
    "name": "Bridge Brew Works",
    "brewery_type": "micro",
    "address_1": "335 Nick Rahall Greenway",
    "address_2": null,
    "address_3": null,
    "city": "Fayetteville",
    "state_province": "West Virginia",
    "postal_code": "25840-1617",
    "country": "United States",
    "longitude": -81.113708,
    "latitude": 38.0164353,
    "phone": "3042822201",
    "website_url": "http://www.bridgebrewworks.com",
    "state": "West Virginia",
    "street": "335 Nick Rahall Greenway"
  },
  {
    "id": "e635be49-6e8e-4697-a457-f8febe304d66",
    "name": "BridgePort Brewing Co",
    "brewery_type": "regional",
    "address_1": "1318 NW Northrup St",
    "address_2": null,
    "address_3": null,
    "city": "Portland",
    "state_province": "Oregon",
    "postal_code": "97209-2808",
    "country": "United States",
    "longitude": -122.6848601,
    "latitude": 45.53133335,
    "phone": "5032417179",
    "website_url": "http://www.bridgeportbrew.com",
    "state": "Oregon",
    "street": "1318 NW Northrup St"
  },
  {
    "id": "9396e1c1-49d3-4169-8f7c-c8cb5d53af3a",
    "name": "Bridger Brewing Company",
    "brewery_type": "brewpub",
    "address_1": "1609 S 11th Ave",
    "address_2": null,
    "address_3": null,
    "city": "Bozeman",
    "state_province": "Montana",
    "postal_code": "59715-5466",
    "country": "United States",
    "longitude": -111.0526959,
    "latitude": 45.6627215,
    "phone": "4065872124",
    "website_url": "http://www.bridgerbrewing.com",
    "state": "Montana",
    "street": "1609 S 11th Ave"
  },
  {
    "id": "1d80031e-2255-4467-8cd2-cd8e3194289e",
    "name": "Brieux Carre Brewing Company",
    "brewery_type": "micro",
    "address_1": "2115 Decatur St",
    "address_2": null,
    "address_3": null,
    "city": "New Orleans",
    "state_province": "Louisiana",
    "postal_code": "70116",
    "country": "United States",
    "longitude": -90.0572496,
    "latitude": 29.9627851,
    "phone": "5043044242",
    "website_url": "http://www.brieuxcarre.com",
    "state": "Louisiana",
    "street": "2115 Decatur St"
  },
  {
    "id": "aaf2382f-cfd7-4218-a571-120982815d6a",
    "name": "Brigadoon Brewery & Brew School",
    "brewery_type": "micro",
    "address_1": "4808 Fairmont Pkwy Ste 112",
    "address_2": null,
    "address_3": null,
    "city": "Pasadena",
    "state_province": "Texas",
    "postal_code": "77505-3722",
    "country": "United States",
    "longitude": -95.1511925,
    "latitude": 29.6501134,
    "phone": "9368940425",
    "website_url": "http://www.brigadoonbrewery.com",
    "state": "Texas",
    "street": "4808 Fairmont Pkwy Ste 112"
  },
  {
    "id": "573c1ccf-e13b-4084-be06-3e4b4cf6c848",
    "name": "Bright Ideas Brewing",
    "brewery_type": "micro",
    "address_1": "111 Mass Moca Way",
    "address_2": null,
    "address_3": null,
    "city": "North Adams",
    "state_province": "Massachusetts",
    "postal_code": "01247-2411",
    "country": "United States",
    "longitude": null,
    "latitude": null,
    "phone": "4133464460",
    "website_url": "http://www.brightideasbrewing.com",
    "state": "Massachusetts",
    "street": "111 Mass Moca Way"
  },
  {
    "id": "488ed63b-a706-4519-9f97-3d03b224e7a6",
    "name": "Bright Light Brewing Company",
    "brewery_type": "micro",
    "address_1": "444 W Russel St Ste 102",
    "address_2": null,
    "address_3": null,
    "city": "Fayetteville",
    "state_province": "North Carolina",
    "postal_code": "28301",
    "country": "United States",
    "longitude": null,
    "latitude": null,
    "phone": "9103390464",
    "website_url": null,
    "state": "North Carolina",
    "street": "444 W Russel St Ste 102"
  },
  {
    "id": "28862a02-5d35-4a4a-833b-acd94dfbb4a0",
    "name": "Bright Penny Brewing Company",
    "brewery_type": "contract",
    "address_1": "309 W Graham St",
    "address_2": null,
    "address_3": null,
    "city": "Mebane",
    "state_province": "North Carolina",
    "postal_code": "27302-2311",
    "country": "United States",
    "longitude": -79.27030152,
    "latitude": 36.09926877,
    "phone": null,
    "website_url": "http://www.brightpennybrewing.com",
    "state": "North Carolina",
    "street": "309 W Graham St"
  },
  {
    "id": "34110279-e23c-4e08-b7b1-79da0196ee17",
    "name": "Brighter Day's Brewing Company",
    "brewery_type": "planning",
    "address_1": null,
    "address_2": null,
    "address_3": null,
    "city": "New Port Richey",
    "state_province": "Florida",
    "postal_code": "34655-3717",
    "country": "United States",
    "longitude": null,
    "latitude": null,
    "phone": "7272242027",
    "website_url": "http://www.brighterdaysbeer.com",
    "state": "Florida",
    "street": null
  },
  {
    "id": "21236bbe-320b-4986-9212-e70f63425fd3",
    "name": "Brighton Bier Brewery",
    "brewery_type": "micro",
    "address_1": "Roedean Road",
    "address_2": null,
    "address_3": null,
    "city": "Brighton",
    "state_province": "East Sussex",
    "postal_code": "BN2 5RU",
    "country": "England",
    "longitude": -0.106288,
    "latitude": 50.817144,
    "phone": "1273567374",
    "website_url": "https://www.brightonbier.com/",
    "state": "East Sussex",
    "street": "Roedean Road"
  },
  {
    "id": "befb66c9-be92-4e98-be8c-f201b38c775c",
    "name": "Brim Kitchen and Brewery",
    "brewery_type": "brewpub",
    "address_1": "3941 Erie St",
    "address_2": null,
    "address_3": null,
    "city": "Willoughby",
    "state_province": "Ohio",
    "postal_code": "44094-7704",
    "country": "United States",
    "longitude": -81.40637701,
    "latitude": 41.64346969,
    "phone": "4402068183",
    "website_url": "http://www.brimbrewery.com",
    "state": "Ohio",
    "street": "3941 Erie St"
  },
  {
    "id": "1271139e-aebf-4d4b-9ba1-b3ef3f2973c2",
    "name": "Brindle Haus Brewing Company",
    "brewery_type": "micro",
    "address_1": "377 S Union St",
    "address_2": null,
    "address_3": null,
    "city": "Spencerport",
    "state_province": "New York",
    "postal_code": "14559-1970",
    "country": "United States",
    "longitude": -77.804122,
    "latitude": 43.185296,
    "phone": "5855076665",
    "website_url": "http://www.brindlehausbrewing.com",
    "state": "New York",
    "street": "377 S Union St"
  },
  {
    "id": "54028e4d-c6db-43f2-a3f8-75474a41a5d6",
    "name": "Brink Brewing Company",
    "brewery_type": "micro",
    "address_1": "5905 Hamilton Ave",
    "address_2": null,
    "address_3": null,
    "city": "Cincinnati",
    "state_province": "Ohio",
    "postal_code": "45224-3045",
    "country": "United States",
    "longitude": -84.545876,
    "latitude": 39.192788,
    "phone": "5138823334",
    "website_url": "http://www.brinkbrewing.com",
    "state": "Ohio",
    "street": "5905 Hamilton Ave"
  },
  {
    "id": "7f4e86f7-bd61-41f3-9cfa-b0c5ee669924",
    "name": "Brinx Jones Brewery",
    "brewery_type": "micro",
    "address_1": "613 E Landis Ave",
    "address_2": null,
    "address_3": null,
    "city": "Vineland",
    "state_province": "New Jersey",
    "postal_code": "08360",
    "country": "United States",
    "longitude": -75.02304749,
    "latitude": 39.485955,
    "phone": "8564056993",
    "website_url": "http://www.brinxjones.com",
    "state": "New Jersey",
    "street": "613 E Landis Ave"
  },
  {
    "id": "0c97fff4-cab4-4997-89ec-9f99ea4c761f",
    "name": "Brioux City Brewery",
    "brewery_type": "micro",
    "address_1": "1306 Court St",
    "address_2": null,
    "address_3": null,
    "city": "Sioux City",
    "state_province": "Iowa",
    "postal_code": "51105",
    "country": "United States",
    "longitude": -96.39640025,
    "latitude": 42.50441425,
    "phone": "7122779568",
    "website_url": "http://www.briouxcitybrewery.com",
    "state": "Iowa",
    "street": "1306 Court St"
  },
  {
    "id": "c6284312-d384-4e8f-bd67-b4869c58dc38",
    "name": "Bristol Brewing Co",
    "brewery_type": "micro",
    "address_1": "1604 S Cascade Ave",
    "address_2": null,
    "address_3": null,
    "city": "Colorado Springs",
    "state_province": "Colorado",
    "postal_code": "80905-2237",
    "country": "United States",
    "longitude": -104.827401,
    "latitude": 38.8108617,
    "phone": "7196332555",
    "website_url": "http://www.bristolbrewing.com",
    "state": "Colorado",
    "street": "1604 S Cascade Ave"
  },
  {
    "id": "67622c1d-43c9-44a5-b40c-490f79ae89c3",
    "name": "Bristol Station Brews & Taproom",
    "brewery_type": "micro",
    "address_1": "41 Piedmont Ave",
    "address_2": null,
    "address_3": null,
    "city": "Bristol",
    "state_province": "Virginia",
    "postal_code": "24201-4160",
    "country": "United States",
    "longitude": -82.1842085,
    "latitude": 36.59629295,
    "phone": "2766081220",
    "website_url": "http://www.bristolbrew.com",
    "state": "Virginia",
    "street": "41 Piedmont Ave"
  },
  {
    "id": "0b3fde08-24cd-4523-b824-cf558568a608",
    "name": "Brite Eyes Brewing Co",
    "brewery_type": "brewpub",
    "address_1": "1156 S Burdick St",
    "address_2": null,
    "address_3": null,
    "city": "Kalamazoo",
    "state_province": "Michigan",
    "postal_code": "49001-2741",
    "country": "United States",
    "longitude": -85.582846,
    "latitude": 42.27977268,
    "phone": "2692205001",
    "website_url": null,
    "state": "Michigan",
    "street": "1156 S Burdick St"
  },
  {
    "id": "8e778ec9-3331-41b5-a22f-aa985f8e81f5",
    "name": "British Bulldog Brewery",
    "brewery_type": "micro",
    "address_1": "14540 Camaren Park Dr",
    "address_2": null,
    "address_3": null,
    "city": "Chico",
    "state_province": "California",
    "postal_code": "95973-8835",
    "country": "United States",
    "longitude": -121.8468316,
    "latitude": 39.83081138,
    "phone": "5308928759",
    "website_url": "http://www.britishbulldogbrewery.com",
    "state": "California",
    "street": "14540 Camaren Park Dr"
  },
  {
    "id": "971c6b97-d931-4818-a791-769261b62ade",
    "name": "Brix City Brewing",
    "brewery_type": "micro",
    "address_1": "4 Alsan Way",
    "address_2": null,
    "address_3": null,
    "city": "Little Ferry",
    "state_province": "New Jersey",
    "postal_code": "07643-1001",
    "country": "United States",
    "longitude": null,
    "latitude": null,
    "phone": "2014400865",
    "website_url": "http://www.brixcitybrewing.com",
    "state": "New Jersey",
    "street": "4 Alsan Way"
  },
  {
    "id": "01dc9824-efc8-4ee4-a90a-a67d11bec14d",
    "name": "Brixton Brewing",
    "brewery_type": "brewpub",
    "address_1": "165 Brighton Ave",
    "address_2": null,
    "address_3": null,
    "city": "Rochester",
    "state_province": "Pennsylvania",
    "postal_code": "15074-2203",
    "country": "United States",
    "longitude": -80.2828549,
    "latitude": 40.70091875,
    "phone": "7247282227",
    "website_url": "http://www.brixtonbrewing.com",
    "state": "Pennsylvania",
    "street": "165 Brighton Ave"
  },
  {
    "id": "1fe01316-a2ee-428b-8200-ba3f054eda6d",
    "name": "BRLO Brwhouse",
    "brewery_type": "large",
    "address_1": "Sch\u00f6neberger Str. 16",
    "address_2": null,
    "address_3": null,
    "city": "Berlin",
    "state_province": "Berlin",
    "postal_code": "10963",
    "country": "Germany",
    "longitude": 52.4995161,
    "latitude": 13.4168836,
    "phone": "493055577606",
    "website_url": "https://www.brlo.de/gastronomien/brlo-brwhouse",
    "state": "Berlin",
    "street": "Sch\u00f6neberger Str. 16"
  },
  {
    "id": "307847a0-c60b-43e8-a42d-b8f6b5fb3092",
    "name": "BRLO Brwhouse",
    "brewery_type": "large",
    "address_1": "Sch\u00f6neberger Str. 16",
    "address_2": null,
    "address_3": null,
    "city": "Berlin",
    "state_province": "Berlin",
    "postal_code": "10963",
    "country": "Germany",
    "longitude": 52.4995161,
    "latitude": 13.4168836,
    "phone": "493055577606",
    "website_url": "https://www.brlo.de/gastronomien/brlo-brwhouse",
    "state": "Berlin",
    "street": "Sch\u00f6neberger Str. 16"
  },
  {
    "id": "9fb357eb-965e-4920-81d0-256910248fc0",
    "name": "Broad Brook Brewing Company",
    "brewery_type": "micro",
    "address_1": "915 South St",
    "address_2": null,
    "address_3": null,
    "city": "Suffield",
    "state_province": "Connecticut",
    "postal_code": "06078",
    "country": "United States",
    "longitude": -72.66266463,
    "latitude": 41.96200785,
    "phone": "8606231000",
    "website_url": "https://www.broadbrookbrewing.com",
    "state": "Connecticut",
    "street": "915 South St"
  },
  {
    "id": "f4daf3e7-c246-47ec-9d2b-6fd01519d8ac",
    "name": "Broad Leaf Farm Brewery",
    "brewery_type": "planning",
    "address_1": null,
    "address_2": null,
    "address_3": null,
    "city": "South Glastonbury",
    "state_province": "Connecticut",
    "postal_code": "06073-2017",
    "country": "United States",
    "longitude": null,
    "latitude": null,
    "phone": "2158057228",
    "website_url": null,
    "state": "Connecticut",
    "street": null
  },
  {
    "id": "0a1f49af-8c69-4316-bb3d-1042c42b3d03",
    "name": "Broad Ripple Brewing Co",
    "brewery_type": "brewpub",
    "address_1": "842 E 65th St",
    "address_2": null,
    "address_3": null,
    "city": "Indianapolis",
    "state_province": "Indiana",
    "postal_code": "46220-1674",
    "country": "United States",
    "longitude": null,
    "latitude": null,
    "phone": "3172532739",
    "website_url": null,
    "state": "Indiana",
    "street": "842 E 65th St"
  },
  {
    "id": "5d8946d2-ed0c-404b-9ae9-3e8626089ca8",
    "name": "Broadway Brewery",
    "brewery_type": "brewpub",
    "address_1": "816 E Broadway Ste B",
    "address_2": null,
    "address_3": null,
    "city": "Columbia",
    "state_province": "Missouri",
    "postal_code": "65201-4898",
    "country": "United States",
    "longitude": -92.327968,
    "latitude": 38.951342,
    "phone": "5734435054",
    "website_url": "http://www.broadwaybrewery.com",
    "state": "Missouri",
    "street": "816 E Broadway Ste B"
  },
  {
    "id": "b14a1304-1e82-4f22-977e-618499c78e40",
    "name": "Brocklebank Craft Brewing",
    "brewery_type": "micro",
    "address_1": "357 Dickerman Hill Rd",
    "address_2": null,
    "address_3": null,
    "city": "Chelsea",
    "state_province": "Vermont",
    "postal_code": "05038-9098",
    "country": "United States",
    "longitude": null,
    "latitude": null,
    "phone": "8026854838",
    "website_url": "http://www.brocklebankvt.com",
    "state": "Vermont",
    "street": "357 Dickerman Hill Rd"
  },
  {
    "id": "45b4f628-b1fb-4d61-baf9-29b557e987ad",
    "name": "Brockopp Brewing",
    "brewery_type": "nano",
    "address_1": "114 Main St E",
    "address_2": null,
    "address_3": null,
    "city": "Valley City",
    "state_province": "North Dakota",
    "postal_code": "58072-3450",
    "country": "United States",
    "longitude": -98.00272896,
    "latitude": 46.92586281,
    "phone": null,
    "website_url": "https://www.facebook.com/BrockoppBrewing",
    "state": "North Dakota",
    "street": "114 Main St E"
  },
  {
    "id": "54e647b1-1abf-4e19-ba1b-5adc6f6b421a",
    "name": "Broken Arrow Brewing Co.",
    "brewery_type": "micro",
    "address_1": "333 W Dallas St",
    "address_2": null,
    "address_3": null,
    "city": "Broken Arrow",
    "state_province": "Oklahoma",
    "postal_code": "74012-4026",
    "country": "United States",
    "longitude": -95.79448895,
    "latitude": 36.0502662,
    "phone": "9182868101",
    "website_url": "http://www.brokenarrowbrewingco.com",
    "state": "Oklahoma",
    "street": "333 W Dallas St"
  },
  {
    "id": "4fedc121-217f-4a3e-b15e-bf8e45321ae3",
    "name": "Broken Bat Brewing Company",
    "brewery_type": "micro",
    "address_1": "135 E Pittsburgh Ave",
    "address_2": null,
    "address_3": null,
    "city": "Milwaukee",
    "state_province": "Wisconsin",
    "postal_code": "53204-1430",
    "country": "United States",
    "longitude": -87.909966459756,
    "latitude": 43.029348213407,
    "phone": "4143169197",
    "website_url": "http://www.brokenbatbrewery.com",
    "state": "Wisconsin",
    "street": "135 E Pittsburgh Ave"
  },
  {
    "id": "7f231f44-ed48-46b8-a7a9-018e49d57206",
    "name": "Broken Bow Brewery",
    "brewery_type": "micro",
    "address_1": "173 Marbledale Rd",
    "address_2": null,
    "address_3": null,
    "city": "Tuckahoe",
    "state_province": "New York",
    "postal_code": "10707-3117",
    "country": "United States",
    "longitude": -73.8190325,
    "latitude": 40.9549645,
    "phone": "9142680900",
    "website_url": "http://www.brokenbowbrewery.com",
    "state": "New York",
    "street": "173 Marbledale Rd"
  },
  {
    "id": "5e454282-526f-4a08-809c-3ec9c7280935",
    "name": "Broken Brix",
    "brewery_type": "micro",
    "address_1": "225 W Main St",
    "address_2": null,
    "address_3": null,
    "city": "Saint Charles",
    "state_province": "Illinois",
    "postal_code": "60174-4591",
    "country": "United States",
    "longitude": -88.316551689199,
    "latitude": 41.913251186068,
    "phone": "6303771338",
    "website_url": "http://www.homebrewshopltd.com",
    "state": "Illinois",
    "street": "225 W Main St"
  },
  {
    "id": "3603ecd0-8aae-44ec-8098-058724396b05",
    "name": "Broken Cauldron Taproom and Brewery",
    "brewery_type": "micro",
    "address_1": "1012 W Church St",
    "address_2": null,
    "address_3": null,
    "city": "Orlando",
    "state_province": "Florida",
    "postal_code": "32805-2216",
    "country": "United States",
    "longitude": null,
    "latitude": null,
    "phone": "4079861012",
    "website_url": "http://www.brokencauldrontaproom.com",
    "state": "Florida",
    "street": "1012 W Church St"
  },
  {
    "id": "9f079ccb-8469-4fe9-a2d6-679f40facc8b",
    "name": "Broken Chair Brewery",
    "brewery_type": "micro",
    "address_1": "424 East Penn Ave",
    "address_2": null,
    "address_3": null,
    "city": "West Reading",
    "state_province": "Pennsylvania",
    "postal_code": "19611-1130",
    "country": "United States",
    "longitude": null,
    "latitude": null,
    "phone": "4848663948",
    "website_url": "http://www.brokenchairbrewery.com",
    "state": "Pennsylvania",
    "street": "424 East Penn Ave"
  },
  {
    "id": "6b1d81d7-c53e-48f0-b4ee-2b901aad23b0",
    "name": "Broken Clock Brewing Cooperative",
    "brewery_type": "micro",
    "address_1": "3134 California St NE Ste 122",
    "address_2": null,
    "address_3": null,
    "city": "Minneapolis",
    "state_province": "Minnesota",
    "postal_code": "55418-1789",
    "country": "United States",
    "longitude": null,
    "latitude": null,
    "phone": "9703330135",
    "website_url": "http://www.brokenclockbrew.com",
    "state": "Minnesota",
    "street": "3134 California St NE Ste 122"
  },
  {
    "id": "b8852f37-7df8-49d3-aac5-2ef793e589bf",
    "name": "Broken Coat Brewing",
    "brewery_type": "planning",
    "address_1": null,
    "address_2": null,
    "address_3": null,
    "city": "Lake Worth",
    "state_province": "Florida",
    "postal_code": "33467-1002",
    "country": "United States",
    "longitude": null,
    "latitude": null,
    "phone": null,
    "website_url": null,
    "state": "Florida",
    "street": null
  },
  {
    "id": "afcf3dcd-8b14-4d09-87d0-eb17a55d3570",
    "name": "Broken Compass Brewing",
    "brewery_type": "micro",
    "address_1": "68 Continental Ct Unit B-12",
    "address_2": null,
    "address_3": null,
    "city": "Breckenridge",
    "state_province": "Colorado",
    "postal_code": "80424-8515",
    "country": "United States",
    "longitude": null,
    "latitude": null,
    "phone": "5419053016",
    "website_url": "http://www.brokencompassbrewing.com",
    "state": "Colorado",
    "street": "68 Continental Ct Unit B-12"
  },
  {
    "id": "33f3c0ee-2a5c-4698-8345-b4db2950dd0d",
    "name": "Broken Gate Brewing",
    "brewery_type": "planning",
    "address_1": null,
    "address_2": null,
    "address_3": null,
    "city": "Baltimore",
    "state_province": "Maryland",
    "postal_code": "21230-4464",
    "country": "United States",
    "longitude": null,
    "latitude": null,
    "phone": "3103453570",
    "website_url": null,
    "state": "Maryland",
    "street": null
  },
  {
    "id": "9852df06-5377-40b5-9ba1-e008bfa15d70",
    "name": "Broken Goblet Brewing",
    "brewery_type": "brewpub",
    "address_1": "1500 Grundy Ln Bldg 1",
    "address_2": null,
    "address_3": null,
    "city": "Bristol",
    "state_province": "Pennsylvania",
    "postal_code": "19007-1521",
    "country": "United States",
    "longitude": null,
    "latitude": null,
    "phone": "2678125653",
    "website_url": "http://www.brokengoblet.com",
    "state": "Pennsylvania",
    "street": "1500 Grundy Ln Bldg 1"
  },
  {
    "id": "0a97a495-46ba-44e9-8755-342aad301296",
    "name": "Broken Horn Brewing Company",
    "brewery_type": "micro",
    "address_1": "201 S Mission St",
    "address_2": null,
    "address_3": null,
    "city": "McCall",
    "state_province": "Idaho",
    "postal_code": "83638",
    "country": "United States",
    "longitude": -116.104522,
    "latitude": 44.896502,
    "phone": "2083155772",
    "website_url": "http://www.brokenhornbrewing.com",
    "state": "Idaho",
    "street": "201 S Mission St"
  },
  {
    "id": "17ebc359-76a6-4d9d-b5e2-27255c25d82f",
    "name": "Broken Plow Brewery",
    "brewery_type": "micro",
    "address_1": "4731 W 10th St Unit G",
    "address_2": null,
    "address_3": null,
    "city": "Greeley",
    "state_province": "Colorado",
    "postal_code": "80634-2046",
    "country": "United States",
    "longitude": null,
    "latitude": null,
    "phone": "9703978373",
    "website_url": "http://www.brokenplowbrewery.com",
    "state": "Colorado",
    "street": "4731 W 10th St Unit G"
  },
  {
    "id": "cadced11-9b86-49ba-a329-f8dcdd51426f",
    "name": "Broken Rock Brewery",
    "brewery_type": "brewpub",
    "address_1": "282 Grindstone Rd Bird Creek Farms",
    "address_2": null,
    "address_3": null,
    "city": "Port Austin",
    "state_province": "Michigan",
    "postal_code": "48467-9390",
    "country": "United States",
    "longitude": null,
    "latitude": null,
    "phone": "2487033114",
    "website_url": "http://birdcreekfarms.com",
    "state": "Michigan",
    "street": "282 Grindstone Rd Bird Creek Farms"
  },
  {
    "id": "e6c27ded-48b1-4290-b7a2-3deda657a7b8",
    "name": "Broken Symmetry Gastro Brewery",
    "brewery_type": "brewpub",
    "address_1": "5 Depot Pl",
    "address_2": null,
    "address_3": null,
    "city": "Bethel",
    "state_province": "Connecticut",
    "postal_code": "06801-2507",
    "country": "United States",
    "longitude": -73.41424776,
    "latitude": 41.37097334,
    "phone": "2037311735",
    "website_url": null,
    "state": "Connecticut",
    "street": "5 Depot Pl"
  },
  {
    "id": "e9d8d2f1-c53c-46f6-8195-3799d6c3e818",
    "name": "Broken Tooth Brewing Co",
    "brewery_type": "brewpub",
    "address_1": "2021 Spar Ave",
    "address_2": null,
    "address_3": null,
    "city": "Anchorage",
    "state_province": "Alaska",
    "postal_code": "99501-1815",
    "country": "United States",
    "longitude": -149.8437638,
    "latitude": 61.2225517,
    "phone": "9072784999",
    "website_url": "https://brokentoothbrewing.net",
    "state": "Alaska",
    "street": "2021 Spar Ave"
  },
  {
    "id": "b57658a7-b65b-4b79-bb7e-e0fa8c401415",
    "name": "Broken Trail Brewery & Distillery",
    "brewery_type": "micro",
    "address_1": "2921 Stanford Dr NE",
    "address_2": null,
    "address_3": null,
    "city": "Albuquerque",
    "state_province": "New Mexico",
    "postal_code": "87107-1813",
    "country": "United States",
    "longitude": -106.6175091,
    "latitude": 35.11440682,
    "phone": "5052216281",
    "website_url": "http://www.brokentrailspirits.com",
    "state": "New Mexico",
    "street": "2921 Stanford Dr NE"
  }
]