[
  {
    "id": "86d1fa06-fad8-4251-aa9e-e10f910f1deb",
    "name": "Swinging Bridge Brewing Co",
    "brewery_type": "brewpub",
    "address_1": "122 S Main St",
    "address_2": null,
    "address_3": null,
    "city": "River Falls",
    "state_province": "Wisconsin",
    "postal_code": "54022-2423",
    "country": "United States",
    "longitude": -92.62629149,
    "latitude": 44.85774743,
    "phone": "7156291464",
    "website_url": "http://swingingbridgebrewing.com",
    "state": "Wisconsin",
    "street": "122 S Main St"
  },
  {
    "id": "2e1e1419-b19c-449f-94ca-f4525748aac6",
    "name": "Swinnerton Brewery",
    "brewery_type": "micro",
    "address_1": "1809 8th St",
    "address_2": null,
    "address_3": null,
    "city": "Marysville",
    "state_province": "Washington",
    "postal_code": "98270-4610",
    "country": "United States",
    "longitude": -122.1710235,
    "latitude": 48.05547132,
    "phone": "4253877045",
    "website_url": "http://www.swinnertonbrewery.com",
    "state": "Washington",
    "street": "1809 8th St"
  },
  {
    "id": "45d47b1f-2968-4adb-848c-f46e0d43362f",
    "name": "Switchback Brewing Co",
    "brewery_type": "regional",
    "address_1": "160 Flynn Ave",
    "address_2": null,
    "address_3": null,
    "city": "Burlington",
    "state_province": "Vermont",
    "postal_code": "05401-5400",
    "country": "United States",
    "longitude": -73.22068075,
    "latitude": 44.45680085,
    "phone": "8026514114",
    "website_url": "http://www.switchbackvt.com",
    "state": "Vermont",
    "street": "160 Flynn Ave"
  },
  {
    "id": "6b076ecd-c79f-41b2-a5c6-e19faa9cf8aa",
    "name": "SwitchGear Brewing Co",
    "brewery_type": "micro",
    "address_1": "44 D Gottfried St",
    "address_2": null,
    "address_3": null,
    "city": "Elkhart Lake",
    "state_province": "Wisconsin",
    "postal_code": "53020",
    "country": "United States",
    "longitude": -88.019601,
    "latitude": 43.834243,
    "phone": "9207815120",
    "website_url": "http://www.switchgearbrewing.com",
    "state": "Wisconsin",
    "street": "44 D Gottfried St"
  },
  {
    "id": "1f7ae129-466f-42fb-95b9-10f5a8133dd0",
    "name": "Switchyard Brewing Company",
    "brewery_type": "micro",
    "address_1": "419 N Walnut St",
    "address_2": null,
    "address_3": null,
    "city": "Bloomington",
    "state_province": "Indiana",
    "postal_code": "47404-3842",
    "country": "United States",
    "longitude": -86.5343606,
    "latitude": 39.1865667,
    "phone": "8122878295",
    "website_url": "http://www.switchyardbrewing.com",
    "state": "Indiana",
    "street": "419 N Walnut St"
  },
  {
    "id": "3d0ffd83-d36a-4e5e-af03-fe95da3a80fc",
    "name": "Swover Creek Farm Brewery",
    "brewery_type": "micro",
    "address_1": "4176 Swover Creek Rd",
    "address_2": null,
    "address_3": null,
    "city": "Edinburg",
    "state_province": "Virginia",
    "postal_code": "22824-3744",
    "country": "United States",
    "longitude": null,
    "latitude": null,
    "phone": "5409848973",
    "website_url": "http://www.swovercreekfarms.com",
    "state": "Virginia",
    "street": "4176 Swover Creek Rd"
  },
  {
    "id": "970430cb-49db-4d40-bda4-a3fd12d3b40c",
    "name": "Sycamore Brewing",
    "brewery_type": "brewpub",
    "address_1": "2161 Hawkins St Ste A",
    "address_2": null,
    "address_3": null,
    "city": "Charlotte",
    "state_province": "North Carolina",
    "postal_code": "28203-5396",
    "country": "United States",
    "longitude": null,
    "latitude": null,
    "phone": "7049103821",
    "website_url": "http://www.sycamorebrew.com",
    "state": "North Carolina",
    "street": "2161 Hawkins St Ste A"
  },
  {
    "id": "5b4eded5-5a35-4fed-b41d-058c07c86785",
    "name": "Syncopated Brewing Co",
    "brewery_type": "micro",
    "address_1": "3671 Industry Ave Ste C1",
    "address_2": null,
    "address_3": null,
    "city": "Lakewood",
    "state_province": "California",
    "postal_code": "90712-4155",
    "country": "United States",
    "longitude": -118.1659197,
    "latitude": 33.8236814,
    "phone": "5624262333",
    "website_url": "http://www.syncopatedbrewing.com",
    "state": "California",
    "street": "3671 Industry Ave Ste C1"
  },
  {
    "id": "df1cbf5b-3f4e-451e-b638-09d6128eabe1",
    "name": "Syracuse Suds Factory",
    "brewery_type": "brewpub",
    "address_1": "320 S Clinton St",
    "address_2": null,
    "address_3": null,
    "city": "Syracuse",
    "state_province": "New York",
    "postal_code": "13202-1220",
    "country": "United States",
    "longitude": -76.153679,
    "latitude": 43.04846902,
    "phone": "3154712253",
    "website_url": "http://www.sudsfactory.com",
    "state": "New York",
    "street": "320 S Clinton St"
  },
  {
    "id": "bbd9be81-8a4a-43e6-8fea-be17ec75ee3b",
    "name": "Table 41 Brewing Co.",
    "brewery_type": "micro",
    "address_1": "4 Dunsback Ferry Rd",
    "address_2": null,
    "address_3": null,
    "city": "Cohoes",
    "state_province": "New York",
    "postal_code": "12047-5016",
    "country": "United States",
    "longitude": null,
    "latitude": null,
    "phone": "5185270221",
    "website_url": "http://www.table41brewing.com",
    "state": "New York",
    "street": "4 Dunsback Ferry Rd"
  },
  {
    "id": "3ebd4a18-a0f8-4fa6-b383-b94769a9c35c",
    "name": "Table Rock Brewing LLC",
    "brewery_type": "micro",
    "address_1": "825 Dakota Ave",
    "address_2": null,
    "address_3": null,
    "city": "Medford",
    "state_province": "Oregon",
    "postal_code": "97501-3443",
    "country": "United States",
    "longitude": -122.8807679,
    "latitude": 42.31644563,
    "phone": "5419440829",
    "website_url": null,
    "state": "Oregon",
    "street": "825 Dakota Ave"
  },
  {
    "id": "2542f084-1083-47e9-aab3-f059cc0042fe",
    "name": "Tabol Brewing",
    "brewery_type": "planning",
    "address_1": "704 Dawn St",
    "address_2": null,
    "address_3": null,
    "city": "Richmond",
    "state_province": "Virginia",
    "postal_code": "23222",
    "country": "United States",
    "longitude": null,
    "latitude": null,
    "phone": "8043035528",
    "website_url": "http://tabolbrewing.com/taste",
    "state": "Virginia",
    "street": "704 Dawn St"
  },
  {
    "id": "cb8f9bf5-9928-481f-8700-3bb86a34b170",
    "name": "Tabula Rasa Brewing",
    "brewery_type": "planning",
    "address_1": null,
    "address_2": null,
    "address_3": null,
    "city": "Jacksonville",
    "state_province": "Florida",
    "postal_code": "32204-1705",
    "country": "United States",
    "longitude": null,
    "latitude": null,
    "phone": null,
    "website_url": null,
    "state": "Florida",
    "street": null
  },
  {
    "id": "84851d4b-2539-48f2-a1e9-af83be1e7c4c",
    "name": "Tack Brewing",
    "brewery_type": "planning",
    "address_1": null,
    "address_2": null,
    "address_3": null,
    "city": "Oakland",
    "state_province": "California",
    "postal_code": "94618-1534",
    "country": "United States",
    "longitude": -122.2713563,
    "latitude": 37.8044557,
    "phone": "8054044861",
    "website_url": "http://www.tackbrewing.com",
    "state": "California",
    "street": null
  },
  {
    "id": "b904d6d4-157a-4005-a082-88ee3c47c969",
    "name": "Tacoma Brewing Co.",
    "brewery_type": "micro",
    "address_1": "1116 Court E",
    "address_2": null,
    "address_3": null,
    "city": "Tacoma",
    "state_province": "Washington",
    "postal_code": "98402",
    "country": "United States",
    "longitude": -122.4437398,
    "latitude": 47.25256141,
    "phone": "2532423370",
    "website_url": "http://www.tacomabrewing.com",
    "state": "Washington",
    "street": "1116 Court E"
  },
  {
    "id": "cb31d7c0-8ffa-4e3e-bdc0-100136de959d",
    "name": "Tactical OPS Brewing Inc.",
    "brewery_type": "proprietor",
    "address_1": "2985 N Burl 102",
    "address_2": null,
    "address_3": null,
    "city": "Fresno",
    "state_province": "California",
    "postal_code": "93727",
    "country": "United States",
    "longitude": -119.6761563,
    "latitude": 36.7913344,
    "phone": "5593138759",
    "website_url": "http://www.tacticalopsbrewing.com",
    "state": "California",
    "street": "2985 N Burl 102"
  },
  {
    "id": "251283fc-99a8-447b-b6ba-bf80a8c2ebce",
    "name": "Taft's Ale House",
    "brewery_type": "micro",
    "address_1": "1429 Race St",
    "address_2": null,
    "address_3": null,
    "city": "Cincinnati",
    "state_province": "Ohio",
    "postal_code": "45202-7009",
    "country": "United States",
    "longitude": -84.51750995,
    "latitude": 39.111325,
    "phone": null,
    "website_url": null,
    "state": "Ohio",
    "street": "1429 Race St"
  },
  {
    "id": "bb0ddc58-bfea-4564-8c6a-052d6445d0d4",
    "name": "Taft's Brewing Co",
    "brewery_type": "brewpub",
    "address_1": "4831 Spring Grove Ave",
    "address_2": null,
    "address_3": null,
    "city": "Cincinnati",
    "state_province": "Ohio",
    "postal_code": "45232-1938",
    "country": "United States",
    "longitude": -84.5127071,
    "latitude": 39.1681213,
    "phone": "5138535016",
    "website_url": null,
    "state": "Ohio",
    "street": "4831 Spring Grove Ave"
  },
  {
    "id": "0d2734f2-b096-4426-943b-429b46e53987",
    "name": "Tahoe Mountain Brewing Company",
    "brewery_type": "brewpub",
    "address_1": "475 N. Lake Blvd",
    "address_2": null,
    "address_3": null,
    "city": "Tahoe City",
    "state_province": "California",
    "postal_code": "96145",
    "country": "United States",
    "longitude": -120.141663,
    "latitude": 39.170687,
    "phone": "5305814677",
    "website_url": "http://www.tahoebrewing.com",
    "state": "California",
    "street": "475 N. Lake Blvd"
  },
  {
    "id": "b00dec17-2def-4dc8-bafb-ec0493d81054",
    "name": "Tahoe Mountain Brewing Company",
    "brewery_type": "closed",
    "address_1": "10990 Industrial Way Ste B104",
    "address_2": null,
    "address_3": null,
    "city": "Truckee",
    "state_province": "California",
    "postal_code": "96161-0258",
    "country": "United States",
    "longitude": -120.189448,
    "latitude": 39.32653386,
    "phone": null,
    "website_url": "http://tahoebrewing.com/",
    "state": "California",
    "street": "10990 Industrial Way Ste B104"
  },
  {
    "id": "791e86a0-657e-4f59-9f3f-58a610e7bd5a",
    "name": "Tahquamenon Falls Brewery and Pub",
    "brewery_type": "brewpub",
    "address_1": "M-123 Upper Falls Dr",
    "address_2": null,
    "address_3": null,
    "city": "Paradise",
    "state_province": "Michigan",
    "postal_code": "49768",
    "country": "United States",
    "longitude": null,
    "latitude": null,
    "phone": "9064923300",
    "website_url": "http://www.tahquamenonfallsbrewery.com",
    "state": "Michigan",
    "street": "M-123 Upper Falls Dr"
  },
  {
    "id": "2c6c1506-c260-4b0a-91a3-49fca12bcf37",
    "name": "Tailgate Brewery",
    "brewery_type": "brewpub",
    "address_1": "7300 Charlotte Pike",
    "address_2": null,
    "address_3": null,
    "city": "Nashville",
    "state_province": "Tennessee",
    "postal_code": "37209-5012",
    "country": "United States",
    "longitude": -86.918654,
    "latitude": 36.119936,
    "phone": "6154571424",
    "website_url": "http://www.tailgatebeer.com",
    "state": "Tennessee",
    "street": "7300 Charlotte Pike"
  },
  {
    "id": "5282b0c7-a62e-41c3-8be5-915fdacd0c2f",
    "name": "TailGate Brewery Music Row",
    "brewery_type": "brewpub",
    "address_1": "1538 Demonbreun St",
    "address_2": null,
    "address_3": null,
    "city": "Nashville",
    "state_province": "Tennessee",
    "postal_code": "37203-3112",
    "country": "United States",
    "longitude": -86.78963972,
    "latitude": 36.15310256,
    "phone": null,
    "website_url": "http://www.tailgatebeer.com",
    "state": "Tennessee",
    "street": "1538 Demonbreun St"
  },
  {
    "id": "08eeda9e-f259-42eb-a3db-4e52d38b66e8",
    "name": "Tailspin Brewing Co",
    "brewery_type": "micro",
    "address_1": "626 S 2nd St",
    "address_2": null,
    "address_3": null,
    "city": "Coldwater",
    "state_province": "Ohio",
    "postal_code": "45828-9603",
    "country": "United States",
    "longitude": -84.6288605,
    "latitude": 40.47316407,
    "phone": "4198529366",
    "website_url": "http://Www.TailspinBrewing.co",
    "state": "Ohio",
    "street": "626 S 2nd St"
  },
  {
    "id": "4ccc73ca-f74a-486b-b3e0-46a2dc322c07",
    "name": "Take 16 Brewing Company",
    "brewery_type": "micro",
    "address_1": "509 E Main St",
    "address_2": null,
    "address_3": null,
    "city": "Luverne",
    "state_province": "Minnesota",
    "postal_code": "56156-1905",
    "country": "United States",
    "longitude": -96.20317435,
    "latitude": 43.65421673,
    "phone": "8666639986",
    "website_url": "http://www.take16beer.com",
    "state": "Minnesota",
    "street": "509 E Main St"
  },
  {
    "id": "20095f2b-d1bc-401d-959b-f078135940f6",
    "name": "TaleSpinner Craft Brewery",
    "brewery_type": "planning",
    "address_1": null,
    "address_2": null,
    "address_3": null,
    "city": "Nashua",
    "state_province": "New Hampshire",
    "postal_code": "03062-1033",
    "country": "United States",
    "longitude": null,
    "latitude": null,
    "phone": "6032339636",
    "website_url": "http://www.talespinnerbrew.com",
    "state": "New Hampshire",
    "street": null
  },
  {
    "id": "b27c5ad5-bc67-4fc2-a0a9-ca517f036629",
    "name": "Talisman Brewing Company",
    "brewery_type": "micro",
    "address_1": "1258 Gibson Ave",
    "address_2": null,
    "address_3": null,
    "city": "Ogden",
    "state_province": "Utah",
    "postal_code": "84404-5541",
    "country": "United States",
    "longitude": -111.9844475,
    "latitude": 41.243496,
    "phone": "3853892945",
    "website_url": "http://www.talismanbrewingco.com",
    "state": "Utah",
    "street": "1258 Gibson Ave"
  },
  {
    "id": "f4a9eb65-edcc-44f9-9f5e-b74f7795bf49",
    "name": "Talking Waters Brewing Co.",
    "brewery_type": "micro",
    "address_1": "205 S 1st St",
    "address_2": null,
    "address_3": null,
    "city": "Montevideo",
    "state_province": "Minnesota",
    "postal_code": "56265-1412",
    "country": "United States",
    "longitude": -95.7235032,
    "latitude": 44.942758,
    "phone": "3203211444",
    "website_url": "http://www.talkingwatersbrewing.com",
    "state": "Minnesota",
    "street": "205 S 1st St"
  },
  {
    "id": "9daf19fc-e958-48d7-b232-53661abf49fe",
    "name": "Tall City Brewing Co.",
    "brewery_type": "planning",
    "address_1": null,
    "address_2": null,
    "address_3": null,
    "city": "Midland",
    "state_province": "Texas",
    "postal_code": "79703-5137",
    "country": "United States",
    "longitude": null,
    "latitude": null,
    "phone": "4327708679",
    "website_url": null,
    "state": "Texas",
    "street": null
  },
  {
    "id": "458d02fe-149e-4bad-bcf6-38db49854fc0",
    "name": "Tall Tales Brewing Co. LLC",
    "brewery_type": "brewpub",
    "address_1": "6929 Heron Grove Ct Ste 102",
    "address_2": null,
    "address_3": null,
    "city": "Parsonsburg",
    "state_province": "Maryland",
    "postal_code": "21849-2155",
    "country": "United States",
    "longitude": null,
    "latitude": null,
    "phone": "4105432739",
    "website_url": "http://www.talltalesbrew.com",
    "state": "Maryland",
    "street": "6929 Heron Grove Ct Ste 102"
  },
  {
    "id": "069a5770-2241-4f0d-b635-c0f61825a1fd",
    "name": "Tallgrass Brewing Co",
    "brewery_type": "regional",
    "address_1": "5960 Dry Hop Cir",
    "address_2": null,
    "address_3": null,
    "city": "Manhattan",
    "state_province": "Kansas",
    "postal_code": "66503-9815",
    "country": "United States",
    "longitude": -96.6792762,
    "latitude": 39.1428736,
    "phone": "7855371131",
    "website_url": "http://www.tallgrassbeer.com",
    "state": "Kansas",
    "street": "5960 Dry Hop Cir"
  },
  {
    "id": "aa01c26f-b816-4afe-a4a2-e42afd3d9039",
    "name": "Tallgrass Taphouse Co",
    "brewery_type": "brewpub",
    "address_1": "320 Poyntz Ave",
    "address_2": null,
    "address_3": null,
    "city": "Manhattan",
    "state_province": "Kansas",
    "postal_code": "66502-6038",
    "country": "United States",
    "longitude": -96.561291,
    "latitude": 39.1795046,
    "phone": "7853202933",
    "website_url": "http://www.tallgrasstaphouse.com",
    "state": "Kansas",
    "street": "320 Poyntz Ave"
  },
  {
    "id": "3978dbf8-ca5f-4cc3-9a15-6ba5fb7b23e7",
    "name": "Tallulah Brewing Company",
    "brewery_type": "micro",
    "address_1": "1804 4th Ave S",
    "address_2": null,
    "address_3": null,
    "city": "Jasper",
    "state_province": "Alabama",
    "postal_code": "35501-5330",
    "country": "United States",
    "longitude": -87.278675,
    "latitude": 33.830796,
    "phone": "2055308555",
    "website_url": null,
    "state": "Alabama",
    "street": "1804 4th Ave S"
  },
  {
    "id": "a46de1d1-1edd-4788-8c9c-efa43b3e4e19",
    "name": "Tamarack Brewing Co",
    "brewery_type": "micro",
    "address_1": "105 Blacktail Rd # 2",
    "address_2": null,
    "address_3": null,
    "city": "Lakeside",
    "state_province": "Montana",
    "postal_code": "59922-9628",
    "country": "United States",
    "longitude": -114.2253672,
    "latitude": 48.0161369,
    "phone": "4068440244",
    "website_url": "http://www.tamarackbrewing.com",
    "state": "Montana",
    "street": "105 Blacktail Rd # 2"
  },
  {
    "id": "f54a5693-be9d-4faa-ac97-47d62a225392",
    "name": "Tampa Bay Brewing Co Brewpub",
    "brewery_type": "micro",
    "address_1": "1600 E 8th Ave Ste A123",
    "address_2": null,
    "address_3": null,
    "city": "Tampa",
    "state_province": "Florida",
    "postal_code": "33605-3760",
    "country": "United States",
    "longitude": null,
    "latitude": null,
    "phone": "8132471422",
    "website_url": "http://tbbc.beer",
    "state": "Florida",
    "street": "1600 E 8th Ave Ste A123"
  },
  {
    "id": "582945be-7f01-4bdc-850f-1f93e5b149a2",
    "name": "Tampa Bay Brewing Co Production Brewery",
    "brewery_type": "brewpub",
    "address_1": "13937 Monroes Business Park",
    "address_2": null,
    "address_3": null,
    "city": "Tampa",
    "state_province": "Florida",
    "postal_code": "33635-6309",
    "country": "United States",
    "longitude": null,
    "latitude": null,
    "phone": "8132471422",
    "website_url": null,
    "state": "Florida",
    "street": "13937 Monroes Business Park"
  },
  {
    "id": "84a82ca6-2e8c-4d10-a24a-375ba1f2ca58",
    "name": "Tampa Beer Works",
    "brewery_type": "micro",
    "address_1": "333 N Falkenburg Rd Ste D407",
    "address_2": null,
    "address_3": null,
    "city": "Tampa",
    "state_province": "Florida",
    "postal_code": "33619-7895",
    "country": "United States",
    "longitude": null,
    "latitude": null,
    "phone": "8136851909",
    "website_url": "http://www.esbbrewing.com",
    "state": "Florida",
    "street": "333 N Falkenburg Rd Ste D407"
  },
  {
    "id": "ca916419-7c3f-4152-898a-0ad48a70a9f6",
    "name": "Tandem Brewing Co",
    "brewery_type": "brewpub",
    "address_1": "17 SE 3rd Ave",
    "address_2": null,
    "address_3": null,
    "city": "Ontario",
    "state_province": "Oregon",
    "postal_code": "97914-2803",
    "country": "United States",
    "longitude": -116.9627719,
    "latitude": 44.02391075,
    "phone": "2087416774",
    "website_url": "http://www.tandembrewing.com",
    "state": "Oregon",
    "street": "17 SE 3rd Ave"
  },
  {
    "id": "5ecec020-0941-4e45-ba00-4c046eddc84c",
    "name": "Taneum Creek Brewing",
    "brewery_type": "micro",
    "address_1": "811 Hwy 970 Ste 7",
    "address_2": null,
    "address_3": null,
    "city": "Cle Elum",
    "state_province": "Washington",
    "postal_code": "98922",
    "country": "United States",
    "longitude": -120.93029357496,
    "latitude": 47.193807761506,
    "phone": "9709039414",
    "website_url": "https://www.taneumcreekbrewing.com",
    "state": "Washington",
    "street": "811 Hwy 970 Ste 7"
  },
  {
    "id": "fa71c6aa-8652-4430-a3aa-dced12038a61",
    "name": "Tangled Roots Brewing Company",
    "brewery_type": "brewpub",
    "address_1": "130 E Madison St",
    "address_2": null,
    "address_3": null,
    "city": "Ottawa",
    "state_province": "Illinois",
    "postal_code": "61350-5098",
    "country": "United States",
    "longitude": -88.84091316,
    "latitude": 41.34692308,
    "phone": "8153249549",
    "website_url": "http://www.tangledrootsbrewingco.com",
    "state": "Illinois",
    "street": "130 E Madison St"
  },
  {
    "id": "5219ee31-6441-44e5-ac74-682f8c29fe80",
    "name": "TangleTown Public House",
    "brewery_type": "micro",
    "address_1": "2106 N 55th St",
    "address_2": null,
    "address_3": null,
    "city": "Seattle",
    "state_province": "Washington",
    "postal_code": "98103-6202",
    "country": "United States",
    "longitude": -122.333474,
    "latitude": 47.6687837,
    "phone": "2064666340",
    "website_url": "https://www.tangletownpublichouse.com/",
    "state": "Washington",
    "street": "2106 N 55th St"
  },
  {
    "id": "834f90bd-7ba4-46f3-ba85-db507478f531",
    "name": "Tannery Bend Beerworks",
    "brewery_type": "closed",
    "address_1": "101 South Coombs Street Suite X",
    "address_2": null,
    "address_3": null,
    "city": "Napa",
    "state_province": "California",
    "postal_code": "94559",
    "country": "United States",
    "longitude": -122.287271,
    "latitude": 38.28513283,
    "phone": "7076815774",
    "website_url": "http://www.tannerybendbeerworks.com",
    "state": "California",
    "street": "101 South Coombs Street Suite X"
  },
  {
    "id": "54dd0519-287f-4736-980e-595fa699639f",
    "name": "Tannery Bend Beerworks",
    "brewery_type": "brewpub",
    "address_1": "6369 Telegraph Ave",
    "address_2": null,
    "address_3": null,
    "city": "Oakland",
    "state_province": "California",
    "postal_code": "94609",
    "country": "United States",
    "longitude": -122.260843,
    "latitude": 37.84998999,
    "phone": "5102509055",
    "website_url": "http://www.tannerybendbeerworks.com",
    "state": "California",
    "street": "6369 Telegraph Ave"
  },
  {
    "id": "9dfec154-bfdf-4489-9cfc-ed3a5611c15c",
    "name": "Tannery Run Brew Works",
    "brewery_type": "planning",
    "address_1": null,
    "address_2": null,
    "address_3": null,
    "city": "Ambler",
    "state_province": "Pennsylvania",
    "postal_code": "19002-4407",
    "country": "United States",
    "longitude": null,
    "latitude": null,
    "phone": "2156131113",
    "website_url": "http://www.tanneryrun.com",
    "state": "Pennsylvania",
    "street": null
  },
  {
    "id": "692ad7e4-2bd7-452d-a0e2-08c9cc43ae0d",
    "name": "Tantrum Brewing Company",
    "brewery_type": "planning",
    "address_1": null,
    "address_2": null,
    "address_3": null,
    "city": "Cleveland",
    "state_province": "Georgia",
    "postal_code": "30528-7804",
    "country": "United States",
    "longitude": null,
    "latitude": null,
    "phone": "7068090808",
    "website_url": "http://www.tantrumbeer.com",
    "state": "Georgia",
    "street": null
  },
  {
    "id": "fb7d91d0-dc5c-483e-ac0c-c932ed291fa0",
    "name": "Tanzenwald Brewing Company",
    "brewery_type": "brewpub",
    "address_1": "103 Water St N",
    "address_2": null,
    "address_3": null,
    "city": "Northfield",
    "state_province": "Minnesota",
    "postal_code": "55057-2121",
    "country": "United States",
    "longitude": -93.1617022,
    "latitude": 44.4600704,
    "phone": "5073662337",
    "website_url": "http://www.tanzenwald.com",
    "state": "Minnesota",
    "street": "103 Water St N"
  },
  {
    "id": "194b8100-0dde-43ba-8918-eea6c71bb406",
    "name": "Taos Ale House",
    "brewery_type": "brewpub",
    "address_1": "401 Paseo del Pueblo Norte",
    "address_2": null,
    "address_3": null,
    "city": "Taos",
    "state_province": "New Mexico",
    "postal_code": "87571-5907",
    "country": "United States",
    "longitude": -105.568722,
    "latitude": 36.41222,
    "phone": "5757585522",
    "website_url": "http://www.taosalehouse.com",
    "state": "New Mexico",
    "street": "401 Paseo del Pueblo Norte"
  },
  {
    "id": "1fa3fc1b-d53f-4154-89d0-f1d6955d6635",
    "name": "Taos Mesa Brewing Co",
    "brewery_type": "brewpub",
    "address_1": "20 ABC Mesa Road",
    "address_2": null,
    "address_3": null,
    "city": "El Prado",
    "state_province": "New Mexico",
    "postal_code": "87529",
    "country": "United States",
    "longitude": null,
    "latitude": null,
    "phone": "5757790449",
    "website_url": "http://www.taosmesabrewing.com",
    "state": "New Mexico",
    "street": "20 ABC Mesa Road"
  },
  {
    "id": "0b29b25e-6a2f-476e-9ce3-585c14973f02",
    "name": "Taos Trail Inn Brewery & Steakhouse",
    "brewery_type": "brewpub",
    "address_1": "35309 US-285",
    "address_2": null,
    "address_3": null,
    "city": "Ojo Caliente",
    "state_province": "New Mexico",
    "postal_code": "87549",
    "country": "United States",
    "longitude": null,
    "latitude": null,
    "phone": "5055839215",
    "website_url": "http://www.taostrailinn.com/Restaurant",
    "state": "New Mexico",
    "street": "35309 US-285"
  },
  {
    "id": "6a7335ee-c49f-4220-89f4-f239d5bf089c",
    "name": "Tap and Screw Brewery",
    "brewery_type": "brewpub",
    "address_1": "4721 Red Bank Rd",
    "address_2": null,
    "address_3": null,
    "city": "Cincinnati",
    "state_province": "Ohio",
    "postal_code": "45277",
    "country": "United States",
    "longitude": -84.40434316,
    "latitude": 39.158691,
    "phone": "5134511763",
    "website_url": "http://www.tapandscrew.com",
    "state": "Ohio",
    "street": "4721 Red Bank Rd"
  }
]