[
  {
    "id": "5caa5486-f355-4e8a-b7c5-90d7a9c85cbd",
    "name": "Drew Fox Brewing Company",
    "brewery_type": "micro",
    "address_1": "Unit 8",
    "address_2": "Clonard Rd",
    "address_3": "Westpoint Business Park",
    "city": "Wexford",
    "state_province": "Wexford",
    "postal_code": "Y35 HN50",
    "country": "Ireland",
    "longitude": -6.4921242,
    "latitude": 52.3311164,
    "phone": null,
    "website_url": "http://www.cleverman.ie/",
    "state": "Wexford",
    "street": "Unit 8"
  },
  {
    "id": "44c3432e-9643-4a92-b7fc-4fa6c375995c",
    "name": "Driftless Brewing Co",
    "brewery_type": "micro",
    "address_1": "102 Sunbeam Blvd W",
    "address_2": null,
    "address_3": null,
    "city": "Soldiers Grove",
    "state_province": "Wisconsin",
    "postal_code": "54655-1001",
    "country": "United States",
    "longitude": -90.76571832,
    "latitude": 43.38921997,
    "phone": "66086245577",
    "website_url": "http://www.driftlessbrewing.com",
    "state": "Wisconsin",
    "street": "102 Sunbeam Blvd W"
  },
  {
    "id": "fd696e0a-a7bc-4f17-ac41-ede9b13b24d0",
    "name": "Drink Me Brewing",
    "brewery_type": "micro",
    "address_1": "210 9th St",
    "address_2": null,
    "address_3": null,
    "city": "Sibley",
    "state_province": "Iowa",
    "postal_code": "51249-1812",
    "country": "United States",
    "longitude": -95.7506989,
    "latitude": 43.39942206,
    "phone": "2173161890",
    "website_url": "http://www.drinkmebrewing.com",
    "state": "Iowa",
    "street": "210 9th St"
  },
  {
    "id": "fa16f1e8-3ee9-46e8-8c40-64a05947f6a2",
    "name": "Drinking Horse Brewing Company",
    "brewery_type": "micro",
    "address_1": "11517 SE Highway 212",
    "address_2": null,
    "address_3": null,
    "city": "Clackamas",
    "state_province": "Oregon",
    "postal_code": "97015-9053",
    "country": "United States",
    "longitude": -122.378124,
    "latitude": 45.4288733,
    "phone": "5035648165",
    "website_url": "http://www.drinkinghorsebeer.com",
    "state": "Oregon",
    "street": "11517 SE Highway 212"
  },
  {
    "id": "29891984-0438-4e8a-be6c-f7275fda484b",
    "name": "Drop In Brewing",
    "brewery_type": "micro",
    "address_1": "610 Route 7 S",
    "address_2": null,
    "address_3": null,
    "city": "Middlebury",
    "state_province": "Vermont",
    "postal_code": "05753-8987",
    "country": "United States",
    "longitude": null,
    "latitude": null,
    "phone": "8029897414",
    "website_url": "http://www.dropinbeer.com",
    "state": "Vermont",
    "street": "610 Route 7 S"
  },
  {
    "id": "e3e862c9-ecda-4cba-abbc-bf1c8ce6539a",
    "name": "Dru Bru - Cle Elum",
    "brewery_type": "micro",
    "address_1": "1015 E 2nd St.",
    "address_2": null,
    "address_3": null,
    "city": "Cle Elum",
    "state_province": "Washington",
    "postal_code": "98922-1324",
    "country": "United States",
    "longitude": -120.917988,
    "latitude": 47.194315,
    "phone": "4254340700",
    "website_url": "http://www.drubru.com",
    "state": "Washington",
    "street": "1015 E 2nd St."
  },
  {
    "id": "c020e892-ad66-4b36-be5e-d0095ab3a263",
    "name": "Dru Bru - Snoqualmie Pass",
    "brewery_type": "micro",
    "address_1": "10 Pass Life Way # 3",
    "address_2": null,
    "address_3": null,
    "city": "Snoqualmie Pass",
    "state_province": "Washington",
    "postal_code": "98068",
    "country": "United States",
    "longitude": -121.412584,
    "latitude": 47.421312,
    "phone": "4254340700",
    "website_url": "http://www.drubru.com",
    "state": "Washington",
    "street": "10 Pass Life Way # 3"
  },
  {
    "id": "2fc58bc4-57fa-4880-9286-095548fb5ec6",
    "name": "Druid City Brewing",
    "brewery_type": "micro",
    "address_1": "607 14th St",
    "address_2": null,
    "address_3": null,
    "city": "Tuscaloosa",
    "state_province": "Alabama",
    "postal_code": "35401-3439",
    "country": "United States",
    "longitude": -87.54373615,
    "latitude": 33.19997474,
    "phone": "2058868140",
    "website_url": "http://www.druidcitybrewing.com",
    "state": "Alabama",
    "street": "607 14th St"
  },
  {
    "id": "1b1fa0ef-7e76-474a-88d2-7f22b56bb3ff",
    "name": "Drumconrath Brewing Company",
    "brewery_type": "micro",
    "address_1": "630 1st Ave N",
    "address_2": null,
    "address_3": null,
    "city": "Fargo",
    "state_province": "North Dakota",
    "postal_code": "58102-5268",
    "country": "United States",
    "longitude": -96.78936674,
    "latitude": 46.8773031,
    "phone": "7016453786",
    "website_url": "http://www.drumconrathbrewing.com",
    "state": "North Dakota",
    "street": "630 1st Ave N"
  },
  {
    "id": "e1f2d5c0-4b41-47f1-9a7a-5638851a9ac5",
    "name": "Drumming Grouse Brewery, LLC",
    "brewery_type": "micro",
    "address_1": "318 Fosterville Rd",
    "address_2": null,
    "address_3": null,
    "city": "Bridgton",
    "state_province": "Maine",
    "postal_code": "04009-4032",
    "country": "United States",
    "longitude": -70.68838325,
    "latitude": 43.97416125,
    "phone": "4109609679",
    "website_url": "http://www.drumminggrousebrewery.com",
    "state": "Maine",
    "street": "318 Fosterville Rd"
  },
  {
    "id": "cfff9480-fc9e-4ac6-addc-f64fbb834fef",
    "name": "Drunken Rabbit Brewing",
    "brewery_type": "micro",
    "address_1": "749A New Ludlow Rd",
    "address_2": null,
    "address_3": null,
    "city": "South Hadley",
    "state_province": "Massachusetts",
    "postal_code": "01020",
    "country": "United States",
    "longitude": -72.553245,
    "latitude": 42.217914,
    "phone": "4137282739",
    "website_url": "http://www.rabbit.beer",
    "state": "Massachusetts",
    "street": "749A New Ludlow Rd"
  },
  {
    "id": "0d191216-159d-4314-ba33-c23d979afd74",
    "name": "Druthers Brewing Co",
    "brewery_type": "brewpub",
    "address_1": "381 Broadway",
    "address_2": null,
    "address_3": null,
    "city": "Saratoga Springs",
    "state_province": "New York",
    "postal_code": "12866-3111",
    "country": "United States",
    "longitude": null,
    "latitude": null,
    "phone": "5183065275",
    "website_url": "http://www.druthersbrewing.com",
    "state": "New York",
    "street": "381 Broadway"
  },
  {
    "id": "b28c0edf-d271-4d60-997a-aa52aab7170f",
    "name": "Dry City Brew Works",
    "brewery_type": "micro",
    "address_1": "120B N Main St",
    "address_2": null,
    "address_3": null,
    "city": "Wheaton",
    "state_province": "Illinois",
    "postal_code": "60187-",
    "country": "United States",
    "longitude": -88.1069594,
    "latitude": 41.86544335,
    "phone": "6304564787",
    "website_url": "http://www.drycitybrewworks.com",
    "state": "Illinois",
    "street": "120B N Main St"
  },
  {
    "id": "ec86cc6f-53f8-4715-8595-fe68cf676bc6",
    "name": "Dry County Brewing",
    "brewery_type": "brewpub",
    "address_1": "585 Oak Ave",
    "address_2": null,
    "address_3": null,
    "city": "Spruce Pine",
    "state_province": "North Carolina",
    "postal_code": "28777-2727",
    "country": "United States",
    "longitude": -82.063578,
    "latitude": 35.9158912,
    "phone": "8287654583",
    "website_url": "http://www.drycountybrewing.com",
    "state": "North Carolina",
    "street": "585 Oak Ave"
  },
  {
    "id": "8f0e3986-07af-496e-9149-bbcde8bb9b84",
    "name": "Dry County Brewing Company",
    "brewery_type": "micro",
    "address_1": "1500 Lockhart Drive",
    "address_2": null,
    "address_3": null,
    "city": "kennesaw",
    "state_province": "Georgia",
    "postal_code": "30144",
    "country": "United States",
    "longitude": null,
    "latitude": null,
    "phone": "4045799846",
    "website_url": "http://www.DryCountyBrewCo.com",
    "state": "Georgia",
    "street": "1500 Lockhart Drive"
  },
  {
    "id": "f5bcfd6a-160a-4d65-a5b7-834564023123",
    "name": "Dry Dock Brewing Co - North Dock",
    "brewery_type": "regional",
    "address_1": "2801 Tower Rd",
    "address_2": null,
    "address_3": null,
    "city": "Aurora",
    "state_province": "Colorado",
    "postal_code": "80011-3508",
    "country": "United States",
    "longitude": -104.772404,
    "latitude": 39.758038,
    "phone": "3034005606",
    "website_url": "http://www.drydockbrewing.com",
    "state": "Colorado",
    "street": "2801 Tower Rd"
  },
  {
    "id": "a2728fec-51dd-4613-b15d-fc53774003b2",
    "name": "Dry Dock Brewing Co- South Dock",
    "brewery_type": "micro",
    "address_1": "15120 E Hampden Ave",
    "address_2": null,
    "address_3": null,
    "city": "Aurora",
    "state_province": "Colorado",
    "postal_code": "80014-3906",
    "country": "United States",
    "longitude": -104.7680096,
    "latitude": 39.6529424,
    "phone": "3034005606",
    "website_url": "http://www.drydockbrewing.com",
    "state": "Colorado",
    "street": "15120 E Hampden Ave"
  },
  {
    "id": "069e89d5-77ec-486b-925f-3837899ebbbc",
    "name": "Dry Ground Brewing Company",
    "brewery_type": "micro",
    "address_1": "3121 Broadway St",
    "address_2": null,
    "address_3": null,
    "city": "Paducah",
    "state_province": "Kentucky",
    "postal_code": "42001-4305",
    "country": "United States",
    "longitude": -88.63767771,
    "latitude": 37.0705097,
    "phone": "2702109296",
    "website_url": "http://www.drygroundbrewing.com",
    "state": "Kentucky",
    "street": "3121 Broadway St"
  },
  {
    "id": "3dae53ba-0f35-4f1f-92fd-f29f05aaf5fc",
    "name": "Dry River Brewing",
    "brewery_type": "micro",
    "address_1": "671 S Anderson St",
    "address_2": null,
    "address_3": null,
    "city": "Los Angeles",
    "state_province": "California",
    "postal_code": "90023-1110",
    "country": "United States",
    "longitude": -118.2233015,
    "latitude": 34.03638739,
    "phone": "2133755235",
    "website_url": "http://www.dryriverbrewing.com",
    "state": "California",
    "street": "671 S Anderson St"
  },
  {
    "id": "d1ad3b1d-f62b-46d5-a5fa-a22a402b61a3",
    "name": "Dryhop Brewers",
    "brewery_type": "micro",
    "address_1": "3155 N Broadway St",
    "address_2": null,
    "address_3": null,
    "city": "Chicago",
    "state_province": "Illinois",
    "postal_code": "60657-4508",
    "country": "United States",
    "longitude": null,
    "latitude": null,
    "phone": "7738573155",
    "website_url": "http://www.dryhopchicago.com",
    "state": "Illinois",
    "street": "3155 N Broadway St"
  },
  {
    "id": "e9f88398-a093-46e3-91d9-efa85d0412d7",
    "name": "Drylands Brewing",
    "brewery_type": "brewpub",
    "address_1": "322 N Main Ave",
    "address_2": null,
    "address_3": null,
    "city": "Lovington",
    "state_province": "New Mexico",
    "postal_code": "88260-3643",
    "country": "United States",
    "longitude": -103.3484834,
    "latitude": 32.9504929,
    "phone": "5757392739",
    "website_url": "http://Drylandsbrewing.com",
    "state": "New Mexico",
    "street": "322 N Main Ave"
  },
  {
    "id": "9f749cda-57a0-487e-91b5-a3464b1c2ec9",
    "name": "Dual Citizen Brewing Co.",
    "brewery_type": "micro",
    "address_1": "725 Raymond Ave",
    "address_2": null,
    "address_3": null,
    "city": "Saint Paul",
    "state_province": "Minnesota",
    "postal_code": "55114-1709",
    "country": "United States",
    "longitude": -93.1978006,
    "latitude": 44.9631096,
    "phone": "6513304750",
    "website_url": "http://www.dualcitizenbrewing.com",
    "state": "Minnesota",
    "street": "725 Raymond Ave"
  },
  {
    "id": "3ebb636f-ae1e-4e19-b273-7eae97ed4856",
    "name": "Dubh Linn Brew Pub",
    "brewery_type": "brewpub",
    "address_1": "109 W Superior St",
    "address_2": null,
    "address_3": null,
    "city": "Duluth",
    "state_province": "Minnesota",
    "postal_code": "55802-3026",
    "country": "United States",
    "longitude": -92.09972572,
    "latitude": 46.78589441,
    "phone": "2187271559",
    "website_url": "http://dubhlinnpub.com",
    "state": "Minnesota",
    "street": "109 W Superior St"
  },
  {
    "id": "13024a14-b475-4d4f-8aad-f28b028eae6f",
    "name": "Dubina Brewing Co.",
    "brewery_type": "brewpub",
    "address_1": "17035 N 67th Ave Ste 6",
    "address_2": null,
    "address_3": null,
    "city": "Glendale",
    "state_province": "Arizona",
    "postal_code": "85308-3655",
    "country": "United States",
    "longitude": null,
    "latitude": null,
    "phone": "6234127770",
    "website_url": "http://www.dubinabrewing.com",
    "state": "Arizona",
    "street": "17035 N 67th Ave Ste 6"
  },
  {
    "id": "0229fb16-b24c-4b75-a16c-b2a6f7047ed7",
    "name": "Dubious Claims Brewing",
    "brewery_type": "brewpub",
    "address_1": "451 S Thompson Ave",
    "address_2": null,
    "address_3": null,
    "city": "Excelsior Springs",
    "state_province": "Missouri",
    "postal_code": "64024-2133",
    "country": "United States",
    "longitude": -94.22589926,
    "latitude": 39.33933583,
    "phone": "8168962477",
    "website_url": "http://www.dubiousclaimsbrewingco.com/",
    "state": "Missouri",
    "street": "451 S Thompson Ave"
  },
  {
    "id": "e6a545be-d8a4-4f02-a9f8-f62e4b3c257e",
    "name": "Dublin City Brewing Co.",
    "brewery_type": "micro",
    "address_1": "The Parnell Centre",
    "address_2": "Parnell St",
    "address_3": "Rotunda",
    "city": "Dublin",
    "state_province": "Dublin",
    "postal_code": "D01 Y9T3",
    "country": "Ireland",
    "longitude": -6.2693974,
    "latitude": 53.3506256,
    "phone": null,
    "website_url": "http://www.dublincitybrewingco.com/",
    "state": "Dublin",
    "street": "The Parnell Centre"
  },
  {
    "id": "ee33e3eb-8ea8-41b6-a37c-a0ccc87dc8c5",
    "name": "Dublin Corners Farm Brewery",
    "brewery_type": "micro",
    "address_1": "1906 Main St",
    "address_2": null,
    "address_3": null,
    "city": "Linwood",
    "state_province": "New York",
    "postal_code": "14486-9707",
    "country": "United States",
    "longitude": null,
    "latitude": null,
    "phone": "5855384796",
    "website_url": "http://www.dublincornersfarm.com",
    "state": "New York",
    "street": "1906 Main St"
  },
  {
    "id": "a7cbed0a-bbfb-4158-8032-4f44d680d7be",
    "name": "Dubtown Brewing Company",
    "brewery_type": "micro",
    "address_1": "201 Main Ave S",
    "address_2": null,
    "address_3": null,
    "city": "Renton",
    "state_province": "Washington",
    "postal_code": "98057-2602",
    "country": "United States",
    "longitude": -122.2044462,
    "latitude": 47.48147827,
    "phone": "4252078707",
    "website_url": "https://dubtownbrewingcompany.com",
    "state": "Washington",
    "street": "201 Main Ave S"
  },
  {
    "id": "c8a34b95-8a72-4f56-8c50-c790c01261ff",
    "name": "Dubuque Star Brands / Otter Tail Brewery",
    "brewery_type": "contract",
    "address_1": "132 Sheridan St",
    "address_2": null,
    "address_3": null,
    "city": "Muscatine",
    "state_province": "Iowa",
    "postal_code": "52761-5543",
    "country": "United States",
    "longitude": -91.02937536,
    "latitude": 41.43346737,
    "phone": null,
    "website_url": null,
    "state": "Iowa",
    "street": "132 Sheridan St"
  },
  {
    "id": "420b93d8-d15a-4db9-a072-28e22de5f1a9",
    "name": "Duck Foot Brewing Co.",
    "brewery_type": "micro",
    "address_1": "8920 Kenamar Dr Ste 210",
    "address_2": null,
    "address_3": null,
    "city": "San Diego",
    "state_province": "California",
    "postal_code": "92121-2454",
    "country": "United States",
    "longitude": -117.1562181,
    "latitude": 32.88474835,
    "phone": "8584337916",
    "website_url": "http://www.duckfootbeer.com",
    "state": "California",
    "street": "8920 Kenamar Dr Ste 210"
  },
  {
    "id": "a1ecd2e7-3b9c-4ad8-ac87-dfd78d234992",
    "name": "Duck Rabbit Craft Brewery",
    "brewery_type": "micro",
    "address_1": "4519 West Pine St",
    "address_2": null,
    "address_3": null,
    "city": "Farmville",
    "state_province": "North Carolina",
    "postal_code": "27828-8526",
    "country": "United States",
    "longitude": -77.591863,
    "latitude": 35.5980644,
    "phone": "2527537745",
    "website_url": "http://duckrabbitbrewery.com",
    "state": "North Carolina",
    "street": "4519 West Pine St"
  },
  {
    "id": "117dfbba-3145-4e39-b43d-5cc9964d2467",
    "name": "DuClaw Brewing Co",
    "brewery_type": "regional",
    "address_1": "8901 Yellow Brick Rd Ste B",
    "address_2": null,
    "address_3": null,
    "city": "Baltimore",
    "state_province": "Maryland",
    "postal_code": "21237-2349",
    "country": "United States",
    "longitude": null,
    "latitude": null,
    "phone": "4435599900",
    "website_url": "http://www.duclaw.com",
    "state": "Maryland",
    "street": "8901 Yellow Brick Rd Ste B"
  },
  {
    "id": "ece54804-4295-4a37-a620-d98d556d29de",
    "name": "Dudes' Brewing Co",
    "brewery_type": "micro",
    "address_1": "1840 W 208th St",
    "address_2": null,
    "address_3": null,
    "city": "Torrance",
    "state_province": "California",
    "postal_code": "90501-1807",
    "country": "United States",
    "longitude": -118.3115036,
    "latitude": 33.8417185,
    "phone": "4242712915",
    "website_url": "http://www.thedudesbrew.com",
    "state": "California",
    "street": "1840 W 208th St"
  },
  {
    "id": "b62722b0-6f7f-4a83-9330-ca1a8942d118",
    "name": "Due South Brewing Co",
    "brewery_type": "micro",
    "address_1": "2900 High Ridge Rd Ste 3",
    "address_2": null,
    "address_3": null,
    "city": "Boynton Beach",
    "state_province": "Florida",
    "postal_code": "33426-8708",
    "country": "United States",
    "longitude": null,
    "latitude": null,
    "phone": "5614632337",
    "website_url": "http://www.duesouthales.com",
    "state": "Florida",
    "street": "2900 High Ridge Rd Ste 3"
  },
  {
    "id": "dc1dbe18-f446-43d9-8cdf-cb542bc087cf",
    "name": "Dueces Wild Brewery",
    "brewery_type": "micro",
    "address_1": "660 Peterson Rd",
    "address_2": null,
    "address_3": null,
    "city": "Colorado Springs",
    "state_province": "Colorado",
    "postal_code": "80915-4002",
    "country": "United States",
    "longitude": -104.7034318,
    "latitude": 38.8877651,
    "phone": "6079729260",
    "website_url": "http://www.dwbbrewery.com",
    "state": "Colorado",
    "street": "660 Peterson Rd"
  },
  {
    "id": "5e0fa2b7-af5d-4aae-889d-8b9a3a1bf10f",
    "name": "Duel Brewing Company",
    "brewery_type": "brewpub",
    "address_1": "1228 Parkway Dr Ste D",
    "address_2": null,
    "address_3": null,
    "city": "Santa Fe",
    "state_province": "New Mexico",
    "postal_code": "87507-7319",
    "country": "United States",
    "longitude": null,
    "latitude": null,
    "phone": "5054745301",
    "website_url": "http://www.duelbrewing.com",
    "state": "New Mexico",
    "street": "1228 Parkway Dr Ste D"
  },
  {
    "id": "06915497-8cab-4ba0-9f11-2394c6717e08",
    "name": "Dueling Barrels",
    "brewery_type": "micro",
    "address_1": "745 Hambley Blvd",
    "address_2": null,
    "address_3": null,
    "city": "Pikeville",
    "state_province": "Kentucky",
    "postal_code": "41501-9078",
    "country": "United States",
    "longitude": -82.518819,
    "latitude": 37.48176335,
    "phone": "6067663835",
    "website_url": "http://www.duelingbarrels.com",
    "state": "Kentucky",
    "street": "745 Hambley Blvd"
  },
  {
    "id": "cf3a71af-2553-4f3f-887b-acbe0d34ea2d",
    "name": "Dueling Dogs Brewing Company",
    "brewery_type": "planning",
    "address_1": null,
    "address_2": null,
    "address_3": null,
    "city": "Lincoln",
    "state_province": "California",
    "postal_code": "95648-8503",
    "country": "United States",
    "longitude": -121.29318,
    "latitude": 38.8915741,
    "phone": "9164348141",
    "website_url": "http://www.duelingdogsbrewing.com",
    "state": "California",
    "street": null
  },
  {
    "id": "e31a1d5a-42e7-4d84-a9a0-12b7849c8c8a",
    "name": "Duesterbeck's Brewing Company",
    "brewery_type": "micro",
    "address_1": "N5543 County Rd O",
    "address_2": null,
    "address_3": null,
    "city": "Elkhorn",
    "state_province": "Wisconsin",
    "postal_code": "53121-3815",
    "country": "United States",
    "longitude": -88.631657284538,
    "latitude": 42.692675140057,
    "phone": "2627299771",
    "website_url": "http://www.dbcbrewery.com",
    "state": "Wisconsin",
    "street": "N5543 County Rd O"
  },
  {
    "id": "3587e92a-c342-4eae-8212-6b324f02d903",
    "name": "Dunagan Irish Pub & Brewery",
    "brewery_type": "brewpub",
    "address_1": "3222 56th St",
    "address_2": null,
    "address_3": null,
    "city": "Gig Harbor",
    "state_province": "Washington",
    "postal_code": "98335-1359",
    "country": "United States",
    "longitude": -122.4394246,
    "latitude": 47.25292454,
    "phone": null,
    "website_url": "http://www.dunaganbrewing.com",
    "state": "Washington",
    "street": "3222 56th St"
  },
  {
    "id": "b649f4c6-c14a-4ee6-a1cd-85adc75ddc83",
    "name": "Dunbar Brewing",
    "brewery_type": "micro",
    "address_1": "2200 El Camino Real",
    "address_2": null,
    "address_3": null,
    "city": "Santa Margarita",
    "state_province": "California",
    "postal_code": "93453-8668",
    "country": "United States",
    "longitude": -120.6112948,
    "latitude": 35.389717,
    "phone": "8057049050",
    "website_url": null,
    "state": "California",
    "street": "2200 El Camino Real"
  },
  {
    "id": "dd078788-4ff2-4a01-a075-8c9c84076380",
    "name": "Duncan's Abbey",
    "brewery_type": "micro",
    "address_1": null,
    "address_2": null,
    "address_3": null,
    "city": "Tarrytown",
    "state_province": "New York",
    "postal_code": "10591",
    "country": "United States",
    "longitude": null,
    "latitude": null,
    "phone": null,
    "website_url": "http://www.duncansabbey.com",
    "state": "New York",
    "street": null
  },
  {
    "id": "715cad58-79ad-4a69-bf61-b5cf15fdfe67",
    "name": "Dunedin Brewery & Public House",
    "brewery_type": "brewpub",
    "address_1": "937 Douglas Ave",
    "address_2": null,
    "address_3": null,
    "city": "Dunedin",
    "state_province": "Florida",
    "postal_code": "34698-4945",
    "country": "United States",
    "longitude": -82.78782561,
    "latitude": 28.01418231,
    "phone": "7277360606",
    "website_url": "http://www.dunedinbrewery.com",
    "state": "Florida",
    "street": "937 Douglas Ave"
  },
  {
    "id": "10e6848c-4cbb-4d37-b56e-7bddea848778",
    "name": "Dunedin Brewery Production Facility",
    "brewery_type": "planning",
    "address_1": null,
    "address_2": null,
    "address_3": null,
    "city": "Dunedin",
    "state_province": "Florida",
    "postal_code": "34698-5061",
    "country": "United States",
    "longitude": null,
    "latitude": null,
    "phone": null,
    "website_url": null,
    "state": "Florida",
    "street": null
  },
  {
    "id": "bedeb77e-ec21-49a3-9caf-874786adb180",
    "name": "Dungarvan Brewing",
    "brewery_type": "micro",
    "address_1": "Unit 5 No. 2",
    "address_2": "Westgate Business Park",
    "address_3": null,
    "city": "Dungarvan",
    "state_province": "Waterford",
    "postal_code": "X35 HY48",
    "country": "Ireland",
    "longitude": -7.6330624,
    "latitude": 52.0960325,
    "phone": "3535824000",
    "website_url": "https://dungarvanbrewingcompany.com/",
    "state": "Waterford",
    "street": "Unit 5 No. 2"
  },
  {
    "id": "8eaa6a32-0504-43d6-a18a-4005355bebf6",
    "name": "Dungeness Brewing Company",
    "brewery_type": "micro",
    "address_1": "4017 S Mount Angeles Rd",
    "address_2": null,
    "address_3": null,
    "city": "Port Angeles",
    "state_province": "Washington",
    "postal_code": "98362-8966",
    "country": "United States",
    "longitude": -123.418449,
    "latitude": 48.087279,
    "phone": "3607751877",
    "website_url": "http://www.dungenessbrewing.com",
    "state": "Washington",
    "street": "4017 S Mount Angeles Rd"
  },
  {
    "id": "ebb7e49d-a6ed-48e1-a9cb-4a9343e8034b",
    "name": "Dungeon Hollow Brewing",
    "brewery_type": "micro",
    "address_1": "572 County Rd 22A",
    "address_2": null,
    "address_3": null,
    "city": "Bloomingdale",
    "state_province": "Ohio",
    "postal_code": "43910",
    "country": "United States",
    "longitude": null,
    "latitude": null,
    "phone": "7403371510",
    "website_url": "http://www.dungeonhollow.com",
    "state": "Ohio",
    "street": "572 County Rd 22A"
  },
  {
    "id": "7d1d7713-0c0a-4ece-814d-7b7920897879",
    "name": "Dunloe Brewing LLC",
    "brewery_type": "micro",
    "address_1": "1606 Olive Dr",
    "address_2": null,
    "address_3": null,
    "city": "Davis",
    "state_province": "California",
    "postal_code": "95616-4741",
    "country": "United States",
    "longitude": -121.7311242,
    "latitude": 38.5447433,
    "phone": "5302313502",
    "website_url": "http://Dunloebrewing.com",
    "state": "California",
    "street": "1606 Olive Dr"
  },
  {
    "id": "9b2af98d-4f0a-4c35-87d3-1e574f24ec67",
    "name": "Dunsmuir Brewery Works",
    "brewery_type": "brewpub",
    "address_1": "5701 Dunsmuir Ave",
    "address_2": null,
    "address_3": null,
    "city": "Dunsmuir",
    "state_province": "California",
    "postal_code": "96025-2008",
    "country": "United States",
    "longitude": -122.271862,
    "latitude": 41.211366,
    "phone": "5302351900",
    "website_url": "http://www.dunsmuirbreweryworks.com",
    "state": "California",
    "street": "5701 Dunsmuir Ave"
  },
  {
    "id": "2b5d9ce9-b8bd-4ece-98af-9d3eb6f5896f",
    "name": "Duque Brewpub",
    "brewery_type": "brewpub",
    "address_1": "Cal\u00e7ada do Duque n\u00ba49-51",
    "address_2": null,
    "address_3": null,
    "city": "Lisboa",
    "state_province": "Lisboa",
    "postal_code": "1200-156",
    "country": "Portugal",
    "longitude": -9.1424809290381,
    "latitude": 38.713453267381,
    "phone": null,
    "website_url": "https://www.duquebrewpub.com",
    "state": "Lisboa",
    "street": "Cal\u00e7ada do Duque n\u00ba49-51"
  }
]