[
  {
    "id": "c5c523b9-d8f4-402e-baee-c95cbc65ee21",
    "name": "\ud30c\uba38\uc2a4\ube0c\ub8e8\uc5b4\ub9ac(Farmers Brewery)",
    "brewery_type": "brewpub",
    "address_1": "15, Jeonjugaeksa 1-gil",
    "address_2": "Wansan-gu",
    "address_3": null,
    "city": "Jeonju-si",
    "state_province": "Jeollabukdo",
    "postal_code": "54999",
    "country": "South Korea",
    "longitude": 127.140034,
    "latitude": 35.81724263,
    "phone": "070-8803-3915",
    "website_url": "http://www.gdcbeer.co.kr/new/",
    "state": "Jeollabukdo",
    "street": "15, Jeonjugaeksa 1-gil"
  },
  {
    "id": "2056bc4b-2844-4128-a406-fca7a1dca89b",
    "name": "\ud39c\ub354\uba58\ud0c8 \ube0c\ub8e8\uc5b4\ub9ac(Fundamental Brewing Co.)",
    "brewery_type": "brewpub",
    "address_1": "61, Maeyeong-ro 269beon-gil",
    "address_2": "Yeongtong-gu",
    "address_3": null,
    "city": "Suwon-si",
    "state_province": "Gyeonggido",
    "postal_code": "16523",
    "country": "South Korea",
    "longitude": 127.0677246,
    "latitude": 37.25978047,
    "phone": "050-71319-7808",
    "website_url": "https://www.instagram.com/fundamental_brewing_co/",
    "state": "Gyeonggido",
    "street": "61, Maeyeong-ro 269beon-gil"
  },
  {
    "id": "8cf1b15f-c546-4c0f-8532-fb8480944275",
    "name": "\ud504\ub77c\ud558993(993 Praha)",
    "brewery_type": "brewpub",
    "address_1": "20, Gurak-ro 123beon-gil",
    "address_2": null,
    "address_3": null,
    "city": "Suyeong-gu",
    "state_province": "Busan",
    "postal_code": "48212",
    "country": "South Korea",
    "longitude": 129.1154295,
    "latitude": 35.17760201,
    "phone": "051-757-2703",
    "website_url": "http://praha993.com/",
    "state": "Busan",
    "street": "20, Gurak-ro 123beon-gil"
  },
  {
    "id": "57a70f5c-a995-4be1-949c-99244450940f",
    "name": "\ud50c\ub808\uc774\uadf8\ub77c\uc6b4\ub4dc \ube0c\ub8e8\uc5b4\ub9ac(playground Brewery)",
    "brewery_type": "brewpub",
    "address_1": "246-13, Isanpo-gil",
    "address_2": "Ilsanseo-gu",
    "address_3": null,
    "city": "Goyang-si",
    "state_province": "Gyeonggido",
    "postal_code": "10203",
    "country": "South Korea",
    "longitude": 126.7020113,
    "latitude": 37.66779467,
    "phone": "031-912-2463",
    "website_url": "https://www.playgroundbrewery.com/",
    "state": "Gyeonggido",
    "street": "246-13, Isanpo-gil"
  },
  {
    "id": "64a4f65c-47a9-4d8e-ad2e-3cc898b9689c",
    "name": "\ud578\ub4dc\uc564\ubab0\ud2b8 (Hand and Malt)",
    "brewery_type": "brewpub",
    "address_1": "19, Hangang-daero 38ga-gil",
    "address_2": null,
    "address_3": null,
    "city": "Yongsan-gu",
    "state_province": "Seoul",
    "postal_code": "04386",
    "country": "South Korea",
    "longitude": 126.9705831,
    "latitude": 37.52985655,
    "phone": "070-7178-4011",
    "website_url": "http://handandmalt.com/",
    "state": "Seoul",
    "street": "19, Hangang-daero 38ga-gil"
  },
  {
    "id": "a9541aa9-5c12-469b-8cbb-01fb5619cefc",
    "name": "\ud5c8\uc2ec\uccad\ube0c\ub8e8\uc789(Hursimchung Bru)",
    "brewery_type": "brewpub",
    "address_1": "23, Geumganggongwon-ro 20beon-gil",
    "address_2": null,
    "address_3": null,
    "city": "Dongnae-gu",
    "state_province": "Busan",
    "postal_code": "47709",
    "country": "South Korea",
    "longitude": 129.0826027,
    "latitude": 35.21990206,
    "phone": "051-550-2345",
    "website_url": "https://www.hotelnongshim.com/kr/index.php?pCode=hbrau_info",
    "state": "Busan",
    "street": "23, Geumganggongwon-ro 20beon-gil"
  },
  {
    "id": "6f317bdc-458e-466f-bd2a-9ab398d46631",
    "name": "\ud5e4\uc774\uc2a4\ud0c1 \ube0c\ub8e8\uc5b4\ub9ac(Haystack Brewery)",
    "brewery_type": "brewpub",
    "address_1": "25, Pangyogongwon-ro 3-gil",
    "address_2": "Bundang-gu",
    "address_3": null,
    "city": "Seongnam-si",
    "state_province": "Gyeonggido",
    "postal_code": "13477",
    "country": "South Korea",
    "longitude": 127.0890607,
    "latitude": 37.39125615,
    "phone": "070-7631-1110",
    "website_url": null,
    "state": "Gyeonggido",
    "street": "25, Pangyogongwon-ro 3-gil"
  },
  {
    "id": "a1308963-b966-49f7-8f84-97ba37775d14",
    "name": "\ud654\uc774\ud2b8\ud06c\ub85c\uc6b0 \ube0c\ub8e8\uc789(Whitecrow Brewing)",
    "brewery_type": "brewpub",
    "address_1": "65,Gowon-ro",
    "address_2": "Bangnim-myeon",
    "address_3": null,
    "city": "Pyeongchang-gun",
    "state_province": "Gangwondo",
    "postal_code": "25364",
    "country": "South Korea",
    "longitude": 128.2515424,
    "latitude": 37.47598351,
    "phone": "033-333-1201",
    "website_url": "https://www.instagram.com/whitecrowbrewing/",
    "state": "Gangwondo",
    "street": "65,Gowon-ro"
  }
]