[
  {
    "id": "ced563fa-0fc3-4c4c-bd16-2b9b7717f28a",
    "name": "Sugar Creek Brewing Co.",
    "brewery_type": "micro",
    "address_1": "215 Southside Dr",
    "address_2": null,
    "address_3": null,
    "city": "Charlotte",
    "state_province": "North Carolina",
    "postal_code": "28217-1727",
    "country": "United States",
    "longitude": -80.88045065,
    "latitude": 35.18571693,
    "phone": "7044082021",
    "website_url": "http://www.sugarcreekbrewing.com",
    "state": "North Carolina",
    "street": "215 Southside Dr"
  },
  {
    "id": "71d53ada-6c4f-4840-a28d-f1386505671e",
    "name": "Sugar Hill Brewing Company",
    "brewery_type": "brewpub",
    "address_1": "16622 Broad St",
    "address_2": null,
    "address_3": null,
    "city": "Saint Paul",
    "state_province": "Virginia",
    "postal_code": "24283-",
    "country": "United States",
    "longitude": -82.3106732,
    "latitude": 36.90512687,
    "phone": "2767381088",
    "website_url": "http://www.sugarhillbrewing.com",
    "state": "Virginia",
    "street": "16622 Broad St"
  },
  {
    "id": "530468b9-57f6-41cd-ba6f-6d292d8bd92b",
    "name": "Sugar Monkey Brewing & Social Club",
    "brewery_type": "micro",
    "address_1": "339 Indiana St",
    "address_2": null,
    "address_3": null,
    "city": "El Segundo",
    "state_province": "California",
    "postal_code": "90245",
    "country": "United States",
    "longitude": -118.39740551593,
    "latitude": 33.920403943783,
    "phone": "4242771844",
    "website_url": null,
    "state": "California",
    "street": "339 Indiana St"
  },
  {
    "id": "390e3daa-7276-4370-a45c-31eb41baa18b",
    "name": "Sugarfoot Saloon",
    "brewery_type": "brewpub",
    "address_1": "4997 S Good Harbor Trl",
    "address_2": null,
    "address_3": null,
    "city": "Cedar",
    "state_province": "Michigan",
    "postal_code": "49621-8543",
    "country": "United States",
    "longitude": -85.79625698,
    "latitude": 44.90785082,
    "phone": "2312286166",
    "website_url": null,
    "state": "Michigan",
    "street": "4997 S Good Harbor Trl"
  },
  {
    "id": "339e0d58-5766-4c4f-ab24-d3a3477f42ad",
    "name": "Sullivan's Brewing Company",
    "brewery_type": "regional",
    "address_1": "15 John Street Lower",
    "address_2": "Collegepark",
    "address_3": null,
    "city": "Kilkenny",
    "state_province": "Kilkenny",
    "postal_code": "R95 H2CE",
    "country": "Ireland",
    "longitude": -7.2511279,
    "latitude": 52.652832,
    "phone": "353567797980",
    "website_url": "https://www.sullivansbrewingcompany.com/",
    "state": "Kilkenny",
    "street": "15 John Street Lower"
  },
  {
    "id": "5034932b-6a76-4aa1-b929-76eedea825e1",
    "name": "Sumerian Brewing Company",
    "brewery_type": "closed",
    "address_1": "15510 Woodinville Redmond Rd NE Ste E110",
    "address_2": null,
    "address_3": null,
    "city": "Woodinville",
    "state_province": "Washington",
    "postal_code": "98072-6979",
    "country": "United States",
    "longitude": null,
    "latitude": null,
    "phone": "4254865330",
    "website_url": "http://www.sumerianbrewingco.com",
    "state": "Washington",
    "street": "15510 Woodinville Redmond Rd NE Ste E110"
  },
  {
    "id": "4920c9af-770b-4850-adb2-68e368d0cf34",
    "name": "Summerhill Brewing LLC",
    "brewery_type": "micro",
    "address_1": "384 Champlin Rd N. Cayuga County",
    "address_2": null,
    "address_3": null,
    "city": "Groton",
    "state_province": "New York",
    "postal_code": "13073-3212",
    "country": "United States",
    "longitude": -76.29601824,
    "latitude": 42.63594387,
    "phone": "6075916148",
    "website_url": "http://www.facebook.com/Summerhill.brewing/",
    "state": "New York",
    "street": "384 Champlin Rd N. Cayuga County"
  },
  {
    "id": "e436d990-d5b4-4771-ba9b-a77531a5b0c1",
    "name": "Summit Brewing Co",
    "brewery_type": "regional",
    "address_1": "910 Montreal Cir",
    "address_2": null,
    "address_3": null,
    "city": "Saint Paul",
    "state_province": "Minnesota",
    "postal_code": "55102-4246",
    "country": "United States",
    "longitude": -93.13959808,
    "latitude": 44.91398765,
    "phone": "6512657800",
    "website_url": "http://www.summitbrewing.com",
    "state": "Minnesota",
    "street": "910 Montreal Cir"
  },
  {
    "id": "834de8fa-bbd5-4dfc-a665-c1fc43781157",
    "name": "Summit City Brwerks",
    "brewery_type": "brewpub",
    "address_1": "1501 E Berry #106",
    "address_2": null,
    "address_3": null,
    "city": "Fort Wayne",
    "state_province": "Indiana",
    "postal_code": "46803",
    "country": "United States",
    "longitude": null,
    "latitude": null,
    "phone": "2604150782",
    "website_url": "http://www.summitcitybrewerks.com",
    "state": "Indiana",
    "street": "1501 E Berry #106"
  },
  {
    "id": "7d30c320-5116-4f48-8f4f-a07fb5559832",
    "name": "Sun Brewing Co.",
    "brewery_type": "brewpub",
    "address_1": "101 Canutillo La Union Ave",
    "address_2": null,
    "address_3": null,
    "city": "Canutillo",
    "state_province": "Texas",
    "postal_code": "79835-6001",
    "country": "United States",
    "longitude": -106.6011179,
    "latitude": 31.9151882,
    "phone": "9154333048",
    "website_url": "http://sunbrewingco.com",
    "state": "Texas",
    "street": "101 Canutillo La Union Ave"
  },
  {
    "id": "55bbec01-c1da-421a-9721-39d33b554f39",
    "name": "Sun King Brewery",
    "brewery_type": "micro",
    "address_1": "7848 E 96th St",
    "address_2": null,
    "address_3": null,
    "city": "Fishers",
    "state_province": "Indiana",
    "postal_code": "46037-9629",
    "country": "United States",
    "longitude": -86.0242557,
    "latitude": 39.9282185,
    "phone": "3174361926",
    "website_url": null,
    "state": "Indiana",
    "street": "7848 E 96th St"
  },
  {
    "id": "120a1b1e-f09a-4e2f-8f10-2b9a7342d3bd",
    "name": "Sun King Brewing Co",
    "brewery_type": "planning",
    "address_1": null,
    "address_2": null,
    "address_3": null,
    "city": "Fishers",
    "state_province": "Indiana",
    "postal_code": "46037",
    "country": "United States",
    "longitude": null,
    "latitude": null,
    "phone": null,
    "website_url": null,
    "state": "Indiana",
    "street": null
  },
  {
    "id": "3e2d9646-099d-4b01-b619-d40d3a45fdbe",
    "name": "Sun King Brewing Co",
    "brewery_type": "regional",
    "address_1": "135 N College Ave",
    "address_2": null,
    "address_3": null,
    "city": "Indianapolis",
    "state_province": "Indiana",
    "postal_code": "46202-3801",
    "country": "United States",
    "longitude": -86.1449174,
    "latitude": 39.8095687,
    "phone": "3176023702",
    "website_url": null,
    "state": "Indiana",
    "street": "135 N College Ave"
  },
  {
    "id": "44dbdaea-02c1-4459-b259-0605a7a219b8",
    "name": "Sun Up Brewing Co.",
    "brewery_type": "brewpub",
    "address_1": "322 E Camelback Rd",
    "address_2": null,
    "address_3": null,
    "city": "Phoenix",
    "state_province": "Arizona",
    "postal_code": "85012-1614",
    "country": "United States",
    "longitude": -112.0687773,
    "latitude": 33.50950925,
    "phone": "6026708924",
    "website_url": "http://sunup.beer",
    "state": "Arizona",
    "street": "322 E Camelback Rd"
  },
  {
    "id": "64203bc5-a848-4d03-a025-01b0df322b3b",
    "name": "Sun Up Brewing Company 330",
    "brewery_type": "planning",
    "address_1": null,
    "address_2": null,
    "address_3": null,
    "city": "Phoenix",
    "state_province": "Arizona",
    "postal_code": "85012",
    "country": "United States",
    "longitude": -112.0773456,
    "latitude": 33.4485866,
    "phone": null,
    "website_url": null,
    "state": "Arizona",
    "street": null
  },
  {
    "id": "e088534c-396b-4a55-b7d7-0c51ab0ce03a",
    "name": "Sun Valley Brewing Co",
    "brewery_type": "brewpub",
    "address_1": "202 N Main St",
    "address_2": null,
    "address_3": null,
    "city": "Hailey",
    "state_province": "Idaho",
    "postal_code": "83333-8413",
    "country": "United States",
    "longitude": -114.316365,
    "latitude": 43.5210689,
    "phone": "2087885777",
    "website_url": null,
    "state": "Idaho",
    "street": "202 N Main St"
  },
  {
    "id": "acd12d74-76fe-4c74-ad0a-977b67f6d4f7",
    "name": "Suncreek Brewery",
    "brewery_type": "planning",
    "address_1": null,
    "address_2": null,
    "address_3": null,
    "city": "Clermont",
    "state_province": "Florida",
    "postal_code": "34711-2135",
    "country": "United States",
    "longitude": null,
    "latitude": null,
    "phone": "4078508810",
    "website_url": "http://www.suncreekbrewery.com",
    "state": "Florida",
    "street": null
  },
  {
    "id": "44f6bbcc-42ee-4ead-8f3d-3216d6f60698",
    "name": "Sunday River Brewing Company",
    "brewery_type": "brewpub",
    "address_1": "29 Sunday River Rd",
    "address_2": null,
    "address_3": null,
    "city": "Bethel",
    "state_province": "Maine",
    "postal_code": "04217-4623",
    "country": "United States",
    "longitude": -70.8096128,
    "latitude": 44.4483482,
    "phone": "2078244253",
    "website_url": "http://www.sundayriverbrewingcompany.com",
    "state": "Maine",
    "street": "29 Sunday River Rd"
  },
  {
    "id": "26b040cb-d50d-47e2-af07-5e7cabc94559",
    "name": "Sundowner Brewing Co.",
    "brewery_type": "micro",
    "address_1": "30961 Agoura Rd Ste 321",
    "address_2": null,
    "address_3": null,
    "city": "Westlake Village",
    "state_province": "California",
    "postal_code": "91361-5686",
    "country": "United States",
    "longitude": -118.796231,
    "latitude": 34.14489484,
    "phone": "8185979463",
    "website_url": "http://www.malibusundowner.com",
    "state": "California",
    "street": "30961 Agoura Rd Ste 321"
  },
  {
    "id": "8a71cfb0-1ac7-42f1-8968-f5690ce41994",
    "name": "Sunken City Brewing Co",
    "brewery_type": "micro",
    "address_1": "40 Brewery Dr",
    "address_2": null,
    "address_3": null,
    "city": "Hardy",
    "state_province": "Virginia",
    "postal_code": "24101-1100",
    "country": "United States",
    "longitude": null,
    "latitude": null,
    "phone": "5404200476",
    "website_url": "http://www.sunkencitybeer.com",
    "state": "Virginia",
    "street": "40 Brewery Dr"
  },
  {
    "id": "fe5b48e5-b691-4e22-8a69-34c6f5ab3a0b",
    "name": "SunRift Beer Company",
    "brewery_type": "micro",
    "address_1": "55 1st Ave WN",
    "address_2": null,
    "address_3": null,
    "city": "Kalispell",
    "state_province": "Montana",
    "postal_code": "59901",
    "country": "United States",
    "longitude": -114.3181197,
    "latitude": 48.2059559,
    "phone": "4068712567",
    "website_url": "http://www.sunriftbeer.com",
    "state": "Montana",
    "street": "55 1st Ave WN"
  },
  {
    "id": "0ce36ed5-632f-4734-a374-0b51ba123bd5",
    "name": "Sunriver Brewing",
    "brewery_type": "micro",
    "address_1": "56840 Venture Ln",
    "address_2": null,
    "address_3": null,
    "city": "Sunriver",
    "state_province": "Oregon",
    "postal_code": "97707-2100",
    "country": "United States",
    "longitude": -121.4366616,
    "latitude": 43.87300007,
    "phone": "5413065188",
    "website_url": "http://www.sunriverbrewingcompany.com",
    "state": "Oregon",
    "street": "56840 Venture Ln"
  },
  {
    "id": "30f497b4-b12e-4a3d-a14f-ef0439f2ccd6",
    "name": "Sunset Reservoir Brewing Company",
    "brewery_type": "brewpub",
    "address_1": "1735 Noriega St",
    "address_2": null,
    "address_3": null,
    "city": "San Francisco",
    "state_province": "California",
    "postal_code": "94122-4307",
    "country": "United States",
    "longitude": -122.4823594,
    "latitude": 37.7538314,
    "phone": "4155718452",
    "website_url": "http://www.sunsetbeersf.com",
    "state": "California",
    "street": "1735 Noriega St"
  },
  {
    "id": "b76e442b-6c7e-442f-aeac-b40a7e321b41",
    "name": "Sunshine Brewing Company",
    "brewery_type": "micro",
    "address_1": "121 S Main St",
    "address_2": null,
    "address_3": null,
    "city": "Lake Mills",
    "state_province": "Wisconsin",
    "postal_code": "53551-1613",
    "country": "United States",
    "longitude": -88.91296397,
    "latitude": 43.0791731,
    "phone": "9206508579",
    "website_url": "http://www.sunshinebrewco.com",
    "state": "Wisconsin",
    "street": "121 S Main St"
  },
  {
    "id": "def3d990-95bc-40df-a996-c0eab6f54e08",
    "name": "Sunstone Brewing",
    "brewery_type": "micro",
    "address_1": "298 Rockingham Rd",
    "address_2": null,
    "address_3": null,
    "city": "Londonderry",
    "state_province": "New Hampshire",
    "postal_code": "03053",
    "country": "United States",
    "longitude": -71.40209,
    "latitude": 42.92138,
    "phone": "6038188068",
    "website_url": "https://www.longbluecat.com/",
    "state": "New Hampshire",
    "street": "298 Rockingham Rd"
  },
  {
    "id": "47c31369-8b35-4cac-bfb3-db39daf73ea5",
    "name": "Super Brewing Company LLC",
    "brewery_type": "planning",
    "address_1": null,
    "address_2": null,
    "address_3": null,
    "city": "Portland",
    "state_province": "Oregon",
    "postal_code": "97202",
    "country": "United States",
    "longitude": null,
    "latitude": null,
    "phone": "5037193435",
    "website_url": null,
    "state": "Oregon",
    "street": null
  },
  {
    "id": "f69603de-05b8-45b0-8212-38a36c45b432",
    "name": "Super Fun Time Brewing Company",
    "brewery_type": "planning",
    "address_1": null,
    "address_2": null,
    "address_3": null,
    "city": "Bangor",
    "state_province": "Pennsylvania",
    "postal_code": "18013-9244",
    "country": "United States",
    "longitude": null,
    "latitude": null,
    "phone": "6105974402",
    "website_url": null,
    "state": "Pennsylvania",
    "street": null
  },
  {
    "id": "630ad4e1-8625-4e4b-a45f-6c56c7b9712c",
    "name": "Super Owl Brewing",
    "brewery_type": "micro",
    "address_1": "1260 Lake Blvd Ste 121",
    "address_2": null,
    "address_3": null,
    "city": "Davis",
    "state_province": "California",
    "postal_code": "95616-5669",
    "country": "United States",
    "longitude": -121.787547,
    "latitude": 38.55363515,
    "phone": "5307465992",
    "website_url": "http://www.superowlbrewing.com",
    "state": "California",
    "street": "1260 Lake Blvd Ste 121"
  },
  {
    "id": "e0441d23-cadb-4947-a679-bc2704a83390",
    "name": "Superior Bathhouse Brewery",
    "brewery_type": "brewpub",
    "address_1": "329 Central Ave",
    "address_2": null,
    "address_3": null,
    "city": "Hot Springs National Park",
    "state_province": "Arkansas",
    "postal_code": "71901-3525",
    "country": "United States",
    "longitude": null,
    "latitude": null,
    "phone": "5016242337",
    "website_url": "http://www.superiorbathhouse.com",
    "state": "Arkansas",
    "street": "329 Central Ave"
  },
  {
    "id": "a7cd132d-aa7b-4d28-8495-e8660cb6b708",
    "name": "Superior Coast Brewery / Karls Cuisine Winery and Brewery",
    "brewery_type": "brewpub",
    "address_1": "447 W Portage Ave",
    "address_2": null,
    "address_3": null,
    "city": "Sault Sainte Marie",
    "state_province": "Michigan",
    "postal_code": "49783-1989",
    "country": "United States",
    "longitude": -84.35344671,
    "latitude": 46.50179396,
    "phone": "9062531900",
    "website_url": "http://www.karlscuisine.com",
    "state": "Michigan",
    "street": "447 W Portage Ave"
  },
  {
    "id": "c41ca19d-93e3-4489-9bec-cc59208fa451",
    "name": "Surf Brewery",
    "brewery_type": "closed",
    "address_1": "4561 Market St Ste A",
    "address_2": null,
    "address_3": null,
    "city": "Ventura",
    "state_province": "California",
    "postal_code": "93003-6483",
    "country": "United States",
    "longitude": -119.2319648,
    "latitude": 34.25776561,
    "phone": "8056442739",
    "website_url": "http://www.surfbrewery.com",
    "state": "California",
    "street": "4561 Market St Ste A"
  },
  {
    "id": "3be10da6-c43b-4b9f-b9c9-ce43299ded2d",
    "name": "Surfridge Brewing Company",
    "brewery_type": "planning",
    "address_1": null,
    "address_2": null,
    "address_3": null,
    "city": "El Segundo",
    "state_province": "California",
    "postal_code": "90245-4209",
    "country": "United States",
    "longitude": -118.383179,
    "latitude": 33.912594,
    "phone": "3108470283",
    "website_url": "http://www.surfridgebrewery.com",
    "state": "California",
    "street": null
  },
  {
    "id": "c54d9149-0b2f-45f0-bf12-36860e56a1da",
    "name": "Surly Brewing Company",
    "brewery_type": "regional",
    "address_1": "4811 Dusharme Dr",
    "address_2": null,
    "address_3": null,
    "city": "Brooklyn Ctr",
    "state_province": "Minnesota",
    "postal_code": "55429-3940",
    "country": "United States",
    "longitude": -93.32438943,
    "latitude": 45.04294225,
    "phone": "7635353330",
    "website_url": "http://www.surlybrewing.com",
    "state": "Minnesota",
    "street": "4811 Dusharme Dr"
  },
  {
    "id": "f187921a-c59d-47f2-a40a-b1d3bfccc0e0",
    "name": "Surly Brewing Company",
    "brewery_type": "regional",
    "address_1": "520 Malcolm Ave SE",
    "address_2": null,
    "address_3": null,
    "city": "Minneapolis",
    "state_province": "Minnesota",
    "postal_code": "55414-3312",
    "country": "United States",
    "longitude": null,
    "latitude": null,
    "phone": "7635353330",
    "website_url": null,
    "state": "Minnesota",
    "street": "520 Malcolm Ave SE"
  },
  {
    "id": "e6ca2c99-2803-45b8-8b31-ad9f654d9a91",
    "name": "Suspended Brewing Co",
    "brewery_type": "micro",
    "address_1": "912 Washington Blvd",
    "address_2": null,
    "address_3": null,
    "city": "Baltimore",
    "state_province": "Maryland",
    "postal_code": "21230-2318",
    "country": "United States",
    "longitude": -76.63148921,
    "latitude": 39.2831169,
    "phone": "3016466359",
    "website_url": "http://www.suspendedbrewing.com",
    "state": "Maryland",
    "street": "912 Washington Blvd"
  },
  {
    "id": "84cb4e3a-34b1-4259-916a-9c5c170d4c23",
    "name": "Susquehanna Brewing Co",
    "brewery_type": "micro",
    "address_1": "635 S Main St",
    "address_2": null,
    "address_3": null,
    "city": "Pittston",
    "state_province": "Pennsylvania",
    "postal_code": "18640-3215",
    "country": "United States",
    "longitude": -75.7912216,
    "latitude": 41.321577,
    "phone": "5706543557",
    "website_url": "http://www.sbcbeer.com",
    "state": "Pennsylvania",
    "street": "635 S Main St"
  },
  {
    "id": "f7233986-f1d7-4799-8d63-0f3d6df70384",
    "name": "Sutter Buttes Brewing",
    "brewery_type": "brewpub",
    "address_1": "421 Center St",
    "address_2": null,
    "address_3": null,
    "city": "Yuba City",
    "state_province": "California",
    "postal_code": "95991-4505",
    "country": "United States",
    "longitude": -121.6149147,
    "latitude": 39.13723286,
    "phone": "5307907999",
    "website_url": "http://www.sutterbuttesbrewing.com",
    "state": "California",
    "street": "421 Center St"
  },
  {
    "id": "4780994b-3b4b-4e12-ab6b-6d1dd4018722",
    "name": "Svendale Brewing Co",
    "brewery_type": "micro",
    "address_1": null,
    "address_2": null,
    "address_3": null,
    "city": "Millerton",
    "state_province": "New York",
    "postal_code": "12546-4553",
    "country": "United States",
    "longitude": null,
    "latitude": null,
    "phone": "9177039873",
    "website_url": "http://svendale.com",
    "state": "New York",
    "street": null
  },
  {
    "id": "5094a403-c71f-45ed-8547-552734799d2a",
    "name": "Swamp Cabbage Brewing Company",
    "brewery_type": "micro",
    "address_1": "921 Brookwood Dr",
    "address_2": null,
    "address_3": null,
    "city": "Columbia",
    "state_province": "South Carolina",
    "postal_code": "29201-4609",
    "country": "United States",
    "longitude": null,
    "latitude": null,
    "phone": "8039392589",
    "website_url": "http://www.swampcabbagebrewing.com",
    "state": "South Carolina",
    "street": "921 Brookwood Dr"
  },
  {
    "id": "3f8790cd-03b9-4172-99c9-f88940c731a0",
    "name": "Swamp Head Brewery",
    "brewery_type": "micro",
    "address_1": "3650 SW 42nd Ave",
    "address_2": null,
    "address_3": null,
    "city": "Gainesville",
    "state_province": "Florida",
    "postal_code": "32608-2598",
    "country": "United States",
    "longitude": -82.3736302,
    "latitude": 29.6142515,
    "phone": "3525053035",
    "website_url": "http://www.swamphead.com",
    "state": "Florida",
    "street": "3650 SW 42nd Ave"
  },
  {
    "id": "dcc661e0-ef04-4bba-8c05-120cfed64613",
    "name": "Swamp Rabbit Brewery and Taproom",
    "brewery_type": "micro",
    "address_1": "26 S Main St",
    "address_2": null,
    "address_3": null,
    "city": "Travelers Rest",
    "state_province": "South Carolina",
    "postal_code": "29690-1810",
    "country": "United States",
    "longitude": -82.44227639,
    "latitude": 34.9666585,
    "phone": "8646102424",
    "website_url": "http://www.theswamprabbitbrewery.com",
    "state": "South Carolina",
    "street": "26 S Main St"
  },
  {
    "id": "8aa90b99-32fa-4727-b14a-324db6f758f6",
    "name": "Swan Brewing",
    "brewery_type": "micro",
    "address_1": "115 W. Pine St.",
    "address_2": null,
    "address_3": null,
    "city": "Lakeland",
    "state_province": "Florida",
    "postal_code": "33815",
    "country": "United States",
    "longitude": -81.95746167,
    "latitude": 28.04600888,
    "phone": "8637030472",
    "website_url": "http://www.swanbrewing.com",
    "state": "Florida",
    "street": "115 W. Pine St."
  },
  {
    "id": "6992bfe1-3a44-40fc-af3c-55c22ef97a87",
    "name": "Swashbuckler Brewing Co",
    "brewery_type": "micro",
    "address_1": "2775 Lebanon Rd",
    "address_2": null,
    "address_3": null,
    "city": "Manheim",
    "state_province": "Pennsylvania",
    "postal_code": "17545-8711",
    "country": "United States",
    "longitude": null,
    "latitude": null,
    "phone": "7176657021",
    "website_url": "http://www.parenfaire.com",
    "state": "Pennsylvania",
    "street": "2775 Lebanon Rd"
  },
  {
    "id": "51a67223-d853-4316-bf42-eb38eca9121f",
    "name": "Sweet Mercy Brewing Co.",
    "brewery_type": "planning",
    "address_1": null,
    "address_2": null,
    "address_3": null,
    "city": "Miami",
    "state_province": "Florida",
    "postal_code": "33143",
    "country": "United States",
    "longitude": null,
    "latitude": null,
    "phone": "3057999260",
    "website_url": "http://www.sweetmercybrewing.com",
    "state": "Florida",
    "street": null
  },
  {
    "id": "a5800400-36c4-47f2-b289-1eff24c0218f",
    "name": "Sweet Thursday Beer Co",
    "brewery_type": "planning",
    "address_1": null,
    "address_2": null,
    "address_3": null,
    "city": "Brooklyn",
    "state_province": "New York",
    "postal_code": "11215-6020",
    "country": "United States",
    "longitude": null,
    "latitude": null,
    "phone": "9176133980",
    "website_url": "http://www.sweetthursdaybeer.com",
    "state": "New York",
    "street": null
  },
  {
    "id": "f015b19a-40c0-48e9-b310-faa577b03406",
    "name": "Sweet Union Brewing",
    "brewery_type": "micro",
    "address_1": "13717 E Independence Blvd",
    "address_2": null,
    "address_3": null,
    "city": "Indian Trail",
    "state_province": "North Carolina",
    "postal_code": "28079-7600",
    "country": "United States",
    "longitude": null,
    "latitude": null,
    "phone": "7046285211",
    "website_url": "http://www.sweetunionbrewing.com",
    "state": "North Carolina",
    "street": "13717 E Independence Blvd"
  },
  {
    "id": "fe331f63-1c49-4cf2-91a7-b2403023b1e0",
    "name": "Sweeten Creek Brewing",
    "brewery_type": "brewpub",
    "address_1": "1127 Sweeten Creek Rd",
    "address_2": null,
    "address_3": null,
    "city": "Asheville",
    "state_province": "North Carolina",
    "postal_code": "28803-1728",
    "country": "United States",
    "longitude": -82.520631,
    "latitude": 35.5139103,
    "phone": "8285752785",
    "website_url": "http://www.sweetencreekbrewing.com",
    "state": "North Carolina",
    "street": "1127 Sweeten Creek Rd"
  },
  {
    "id": "618e8cbb-8c2c-4617-b973-633443bc4c21",
    "name": "SweetWater Brewing Co",
    "brewery_type": "regional",
    "address_1": "195 Ottley Dr NE",
    "address_2": null,
    "address_3": null,
    "city": "Atlanta",
    "state_province": "Georgia",
    "postal_code": "30324-3924",
    "country": "United States",
    "longitude": -84.38107219,
    "latitude": 33.80802235,
    "phone": "4046912537",
    "website_url": "http://www.sweetwaterbrew.com",
    "state": "Georgia",
    "street": "195 Ottley Dr NE"
  },
  {
    "id": "c5f110d4-81a4-4f98-85ab-244decbe49de",
    "name": "Swiftwater Brewing Company",
    "brewery_type": "brewpub",
    "address_1": "378 Mount Hope Ave",
    "address_2": null,
    "address_3": null,
    "city": "Rochester",
    "state_province": "New York",
    "postal_code": "14620-1250",
    "country": "United States",
    "longitude": -77.61227748,
    "latitude": 43.14230324,
    "phone": "5855303471",
    "website_url": "http://www.swiftwaterbrewing.com",
    "state": "New York",
    "street": "378 Mount Hope Ave"
  },
  {
    "id": "d077007b-16b4-4539-9a36-b7485b89af98",
    "name": "Swine City Brewing Company",
    "brewery_type": "micro",
    "address_1": "4614 Industry Dr",
    "address_2": null,
    "address_3": null,
    "city": "Fairfield",
    "state_province": "Ohio",
    "postal_code": "45014-1923",
    "country": "United States",
    "longitude": -84.53106178,
    "latitude": 39.34895418,
    "phone": "7045601214",
    "website_url": "http://www.swinecitybrewing.com",
    "state": "Ohio",
    "street": "4614 Industry Dr"
  }
]