[
  {
    "id": "da6cbd77-a827-4940-8c9c-bc037368f708",
    "name": "Red Silo Brewing Co",
    "brewery_type": "micro",
    "address_1": "118 W 1st St",
    "address_2": null,
    "address_3": null,
    "city": "Cookeville",
    "state_province": "Tennessee",
    "postal_code": "38501-2490",
    "country": "United States",
    "longitude": -85.50860106,
    "latitude": 36.16535501,
    "phone": "9316512333",
    "website_url": "http://www.redsilo.beer",
    "state": "Tennessee",
    "street": "118 W 1st St"
  },
  {
    "id": "17c75b0f-f416-4ab8-a55f-27eed2cffcce",
    "name": "Red Tandem Brewery",
    "brewery_type": "micro",
    "address_1": "1009 Harbor Blvd",
    "address_2": null,
    "address_3": null,
    "city": "Oxnard",
    "state_province": "California",
    "postal_code": "93035-1131",
    "country": "United States",
    "longitude": -119.2474328,
    "latitude": 34.2068743,
    "phone": "8058324023",
    "website_url": "http://www.redtandembrewery.com",
    "state": "California",
    "street": "1009 Harbor Blvd"
  },
  {
    "id": "f3fbeb9f-9f53-4d88-b137-44d3472f7af6",
    "name": "Red Truck Beer Company",
    "brewery_type": "planning",
    "address_1": null,
    "address_2": null,
    "address_3": null,
    "city": "Denver",
    "state_province": "Colorado",
    "postal_code": "80216-3612",
    "country": "United States",
    "longitude": null,
    "latitude": null,
    "phone": null,
    "website_url": null,
    "state": "Colorado",
    "street": null
  },
  {
    "id": "78f72432-7c43-4f4b-9eb9-6abadb3e7a07",
    "name": "Red Truck Beer Company Ltd.",
    "brewery_type": "micro",
    "address_1": "1020 E Lincoln Ave",
    "address_2": null,
    "address_3": null,
    "city": "Fort Collins",
    "state_province": "Colorado",
    "postal_code": "80524-2509",
    "country": "United States",
    "longitude": -105.0584895,
    "latitude": 40.58916845,
    "phone": "6046824733",
    "website_url": null,
    "state": "Colorado",
    "street": "1020 E Lincoln Ave"
  },
  {
    "id": "6ee9898b-1de5-4cd0-8c9e-066b4391ba06",
    "name": "Red Wing Brewing Company",
    "brewery_type": "brewpub",
    "address_1": "1411 Old West Main St",
    "address_2": null,
    "address_3": null,
    "city": "Red Wing",
    "state_province": "Minnesota",
    "postal_code": "55066-2162",
    "country": "United States",
    "longitude": -92.54698396,
    "latitude": 44.56271063,
    "phone": "6513272200",
    "website_url": "http://www.redwingbrewing.com",
    "state": "Minnesota",
    "street": "1411 Old West Main St"
  },
  {
    "id": "8f85238c-bf90-4c54-b8a8-1469cb5b08a9",
    "name": "Redbeard Brewing Co",
    "brewery_type": "micro",
    "address_1": "120 S Lewis St",
    "address_2": null,
    "address_3": null,
    "city": "Staunton",
    "state_province": "Virginia",
    "postal_code": "24401-4256",
    "country": "United States",
    "longitude": -79.074515,
    "latitude": 38.147407,
    "phone": "5404303532",
    "website_url": "http://redbeardbrews.com",
    "state": "Virginia",
    "street": "120 S Lewis St"
  },
  {
    "id": "243a4b48-c47d-405e-bffb-2a2a10d30b04",
    "name": "Redemption Alewerks",
    "brewery_type": "brewpub",
    "address_1": "7035 E 96th St Ste K",
    "address_2": null,
    "address_3": null,
    "city": "Indianapolis",
    "state_province": "Indiana",
    "postal_code": "46250-3303",
    "country": "United States",
    "longitude": null,
    "latitude": null,
    "phone": "3173483330",
    "website_url": "http://www.redemptionalewerks.com",
    "state": "Indiana",
    "street": "7035 E 96th St Ste K"
  },
  {
    "id": "7afa7b01-585a-45e5-9d68-843617aa592e",
    "name": "Redgarden Brewery",
    "brewery_type": "brewpub",
    "address_1": "1700 Dogwood St",
    "address_2": null,
    "address_3": null,
    "city": "Louisville",
    "state_province": "Colorado",
    "postal_code": "80027-1102",
    "country": "United States",
    "longitude": -105.1138827,
    "latitude": 39.9674475,
    "phone": "3036199601",
    "website_url": "http://www.redgardenbrewery.com",
    "state": "Colorado",
    "street": "1700 Dogwood St"
  },
  {
    "id": "cd9739f8-8782-4827-91c8-fcfefdc212fb",
    "name": "Redhook - Cataqua Public House",
    "brewery_type": "closed",
    "address_1": "35 Corporate Dr",
    "address_2": null,
    "address_3": null,
    "city": "Portsmouth",
    "state_province": "New Hampshire",
    "postal_code": "03801",
    "country": "United States",
    "longitude": -70.80233269,
    "latitude": 43.08582951,
    "phone": "6034308600",
    "website_url": "http://www.redhook.com",
    "state": "New Hampshire",
    "street": "35 Corporate Dr"
  },
  {
    "id": "8a15b08c-cf17-45ad-aff1-a07804e26e36",
    "name": "Redhook Brewery",
    "brewery_type": "regional",
    "address_1": "714 E Pike St",
    "address_2": null,
    "address_3": null,
    "city": "Seattle",
    "state_province": "Washington",
    "postal_code": "98122-4697",
    "country": "United States",
    "longitude": -122.3227119,
    "latitude": 47.6144468,
    "phone": "4254833232",
    "website_url": "http://www.redhook.com",
    "state": "Washington",
    "street": "714 E Pike St"
  },
  {
    "id": "f6774aa1-f73e-42d5-bf3b-3f2e3e81b3a6",
    "name": "Redifer Brewing Co",
    "brewery_type": "micro",
    "address_1": "123 E Yakima Ave",
    "address_2": null,
    "address_3": null,
    "city": "Yakima",
    "state_province": "Washington",
    "postal_code": "98901-2696",
    "country": "United States",
    "longitude": -120.5057229,
    "latitude": 46.60240198,
    "phone": "5094243400",
    "website_url": "http://www.rediferbrewing.com",
    "state": "Washington",
    "street": "123 E Yakima Ave"
  },
  {
    "id": "572a822f-eb09-4d2d-b701-0e179fc91713",
    "name": "Redlight Redlight Beer Parlour and Brewery",
    "brewery_type": "micro",
    "address_1": "2810 Corrine Dr",
    "address_2": null,
    "address_3": null,
    "city": "Orlando",
    "state_province": "Florida",
    "postal_code": "32803-2226",
    "country": "United States",
    "longitude": -81.34851757,
    "latitude": 28.567899,
    "phone": "4078939832",
    "website_url": "http://www.redlightredlightbeerparlour.com",
    "state": "Florida",
    "street": "2810 Corrine Dr"
  },
  {
    "id": "396f0a00-1910-4667-a65d-79ce19556af7",
    "name": "Redline Brewing Company",
    "brewery_type": "micro",
    "address_1": "5470 Lapeer Rd",
    "address_2": null,
    "address_3": null,
    "city": "Burton",
    "state_province": "Michigan",
    "postal_code": "48509-2235",
    "country": "United States",
    "longitude": -83.59795244,
    "latitude": 43.01100775,
    "phone": "8102592009",
    "website_url": "http://redlinebrewingcompany.com",
    "state": "Michigan",
    "street": "5470 Lapeer Rd"
  },
  {
    "id": "cdc826d3-05d0-42b1-85c8-3c12724c1ac0",
    "name": "Redwood Brewing Co",
    "brewery_type": "brewpub",
    "address_1": "5304 Gateway Ctr",
    "address_2": null,
    "address_3": null,
    "city": "Flint",
    "state_province": "Michigan",
    "postal_code": "48507-3930",
    "country": "United States",
    "longitude": null,
    "latitude": null,
    "phone": "8102338000",
    "website_url": "http://www.redwoodbrewingco.com",
    "state": "Michigan",
    "street": "5304 Gateway Ctr"
  },
  {
    "id": "71ea6d50-e621-4f6e-b986-dda5fb564167",
    "name": "Redwood Curtain Brewing Co",
    "brewery_type": "micro",
    "address_1": "550 S G St Ste 6",
    "address_2": null,
    "address_3": null,
    "city": "Arcata",
    "state_province": "California",
    "postal_code": "95521-6683",
    "country": "United States",
    "longitude": -124.0894667,
    "latitude": 40.85730505,
    "phone": "7078267222",
    "website_url": "http://www.redwoodcurtainbrewing.com",
    "state": "California",
    "street": "550 S G St Ste 6"
  },
  {
    "id": "10ae1611-0e26-4195-9a07-9bd852278260",
    "name": "Redwood Curtain Brewing Co",
    "brewery_type": "micro",
    "address_1": "1595 Myrtle Avenue Ste B",
    "address_2": null,
    "address_3": null,
    "city": "Eureka",
    "state_province": "California",
    "postal_code": "95501",
    "country": "United States",
    "longitude": -124.1363598,
    "latitude": 40.79546264,
    "phone": "7072697143",
    "website_url": "http://www.redwoodcurtainbrewing.com",
    "state": "California",
    "street": "1595 Myrtle Avenue Ste B"
  },
  {
    "id": "cfc4d4d4-7f70-4648-b744-9f397f782dad",
    "name": "Reed City Brewing Company",
    "brewery_type": "brewpub",
    "address_1": "141 W Upton Ave",
    "address_2": null,
    "address_3": null,
    "city": "Reed City",
    "state_province": "Michigan",
    "postal_code": "49677-1129",
    "country": "United States",
    "longitude": -85.51071976,
    "latitude": 43.875879,
    "phone": "2314654222",
    "website_url": null,
    "state": "Michigan",
    "street": "141 W Upton Ave"
  },
  {
    "id": "a8a965c8-b4d8-4699-b418-ad6cf8d9133e",
    "name": "Reel Brew Co",
    "brewery_type": "closed",
    "address_1": "7037 Laurel Canyon Boulevard",
    "address_2": null,
    "address_3": null,
    "city": "Los Angeles",
    "state_province": "California",
    "postal_code": "91605",
    "country": "United States",
    "longitude": -118.3973933,
    "latitude": 34.19896605,
    "phone": null,
    "website_url": null,
    "state": "California",
    "street": "7037 Laurel Canyon Boulevard"
  },
  {
    "id": "e5a098bc-3a39-415c-b78d-73eca850b43b",
    "name": "Reel Deel Brewery",
    "brewery_type": "micro",
    "address_1": "Unit 1 Ind Park",
    "address_2": "Knockalegan",
    "address_3": null,
    "city": "Crossmolina",
    "state_province": "Mayo",
    "postal_code": "F26 FA09",
    "country": "Ireland",
    "longitude": -9.312703,
    "latitude": 54.1008129,
    "phone": "353860779391",
    "website_url": "http://reeldeelbrewery.ie/",
    "state": "Mayo",
    "street": "Unit 1 Ind Park"
  },
  {
    "id": "e92e0af6-5653-4bbc-ab68-1f25ec0c3155",
    "name": "Refined Ale Brewery",
    "brewery_type": "micro",
    "address_1": "2221 S Cedar St",
    "address_2": null,
    "address_3": null,
    "city": "Little Rock",
    "state_province": "Arkansas",
    "postal_code": "72204-5452",
    "country": "United States",
    "longitude": -92.3184697,
    "latitude": 34.73083447,
    "phone": "5012800556",
    "website_url": "http://www.refinedale.com",
    "state": "Arkansas",
    "street": "2221 S Cedar St"
  },
  {
    "id": "fa38e7a1-3cbe-4dd4-a3c0-5830257c1427",
    "name": "Reformation Brewery",
    "brewery_type": "micro",
    "address_1": "500 Arnold Mill Way Ste A",
    "address_2": null,
    "address_3": null,
    "city": "Woodstock",
    "state_province": "Georgia",
    "postal_code": "30188-6842",
    "country": "United States",
    "longitude": null,
    "latitude": null,
    "phone": "6783410828",
    "website_url": "http://www.reformationbrewery.com",
    "state": "Georgia",
    "street": "500 Arnold Mill Way Ste A"
  },
  {
    "id": "56378cd6-a68b-4a17-8ed9-fdea030f9a1f",
    "name": "Refuge Brewery, Inc.",
    "brewery_type": "micro",
    "address_1": "43040 Rancho Way Ste 200",
    "address_2": null,
    "address_3": null,
    "city": "Temecula",
    "state_province": "California",
    "postal_code": "92590-5400",
    "country": "United States",
    "longitude": -117.1587817,
    "latitude": 33.50442958,
    "phone": "9515060609",
    "website_url": "http://www.refugebrew.com",
    "state": "California",
    "street": "43040 Rancho Way Ste 200"
  },
  {
    "id": "1a7a4909-e241-43d6-bba6-8631d36a9c78",
    "name": "Reinvention Brewing Co.",
    "brewery_type": "micro",
    "address_1": "9 N Main St PO Box 57",
    "address_2": null,
    "address_3": null,
    "city": "Manchester",
    "state_province": "New York",
    "postal_code": "14504-9713",
    "country": "United States",
    "longitude": null,
    "latitude": null,
    "phone": "5852897309",
    "website_url": "http://www.reinventionbrewing.com",
    "state": "New York",
    "street": "9 N Main St PO Box 57"
  },
  {
    "id": "4a65c3de-531c-4190-a9d8-d61612593d13",
    "name": "Rek-Lis Brewing Company",
    "brewery_type": "micro",
    "address_1": "2085 Main Street",
    "address_2": null,
    "address_3": null,
    "city": "Bethlehem",
    "state_province": "New Hampshire",
    "postal_code": "03574",
    "country": "United States",
    "longitude": -71.687376,
    "latitude": 44.28042825,
    "phone": "6033701932",
    "website_url": "http://tbd",
    "state": "New Hampshire",
    "street": "2085 Main Street"
  },
  {
    "id": "72a60ed2-ef24-4327-9d59-b1b50973be35",
    "name": "Relentless Brewing Co",
    "brewery_type": "micro",
    "address_1": "42030 Avenida Alvarado Ste F",
    "address_2": null,
    "address_3": null,
    "city": "Temecula",
    "state_province": "California",
    "postal_code": "92590-3404",
    "country": "United States",
    "longitude": -117.1680654,
    "latitude": 33.51260913,
    "phone": "9512969400",
    "website_url": "http://www.relentlessbrewing.com",
    "state": "California",
    "street": "42030 Avenida Alvarado Ste F"
  },
  {
    "id": "c6e4a5e5-5b10-40ed-9621-11bf1e73fd1a",
    "name": "Relic Brewing",
    "brewery_type": "micro",
    "address_1": "95 Whiting St Unit B",
    "address_2": null,
    "address_3": null,
    "city": "Plainville",
    "state_province": "Connecticut",
    "postal_code": "06062-2842",
    "country": "United States",
    "longitude": null,
    "latitude": null,
    "phone": null,
    "website_url": null,
    "state": "Connecticut",
    "street": "95 Whiting St Unit B"
  },
  {
    "id": "317c75e5-7628-4d17-b683-d734c225349c",
    "name": "Remedy Brewing Company",
    "brewery_type": "micro",
    "address_1": "401 E 8th St #120",
    "address_2": null,
    "address_3": null,
    "city": "Sioux Falls",
    "state_province": "South Dakota",
    "postal_code": "57103-7012",
    "country": "United States",
    "longitude": -96.72223225,
    "latitude": 43.54791493,
    "phone": "6052716193",
    "website_url": "http://www.remedybrewco.com",
    "state": "South Dakota",
    "street": "401 E 8th St #120"
  },
  {
    "id": "8fe6ed9e-872b-46dd-a33d-1a2661bb1fbf",
    "name": "Remnant Brewing",
    "brewery_type": "micro",
    "address_1": "2 Bow Market Way",
    "address_2": null,
    "address_3": null,
    "city": "Somerville",
    "state_province": "Massachusetts",
    "postal_code": "02143",
    "country": "United States",
    "longitude": null,
    "latitude": null,
    "phone": null,
    "website_url": "http://www.remnantsomerville.com",
    "state": "Massachusetts",
    "street": "2 Bow Market Way"
  },
  {
    "id": "20e23a04-49d8-4e74-afd6-f6f03e10489a",
    "name": "Renaissance Brewing Co",
    "brewery_type": "micro",
    "address_1": "1147 S Lewis Ave",
    "address_2": null,
    "address_3": null,
    "city": "Tulsa",
    "state_province": "Oklahoma",
    "postal_code": "74104-3905",
    "country": "United States",
    "longitude": -95.9578601,
    "latitude": 36.0617778,
    "phone": "9184090551",
    "website_url": "http://www.renaissancebeer.com",
    "state": "Oklahoma",
    "street": "1147 S Lewis Ave"
  },
  {
    "id": "72bfaaf5-2542-45ea-912a-b0b2ed340f06",
    "name": "Rendezvous Junction Brewing Company",
    "brewery_type": "micro",
    "address_1": "2001 S Bellview Rd Ste 2",
    "address_2": null,
    "address_3": null,
    "city": "Rogers",
    "state_province": "Arkansas",
    "postal_code": "72758-4050",
    "country": "United States",
    "longitude": null,
    "latitude": null,
    "phone": "4793817501",
    "website_url": "http://www.rendezvousjunction.com",
    "state": "Arkansas",
    "street": "2001 S Bellview Rd Ste 2"
  },
  {
    "id": "c7fb56c0-daf1-42d7-a6dd-5b75953838c9",
    "name": "Renegade Brewing Company",
    "brewery_type": "micro",
    "address_1": "918 W 1st Ave",
    "address_2": null,
    "address_3": null,
    "city": "Denver",
    "state_province": "Colorado",
    "postal_code": "80223-1534",
    "country": "United States",
    "longitude": -104.9992637,
    "latitude": 39.71831392,
    "phone": "3035345407",
    "website_url": "http://renegadebrewing.com",
    "state": "Colorado",
    "street": "918 W 1st Ave"
  },
  {
    "id": "3881ce7f-1556-4ef0-aef7-ed55283678d8",
    "name": "Renegade Brewing Company - Production",
    "brewery_type": "micro",
    "address_1": "918 W 1st Ave",
    "address_2": null,
    "address_3": null,
    "city": "Denver",
    "state_province": "Colorado",
    "postal_code": "80223-1534",
    "country": "United States",
    "longitude": -104.9992637,
    "latitude": 39.71831392,
    "phone": "7204014089",
    "website_url": "http://www.renegadebrewing.com",
    "state": "Colorado",
    "street": "918 W 1st Ave"
  },
  {
    "id": "66f14e6f-3988-4600-876f-c3ee155541ea",
    "name": "Reno Brewery",
    "brewery_type": "planning",
    "address_1": null,
    "address_2": null,
    "address_3": null,
    "city": "Reno",
    "state_province": "Nevada",
    "postal_code": "89502-1807",
    "country": "United States",
    "longitude": null,
    "latitude": null,
    "phone": "7756360014",
    "website_url": "http://www.renobrewery.com",
    "state": "Nevada",
    "street": null
  },
  {
    "id": "659f76a6-3c54-489f-92ec-39b31760822c",
    "name": "Rentsch Brewery",
    "brewery_type": "micro",
    "address_1": "2500 NE Inner Loop Unit 3105",
    "address_2": null,
    "address_3": null,
    "city": "Georgetown",
    "state_province": "Texas",
    "postal_code": "78626-4444",
    "country": "United States",
    "longitude": null,
    "latitude": null,
    "phone": "5126885046",
    "website_url": "http://www.rentschbrewery.com",
    "state": "Texas",
    "street": "2500 NE Inner Loop Unit 3105"
  },
  {
    "id": "516b9dac-9a0b-4c40-ad2d-2feb2170c938",
    "name": "Republic Brewing Co",
    "brewery_type": "brewpub",
    "address_1": "26 Clark Avenue",
    "address_2": null,
    "address_3": null,
    "city": "Republic",
    "state_province": "Washington",
    "postal_code": "99166-0096",
    "country": "United States",
    "longitude": -118.73765981539,
    "latitude": 48.648184914814,
    "phone": "5097752700",
    "website_url": "https://www.republicbrew.com",
    "state": "Washington",
    "street": "26 Clark Avenue"
  },
  {
    "id": "70d250b8-6079-4a34-b873-c51123071bc4",
    "name": "Republic Brewing Company",
    "brewery_type": "brewpub",
    "address_1": "72 Old Granite St",
    "address_2": null,
    "address_3": null,
    "city": "Manchester",
    "state_province": "New Hampshire",
    "postal_code": "03101",
    "country": "United States",
    "longitude": null,
    "latitude": null,
    "phone": "6038363188",
    "website_url": "https://republicbrewingcompany.com/",
    "state": "New Hampshire",
    "street": "72 Old Granite St"
  },
  {
    "id": "065986cc-cd6a-4f1b-82bf-5784118af18f",
    "name": "Rescue Brewing Co",
    "brewery_type": "micro",
    "address_1": "167 N 2nd Ave",
    "address_2": null,
    "address_3": null,
    "city": "Upland",
    "state_province": "California",
    "postal_code": "91786-6019",
    "country": "United States",
    "longitude": -117.6485203,
    "latitude": 34.09582106,
    "phone": "9095362739",
    "website_url": "http://www.rescuebrewingco.com",
    "state": "California",
    "street": "167 N 2nd Ave"
  },
  {
    "id": "d02410fa-2ca6-461d-8879-6c11270a1390",
    "name": "Resident Brewing",
    "brewery_type": "micro",
    "address_1": "411 C St",
    "address_2": null,
    "address_3": null,
    "city": "San Diego",
    "state_province": "California",
    "postal_code": "92101-5105",
    "country": "United States",
    "longitude": -117.1608785,
    "latitude": 32.71667995,
    "phone": "6197176622",
    "website_url": "http://www.residentbrewing.com",
    "state": "California",
    "street": "411 C St"
  },
  {
    "id": "c9815e98-046a-4e4e-bbd2-80d265b62747",
    "name": "Resident Culture Brewing Company LLC",
    "brewery_type": "micro",
    "address_1": "2101 Central Ave",
    "address_2": null,
    "address_3": null,
    "city": "Charlotte",
    "state_province": "North Carolina",
    "postal_code": "28205-5203",
    "country": "United States",
    "longitude": -80.80542365,
    "latitude": 35.21995586,
    "phone": "7043331862",
    "website_url": "http://www.residentculturebrewing.com",
    "state": "North Carolina",
    "street": "2101 Central Ave"
  },
  {
    "id": "581f4005-1088-4fdf-b2f2-dd71151c88f6",
    "name": "Resignation Brewery",
    "brewery_type": "contract",
    "address_1": "98 San Jacinto Blvd Ste 160",
    "address_2": null,
    "address_3": null,
    "city": "Austin",
    "state_province": "Texas",
    "postal_code": "78701-4640",
    "country": "United States",
    "longitude": -97.742323,
    "latitude": 30.262322,
    "phone": "4254833232",
    "website_url": "http://www.kccobrewery.com",
    "state": "Texas",
    "street": "98 San Jacinto Blvd Ste 160"
  },
  {
    "id": "562b5a37-32a6-4acd-9f2e-ad781e310618",
    "name": "Resolute Brewing Company",
    "brewery_type": "micro",
    "address_1": "7286 S Yosemite St Ste 110",
    "address_2": null,
    "address_3": null,
    "city": "Centennial",
    "state_province": "Colorado",
    "postal_code": "80112-2204",
    "country": "United States",
    "longitude": null,
    "latitude": null,
    "phone": "7207221238",
    "website_url": "http://www.resolutebrewingco.com",
    "state": "Colorado",
    "street": "7286 S Yosemite St Ste 110"
  },
  {
    "id": "002ffa9d-8549-4fe5-a883-8f6fe197d55e",
    "name": "Resolution Brewing Company",
    "brewery_type": "brewpub",
    "address_1": "3024 Mountain View Dr Ste 105",
    "address_2": null,
    "address_3": null,
    "city": "Anchorage",
    "state_province": "Alaska",
    "postal_code": "99501-3141",
    "country": "United States",
    "longitude": -149.823091,
    "latitude": 61.21997889,
    "phone": "9073304523",
    "website_url": "http://www.resolutionbeer.com",
    "state": "Alaska",
    "street": "3024 Mountain View Dr Ste 105"
  },
  {
    "id": "551c4a45-2563-4d1d-b6dc-651218ebd690",
    "name": "Resonate Brewery + Pizzeria",
    "brewery_type": "brewpub",
    "address_1": "5606 119th Ave SE",
    "address_2": null,
    "address_3": null,
    "city": "Bellevue",
    "state_province": "Washington",
    "postal_code": "98006-3754",
    "country": "United States",
    "longitude": -122.1774828,
    "latitude": 47.5523206,
    "phone": "4256443164",
    "website_url": "http://www.resonatebrewery.com",
    "state": "Washington",
    "street": "5606 119th Ave SE"
  },
  {
    "id": "94f81f73-7ee4-413d-a2a9-4f8de7ad18b9",
    "name": "Restless Moons Brewing",
    "brewery_type": "micro",
    "address_1": "120 W Wolfe St",
    "address_2": null,
    "address_3": null,
    "city": "Harrisonburg",
    "state_province": "Virginia",
    "postal_code": "22802-3815",
    "country": "United States",
    "longitude": -78.87084726,
    "latitude": 38.45189522,
    "phone": "5402172726",
    "website_url": "http://www.restlessmoons.com",
    "state": "Virginia",
    "street": "120 W Wolfe St"
  },
  {
    "id": "bbdbbaa0-4f65-4c35-80b2-8d6be878806f",
    "name": "Restoration Brew Worx",
    "brewery_type": "brewpub",
    "address_1": "25 N Sandusky St",
    "address_2": null,
    "address_3": null,
    "city": "Delaware",
    "state_province": "Ohio",
    "postal_code": "43015-1901",
    "country": "United States",
    "longitude": -83.0677272,
    "latitude": 40.30056202,
    "phone": null,
    "website_url": "http://www.restorationbrewworx.com",
    "state": "Ohio",
    "street": "25 N Sandusky St"
  },
  {
    "id": "8446b88b-3980-4633-8e9f-7696a1c6ac49",
    "name": "Resurgence Brewing Company",
    "brewery_type": "brewpub",
    "address_1": "1250 Niagara St",
    "address_2": null,
    "address_3": null,
    "city": "Buffalo",
    "state_province": "New York",
    "postal_code": "14213-1502",
    "country": "United States",
    "longitude": -78.89959956,
    "latitude": 42.91822725,
    "phone": "7163819868",
    "website_url": "http://www.resurgencebrewing.com",
    "state": "New York",
    "street": "1250 Niagara St"
  },
  {
    "id": "781c0940-c556-433d-8ca2-202fc631629d",
    "name": "Reuben's Brews",
    "brewery_type": "micro",
    "address_1": "1133 NW 51st St",
    "address_2": null,
    "address_3": null,
    "city": "Seattle",
    "state_province": "Washington",
    "postal_code": "98107-5126",
    "country": "United States",
    "longitude": -122.3721641,
    "latitude": 47.6655088,
    "phone": "2067842859",
    "website_url": "http://www.reubensbrews.com",
    "state": "Washington",
    "street": "1133 NW 51st St"
  },
  {
    "id": "262002b9-b5bd-4de4-92b2-266a1f21fbdf",
    "name": "Reuben's Brews Taproom",
    "brewery_type": "micro",
    "address_1": "5010 14th Ave NW",
    "address_2": null,
    "address_3": null,
    "city": "Seattle",
    "state_province": "Washington",
    "postal_code": "98107-5113",
    "country": "United States",
    "longitude": -122.3732468,
    "latitude": 47.6654087,
    "phone": "2067842859",
    "website_url": "http://www.reubensbrews.com",
    "state": "Washington",
    "street": "5010 14th Ave NW"
  },
  {
    "id": "9cfaca46-16e6-4531-abf8-d5120f2666e5",
    "name": "ReUnion Brewery",
    "brewery_type": "brewpub",
    "address_1": "516 2nd St",
    "address_2": null,
    "address_3": null,
    "city": "Coralville",
    "state_province": "Iowa",
    "postal_code": "52241-2614",
    "country": "United States",
    "longitude": -91.57498607,
    "latitude": 41.67171431,
    "phone": "3193373000",
    "website_url": "http://www.reunionbrewery.com",
    "state": "Iowa",
    "street": "516 2nd St"
  },
  {
    "id": "bc178419-2cae-4a48-8315-21bdc97954d3",
    "name": "Revel Urban Winery / Revel OTR",
    "brewery_type": "brewpub",
    "address_1": "111 E 12th St",
    "address_2": null,
    "address_3": null,
    "city": "Cincinnati",
    "state_province": "Ohio",
    "postal_code": "45202",
    "country": "United States",
    "longitude": -84.5126641,
    "latitude": 39.1085275,
    "phone": "5135799463",
    "website_url": "http://www.revelotr.com",
    "state": "Ohio",
    "street": "111 E 12th St"
  }
]