[
  {
    "id": "b7d4cb54-84c9-417d-a512-d15825e4b10e",
    "name": "Sockeye Brewing Co",
    "brewery_type": "micro",
    "address_1": "12542 W Fairview Ave",
    "address_2": null,
    "address_3": null,
    "city": "Boise",
    "state_province": "Idaho",
    "postal_code": "83716-0026",
    "country": "United States",
    "longitude": -116.252364,
    "latitude": 43.619049,
    "phone": "2083225200",
    "website_url": "http://www.sockyebrew.com",
    "state": "Idaho",
    "street": "12542 W Fairview Ave"
  },
  {
    "id": "84a0e21f-7d91-42ba-9c07-81e504778f60",
    "name": "Soggy Bottom Brewing Co.",
    "brewery_type": "micro",
    "address_1": "660 Main St",
    "address_2": null,
    "address_3": null,
    "city": "Dunedin",
    "state_province": "Florida",
    "postal_code": "34698",
    "country": "United States",
    "longitude": -82.78271981,
    "latitude": 28.0152064,
    "phone": "7276011698",
    "website_url": "http://www.soggybottombrewery.com",
    "state": "Florida",
    "street": "660 Main St"
  },
  {
    "id": "6a0be8ef-dd30-47c4-8649-17245e0a1e5f",
    "name": "Solace Brewing Company",
    "brewery_type": "micro",
    "address_1": "42615 Trade West Dr Ste 100",
    "address_2": null,
    "address_3": null,
    "city": "Dulles",
    "state_province": "Virginia",
    "postal_code": "20166-2259",
    "country": "United States",
    "longitude": null,
    "latitude": null,
    "phone": "7033455630",
    "website_url": "http://www.solacebrewing.com",
    "state": "Virginia",
    "street": "42615 Trade West Dr Ste 100"
  },
  {
    "id": "a760e66e-82a3-4f7d-8145-bc3f79c995e2",
    "name": "Solarc Brewing",
    "brewery_type": "contract",
    "address_1": "134 S Avenue 57",
    "address_2": null,
    "address_3": null,
    "city": "Los Angeles",
    "state_province": "California",
    "postal_code": "90042-4702",
    "country": "United States",
    "longitude": null,
    "latitude": null,
    "phone": "6319442990",
    "website_url": "http://www.solarcbrewing.com",
    "state": "California",
    "street": "134 S Avenue 57"
  },
  {
    "id": "512abf35-00ec-4414-943d-a2a79c5f73dc",
    "name": "Sole Track Brewing",
    "brewery_type": "brewpub",
    "address_1": "27 Main St",
    "address_2": null,
    "address_3": null,
    "city": "Rumney",
    "state_province": "New Hampshire",
    "postal_code": "03266",
    "country": "United States",
    "longitude": null,
    "latitude": null,
    "phone": "6037866077",
    "website_url": "https://www.soletrackbrewing.com/",
    "state": "New Hampshire",
    "street": "27 Main St"
  },
  {
    "id": "daca87d4-1d07-4fba-a2f1-aaa28d7aec1e",
    "name": "Solemn Oath Brewery",
    "brewery_type": "micro",
    "address_1": "1661 Quincy Ave Ste 179",
    "address_2": null,
    "address_3": null,
    "city": "Naperville",
    "state_province": "Illinois",
    "postal_code": "60540-3969",
    "country": "United States",
    "longitude": null,
    "latitude": null,
    "phone": "6309953062",
    "website_url": "http://www.solemnoathbrewery.com",
    "state": "Illinois",
    "street": "1661 Quincy Ave Ste 179"
  },
  {
    "id": "816368fa-9f37-4e7d-962d-4fb3107b0a3a",
    "name": "Solera Brewery",
    "brewery_type": "micro",
    "address_1": "4945 Baseline Dr",
    "address_2": null,
    "address_3": null,
    "city": "Mount Hood Parkdale",
    "state_province": "Oregon",
    "postal_code": "-97041",
    "country": "United States",
    "longitude": -121.5951287,
    "latitude": 45.51966439,
    "phone": "5413525500",
    "website_url": "http://www.solerabrewery.com",
    "state": "Oregon",
    "street": "4945 Baseline Dr"
  },
  {
    "id": "8587e1dd-1acc-41ac-bf4b-c4550511e1f6",
    "name": "Solid Ground Brewing",
    "brewery_type": "brewpub",
    "address_1": "552 Pleasant Valley Road",
    "address_2": null,
    "address_3": null,
    "city": "Diamond Springs",
    "state_province": "California",
    "postal_code": "95619",
    "country": "United States",
    "longitude": -120.8219606,
    "latitude": 38.6932793,
    "phone": "5303447442",
    "website_url": "http://www.solidgroundbrewing.com",
    "state": "California",
    "street": "552 Pleasant Valley Road"
  },
  {
    "id": "deeb2585-3c04-49a8-bf79-9159ea0c7d31",
    "name": "Solid Rock Brewing",
    "brewery_type": "micro",
    "address_1": "2214 Bee Creek Rd",
    "address_2": null,
    "address_3": null,
    "city": "Spicewood",
    "state_province": "Texas",
    "postal_code": "78669-5136",
    "country": "United States",
    "longitude": null,
    "latitude": null,
    "phone": "5124878786",
    "website_url": "http://www.solidrockbrewing.com",
    "state": "Texas",
    "street": "2214 Bee Creek Rd"
  },
  {
    "id": "09b8f1ce-13c9-4542-8eda-4967a8c83371",
    "name": "Solorio Brewing Co",
    "brewery_type": "micro",
    "address_1": "9395 Feron Blvd Ste K",
    "address_2": null,
    "address_3": null,
    "city": "Rancho Cucamonga",
    "state_province": "California",
    "postal_code": "91730-4565",
    "country": "United States",
    "longitude": -117.6003239,
    "latitude": 34.09295495,
    "phone": "9097555400",
    "website_url": "http://www.soloriobrewing.com",
    "state": "California",
    "street": "9395 Feron Blvd Ste K"
  },
  {
    "id": "45835e94-e69b-4511-b811-b8680cf44005",
    "name": "Solvang Brewing Co",
    "brewery_type": "brewpub",
    "address_1": "1547 Mission Dr",
    "address_2": null,
    "address_3": null,
    "city": "Solvang",
    "state_province": "California",
    "postal_code": "93463-2607",
    "country": "United States",
    "longitude": -120.1448663,
    "latitude": 34.59615466,
    "phone": "8056882337",
    "website_url": "http://www.solvangbrewingcompany.com",
    "state": "California",
    "street": "1547 Mission Dr"
  },
  {
    "id": "7c3654cd-94e2-43d1-a4a3-0109d64f96a7",
    "name": "Solvang Brewing Company - Lompoc",
    "brewery_type": "brewpub",
    "address_1": "234 N H St",
    "address_2": null,
    "address_3": null,
    "city": "Lompoc",
    "state_province": "California",
    "postal_code": "93436-6022",
    "country": "United States",
    "longitude": -120.4574527,
    "latitude": 34.6419814,
    "phone": "9787292485",
    "website_url": "http://www.solvangbrewing.com",
    "state": "California",
    "street": "234 N H St"
  },
  {
    "id": "7baaf926-7eaf-4803-98b4-f7597e969a08",
    "name": "Soma Brewing LLC",
    "brewery_type": "planning",
    "address_1": null,
    "address_2": null,
    "address_3": null,
    "city": "South Orange",
    "state_province": "New Jersey",
    "postal_code": "07079-1455",
    "country": "United States",
    "longitude": null,
    "latitude": null,
    "phone": "9737151450",
    "website_url": null,
    "state": "New Jersey",
    "street": null
  },
  {
    "id": "472b6fa3-7855-4a02-a21e-b75b9ed12eea",
    "name": "SoMe Brewing Co",
    "brewery_type": "micro",
    "address_1": "1 York St Ste 3",
    "address_2": null,
    "address_3": null,
    "city": "York",
    "state_province": "Maine",
    "postal_code": "03909-1392",
    "country": "United States",
    "longitude": null,
    "latitude": null,
    "phone": "2073518162",
    "website_url": "http://somebrewingco.com",
    "state": "Maine",
    "street": "1 York St Ste 3"
  },
  {
    "id": "9a23baf2-a0b8-43cd-a9ff-aa496d1123e9",
    "name": "Some Nerve Brewing Company",
    "brewery_type": "micro",
    "address_1": "5586 US Highway 51",
    "address_2": null,
    "address_3": null,
    "city": "Manitowish Waters",
    "state_province": "Wisconsin",
    "postal_code": "54545-6325",
    "country": "United States",
    "longitude": null,
    "latitude": null,
    "phone": "6085766040",
    "website_url": "http://www.somenervebrewing.com",
    "state": "Wisconsin",
    "street": "5586 US Highway 51"
  },
  {
    "id": "ae889c78-5e3d-4ca9-ac90-ee8018e8419d",
    "name": "SomePlace Else Brewery",
    "brewery_type": "micro",
    "address_1": "6425 W 52nd Ave Unit 6/6B",
    "address_2": null,
    "address_3": null,
    "city": "Arvada",
    "state_province": "Colorado",
    "postal_code": "80002-4008",
    "country": "United States",
    "longitude": null,
    "latitude": null,
    "phone": "7205124162",
    "website_url": null,
    "state": "Colorado",
    "street": "6425 W 52nd Ave Unit 6/6B"
  },
  {
    "id": "2df1aca7-cceb-4928-b5f5-5e2307d6cd38",
    "name": "Somers Point Brewing Company",
    "brewery_type": "planning",
    "address_1": null,
    "address_2": null,
    "address_3": null,
    "city": "Somers Point",
    "state_province": "New Jersey",
    "postal_code": "08244-1822",
    "country": "United States",
    "longitude": null,
    "latitude": null,
    "phone": null,
    "website_url": null,
    "state": "New Jersey",
    "street": null
  },
  {
    "id": "d4b6dce4-8521-402d-a39b-0eef19bfcb7f",
    "name": "Somerville Brewing Company",
    "brewery_type": "micro",
    "address_1": "15 Ward St",
    "address_2": null,
    "address_3": null,
    "city": "Somerville",
    "state_province": "Massachusetts",
    "postal_code": "02143-4228",
    "country": "United States",
    "longitude": -71.0890345,
    "latitude": 42.3749103,
    "phone": "8004281150",
    "website_url": "http://www.slumbrew.com",
    "state": "Massachusetts",
    "street": "15 Ward St"
  },
  {
    "id": "48540aba-e08a-4f3e-93ca-b838dfc41480",
    "name": "Something Brewery",
    "brewery_type": "micro",
    "address_1": "117 N Main St Unit A",
    "address_2": null,
    "address_3": null,
    "city": "Brighton",
    "state_province": "Colorado",
    "postal_code": "80601-1778",
    "country": "United States",
    "longitude": null,
    "latitude": null,
    "phone": "7206601343",
    "website_url": "http://www.somethingbrewery.com",
    "state": "Colorado",
    "street": "117 N Main St Unit A"
  },
  {
    "id": "696cdcee-6898-4e99-b290-5f6e493c0031",
    "name": "Something Wicked Brewing Company",
    "brewery_type": "brewpub",
    "address_1": "34 Broadway Ste 200",
    "address_2": null,
    "address_3": null,
    "city": "Hanover",
    "state_province": "Pennsylvania",
    "postal_code": "17331-3104",
    "country": "United States",
    "longitude": -76.98291017,
    "latitude": 39.80048752,
    "phone": "7173165488",
    "website_url": "http://www.somethingwickedbrewing.com",
    "state": "Pennsylvania",
    "street": "34 Broadway Ste 200"
  },
  {
    "id": "1d5af320-379d-4812-b7c9-a2cfe9e3b22d",
    "name": "Sonder Brewing",
    "brewery_type": "planning",
    "address_1": null,
    "address_2": null,
    "address_3": null,
    "city": "Maineville",
    "state_province": "Ohio",
    "postal_code": "45039-8103",
    "country": "United States",
    "longitude": null,
    "latitude": null,
    "phone": "6303473323",
    "website_url": "http://www.sonderbrewery.com",
    "state": "Ohio",
    "street": null
  },
  {
    "id": "6925abe5-88ef-4e5a-974f-e22c32039d3c",
    "name": "Sonoma Grille",
    "brewery_type": "brewpub",
    "address_1": "165 W Napa St",
    "address_2": null,
    "address_3": null,
    "city": "Sonoma",
    "state_province": "California",
    "postal_code": "95476-6626",
    "country": "United States",
    "longitude": -122.4599821,
    "latitude": 38.29204322,
    "phone": "7079387542",
    "website_url": "http://www.sonomagrilleandbar.com",
    "state": "California",
    "street": "165 W Napa St"
  },
  {
    "id": "25abf0bf-0e86-4d42-85fd-d238cec244a6",
    "name": "Sonoma Springs Brewing Co",
    "brewery_type": "micro",
    "address_1": "19449 Riverside Dr Ste 101",
    "address_2": null,
    "address_3": null,
    "city": "Sonoma",
    "state_province": "California",
    "postal_code": "95476-6357",
    "country": "United States",
    "longitude": -122.477788,
    "latitude": 38.294506,
    "phone": "7079387422",
    "website_url": "http://www.sonomaspringsbrewing.com",
    "state": "California",
    "street": "19449 Riverside Dr Ste 101"
  },
  {
    "id": "4032ebf7-ed73-4dd4-b57c-a898a13ffbca",
    "name": "Sonoran Brewing",
    "brewery_type": "contract",
    "address_1": "3002 E Washington St",
    "address_2": null,
    "address_3": null,
    "city": "Phoenix",
    "state_province": "Arizona",
    "postal_code": "85034-1518",
    "country": "United States",
    "longitude": -111.9805737,
    "latitude": 33.4475332,
    "phone": "6025108996",
    "website_url": "http://www.sonoranbrewing.com",
    "state": "Arizona",
    "street": "3002 E Washington St"
  },
  {
    "id": "b568fe15-2cf7-4183-8826-18ad6b386fdf",
    "name": "Sons of Liberty Aleworks",
    "brewery_type": "micro",
    "address_1": "1780 Town and Country Dr Ste 101",
    "address_2": null,
    "address_3": null,
    "city": "Norco",
    "state_province": "California",
    "postal_code": "92860-3618",
    "country": "United States",
    "longitude": -117.5597542,
    "latitude": 33.9277892,
    "phone": "9514035122",
    "website_url": "http://www.solaleworks.com",
    "state": "California",
    "street": "1780 Town and Country Dr Ste 101"
  },
  {
    "id": "f4f2d543-ddd8-4b3d-9781-d0061c7f30fb",
    "name": "Sons of Liberty Beer & Spirits Co.",
    "brewery_type": "micro",
    "address_1": "1425 Kingstown Rd",
    "address_2": null,
    "address_3": null,
    "city": "Wakefield",
    "state_province": "Rhode Island",
    "postal_code": "02879-8313",
    "country": "United States",
    "longitude": -71.50525999,
    "latitude": 41.4545347,
    "phone": "4012844006",
    "website_url": "http://www.solspirits.com",
    "state": "Rhode Island",
    "street": "1425 Kingstown Rd"
  },
  {
    "id": "25a9e66c-1c32-48fd-91d6-33cd1e134a72",
    "name": "Sons Of Toil Brewing LLC",
    "brewery_type": "micro",
    "address_1": "14090 Klein Rd",
    "address_2": null,
    "address_3": null,
    "city": "Mount Orab",
    "state_province": "Ohio",
    "postal_code": "45154-8312",
    "country": "United States",
    "longitude": null,
    "latitude": null,
    "phone": "5132509082",
    "website_url": "http://www.sonsoftoilllc.com/",
    "state": "Ohio",
    "street": "14090 Klein Rd"
  },
  {
    "id": "14fdc2e7-b2a0-482f-9bea-f7894b659797",
    "name": "Soo Brewing Company",
    "brewery_type": "micro",
    "address_1": "223 W Portage Ave",
    "address_2": null,
    "address_3": null,
    "city": "Sault Sainte Marie",
    "state_province": "Michigan",
    "postal_code": "49783-1921",
    "country": "United States",
    "longitude": -84.3482782,
    "latitude": 46.50089794,
    "phone": "9066324400",
    "website_url": "http://www.soobrew.com",
    "state": "Michigan",
    "street": "223 W Portage Ave"
  },
  {
    "id": "a0af6b24-2eb6-4ce8-b42d-87e7cad700cd",
    "name": "Sophisticated Hound Brewing Company",
    "brewery_type": "micro",
    "address_1": null,
    "address_2": null,
    "address_3": null,
    "city": "Princeton",
    "state_province": "West Virginia",
    "postal_code": "24739",
    "country": "United States",
    "longitude": -81.094116,
    "latitude": 37.369408,
    "phone": "3043206674",
    "website_url": "https://www.facebook.com/sophisticatedhoundbrewing",
    "state": "West Virginia",
    "street": null
  },
  {
    "id": "929392c7-2382-4da1-8fcf-b76bbdd99684",
    "name": "Soquel Fermentation Project",
    "brewery_type": "micro",
    "address_1": null,
    "address_2": null,
    "address_3": null,
    "city": "Los Gatos",
    "state_province": "California",
    "postal_code": "95033",
    "country": "United States",
    "longitude": -121.9746797,
    "latitude": 37.226611,
    "phone": null,
    "website_url": "http://facebook.com/Soquel-Fermentation-Project-1661153424004618/",
    "state": "California",
    "street": null
  },
  {
    "id": "975069f8-dc38-4da1-aa78-b58baf0f930c",
    "name": "Soul and Spirits Brewery",
    "brewery_type": "micro",
    "address_1": "845 N Main St",
    "address_2": null,
    "address_3": null,
    "city": "Memphis",
    "state_province": "Tennessee",
    "postal_code": "38107-2311",
    "country": "United States",
    "longitude": -90.04509728,
    "latitude": 35.16565513,
    "phone": null,
    "website_url": "https://soulandspiritsbrew.com",
    "state": "Tennessee",
    "street": "845 N Main St"
  },
  {
    "id": "dff336da-9bbd-4e06-8ab9-405775650ed5",
    "name": "Soul Squared Brewing Co.",
    "brewery_type": "micro",
    "address_1": "6412 N County Road 15",
    "address_2": null,
    "address_3": null,
    "city": "Fort Collins",
    "state_province": "Colorado",
    "postal_code": "80524",
    "country": "United States",
    "longitude": null,
    "latitude": null,
    "phone": null,
    "website_url": "http://www.soulsquaredbrewing.com",
    "state": "Colorado",
    "street": "6412 N County Road 15"
  },
  {
    "id": "5b9cb6f1-bd63-4ccd-85b2-d5436e2a3b0a",
    "name": "Soulcraft Brewing",
    "brewery_type": "micro",
    "address_1": "248 W US Highway 50",
    "address_2": null,
    "address_3": null,
    "city": "Salida",
    "state_province": "Colorado",
    "postal_code": "81201-2347",
    "country": "United States",
    "longitude": null,
    "latitude": null,
    "phone": "7195395428",
    "website_url": "http://www.soulcraftbeer.com",
    "state": "Colorado",
    "street": "248 W US Highway 50"
  },
  {
    "id": "558a2818-59dc-4eb0-91c0-5525cc4d81f3",
    "name": "Sound Brewery",
    "brewery_type": "micro",
    "address_1": "19479 Viking Ave NW",
    "address_2": null,
    "address_3": null,
    "city": "Poulsbo",
    "state_province": "Washington",
    "postal_code": "98370-8370",
    "country": "United States",
    "longitude": -122.6596831,
    "latitude": 47.7398382,
    "phone": "3609308696",
    "website_url": "http://www.soundbrewery.com",
    "state": "Washington",
    "street": "19479 Viking Ave NW"
  },
  {
    "id": "89be9447-b3be-42a4-ad1a-018df8047203",
    "name": "Sound To Summit",
    "brewery_type": "brewpub",
    "address_1": "1830 Bickford Ave Ste 111",
    "address_2": null,
    "address_3": null,
    "city": "Snohomish",
    "state_province": "Washington",
    "postal_code": "98290-1751",
    "country": "United States",
    "longitude": -122.1023927,
    "latitude": 47.93307859,
    "phone": "3602948127",
    "website_url": "http://www.sound2summit.com",
    "state": "Washington",
    "street": "1830 Bickford Ave Ste 111"
  },
  {
    "id": "02f62869-f3c5-47f8-a09d-bc6b498e1f84",
    "name": "Soundgrowler Brewing Co.",
    "brewery_type": "brewpub",
    "address_1": "8201 183rd St Ste P",
    "address_2": null,
    "address_3": null,
    "city": "Tinley Park",
    "state_province": "Illinois",
    "postal_code": "60487-9377",
    "country": "United States",
    "longitude": null,
    "latitude": null,
    "phone": "7082630083",
    "website_url": "http://www.soundgrowler.com",
    "state": "Illinois",
    "street": "8201 183rd St Ste P"
  },
  {
    "id": "47e7a620-d0fb-4dfa-8ae2-ce8cf0c3244c",
    "name": "Source Brewing",
    "brewery_type": "planning",
    "address_1": null,
    "address_2": null,
    "address_3": null,
    "city": "Colts Neck",
    "state_province": "New Jersey",
    "postal_code": "07722-2430",
    "country": "United States",
    "longitude": null,
    "latitude": null,
    "phone": "7327785184",
    "website_url": "http://www.sourcebrewing.com",
    "state": "New Jersey",
    "street": null
  },
  {
    "id": "d656000d-73b8-45fb-8ad7-bf87103cb160",
    "name": "Souris River Brewing",
    "brewery_type": "brewpub",
    "address_1": "32 3rd St NE",
    "address_2": null,
    "address_3": null,
    "city": "Minot",
    "state_province": "North Dakota",
    "postal_code": "58703-3108",
    "country": "United States",
    "longitude": -101.2883218,
    "latitude": 48.23686523,
    "phone": "7018371884",
    "website_url": "http://www.sourisriverbrewing.com",
    "state": "North Dakota",
    "street": "32 3rd St NE"
  },
  {
    "id": "846c74cb-9739-4f97-b2b3-631145e7dae9",
    "name": "South Austin Brewery",
    "brewery_type": "micro",
    "address_1": "5701 W Slaughter Ln Bldg A130",
    "address_2": null,
    "address_3": null,
    "city": "Austin",
    "state_province": "Texas",
    "postal_code": "78749-6532",
    "country": "United States",
    "longitude": null,
    "latitude": null,
    "phone": "5123542337",
    "website_url": "http://www.southaustinbrewery.com",
    "state": "Texas",
    "street": "5701 W Slaughter Ln Bldg A130"
  },
  {
    "id": "02131f19-7bde-422c-a363-9288b2df2a9b",
    "name": "South Bay Brewco",
    "brewery_type": "contract",
    "address_1": "930 McLaughlin Ave",
    "address_2": null,
    "address_3": null,
    "city": "San Jose",
    "state_province": "California",
    "postal_code": "95122-2611",
    "country": "United States",
    "longitude": -121.8541694,
    "latitude": 37.3331712,
    "phone": "4082193696",
    "website_url": null,
    "state": "California",
    "street": "930 McLaughlin Ave"
  },
  {
    "id": "bbc48ed5-74ab-4114-aa44-8212468b3074",
    "name": "South Bend Brew Werks",
    "brewery_type": "brewpub",
    "address_1": "216 S Michigan St",
    "address_2": null,
    "address_3": null,
    "city": "South Bend",
    "state_province": "Indiana",
    "postal_code": "46601-2002",
    "country": "United States",
    "longitude": -86.25285572,
    "latitude": 41.62611855,
    "phone": "5743340356",
    "website_url": "http://www.southbendbrewwerks.com",
    "state": "Indiana",
    "street": "216 S Michigan St"
  },
  {
    "id": "b5d293a4-c881-4469-9486-32bdcbc9b43b",
    "name": "South County Brewing Co",
    "brewery_type": "micro",
    "address_1": "104 Mill St",
    "address_2": null,
    "address_3": null,
    "city": "Fawn Grove",
    "state_province": "Pennsylvania",
    "postal_code": "17321-9654",
    "country": "United States",
    "longitude": -76.44958324,
    "latitude": 39.7322666,
    "phone": "7173824016",
    "website_url": "http://www.southcountybrewing.com",
    "state": "Pennsylvania",
    "street": "104 Mill St"
  },
  {
    "id": "5c7faaef-a2b0-4c31-bdd8-a0330cdd9d57",
    "name": "South Cypress Brewing",
    "brewery_type": "brewpub",
    "address_1": "895 Wiggins Pass Rd",
    "address_2": null,
    "address_3": null,
    "city": "Naples",
    "state_province": "Florida",
    "postal_code": "34110-6118",
    "country": "United States",
    "longitude": null,
    "latitude": null,
    "phone": "2396316397",
    "website_url": null,
    "state": "Florida",
    "street": "895 Wiggins Pass Rd"
  },
  {
    "id": "e2515a84-6555-47a3-9f55-8b7ab14ec980",
    "name": "South Gate Brewing Co",
    "brewery_type": "brewpub",
    "address_1": "40233 Enterprise Dr",
    "address_2": null,
    "address_3": null,
    "city": "Oakhurst",
    "state_province": "California",
    "postal_code": "93644-8839",
    "country": "United States",
    "longitude": -119.6618038,
    "latitude": 37.33172774,
    "phone": "8582321737",
    "website_url": "http://www.southgatebrewco.com",
    "state": "California",
    "street": "40233 Enterprise Dr"
  },
  {
    "id": "b73a9ae9-403b-4e07-bc2c-eb77d042ef8e",
    "name": "South Haven Brewpub",
    "brewery_type": "brewpub",
    "address_1": "515 Williams St Ste 23",
    "address_2": null,
    "address_3": null,
    "city": "South Haven",
    "state_province": "Michigan",
    "postal_code": "49090-1493",
    "country": "United States",
    "longitude": null,
    "latitude": null,
    "phone": "2697677105",
    "website_url": "http://www.southhavenbrewpub.com",
    "state": "Michigan",
    "street": "515 Williams St Ste 23"
  },
  {
    "id": "6eb31b02-b69d-4c55-9e53-d3cb18808aa5",
    "name": "South Lake Brewing Company",
    "brewery_type": "micro",
    "address_1": "1920 Lake Tahoe Blvd",
    "address_2": null,
    "address_3": null,
    "city": "South Lake Tahoe",
    "state_province": "California",
    "postal_code": "96150-6307",
    "country": "United States",
    "longitude": -120.0074997,
    "latitude": 38.9118004,
    "phone": "5305780087",
    "website_url": "http://www.southlakebeer.com",
    "state": "California",
    "street": "1920 Lake Tahoe Blvd"
  },
  {
    "id": "4a437c88-34c5-4b21-87c3-98289bae00f4",
    "name": "South Park Brewing",
    "brewery_type": "micro",
    "address_1": "297 1/2 US Hwy 285",
    "address_2": null,
    "address_3": null,
    "city": "Fairplay",
    "state_province": "Colorado",
    "postal_code": "80440-2131",
    "country": "United States",
    "longitude": null,
    "latitude": null,
    "phone": "7198361932",
    "website_url": "http://www.southparkbrewingco.com",
    "state": "Colorado",
    "street": "297 1/2 US Hwy 285"
  },
  {
    "id": "fc7df7f3-32fa-471d-9f34-5ebbe07162c5",
    "name": "South Park Brewing",
    "brewery_type": "brewpub",
    "address_1": "1517 30th St",
    "address_2": null,
    "address_3": null,
    "city": "San Diego",
    "state_province": "California",
    "postal_code": "92102-1503",
    "country": "United States",
    "longitude": -117.130074,
    "latitude": 32.7470971,
    "phone": "6196109038",
    "website_url": "http://www.southparkbrewing.com",
    "state": "California",
    "street": "1517 30th St"
  },
  {
    "id": "ab5a979d-928d-47fd-94ee-2dd578ab2cad",
    "name": "South Shore Brewery",
    "brewery_type": "micro",
    "address_1": "808 Main St W",
    "address_2": null,
    "address_3": null,
    "city": "Ashland",
    "state_province": "Wisconsin",
    "postal_code": "54806-1404",
    "country": "United States",
    "longitude": -90.89277984,
    "latitude": 46.58720123,
    "phone": "7156829199",
    "website_url": "http://www.southshorebrewery.com",
    "state": "Wisconsin",
    "street": "808 Main St W"
  },
  {
    "id": "e90d03bc-7ada-42b4-b60b-1c2fc352be31",
    "name": "South Shore Brewery - Washburn",
    "brewery_type": "micro",
    "address_1": "532 W Bayfield St",
    "address_2": null,
    "address_3": null,
    "city": "Washburn",
    "state_province": "Wisconsin",
    "postal_code": "54891-1138",
    "country": "United States",
    "longitude": -90.90116464,
    "latitude": 46.67061427,
    "phone": "7156829199",
    "website_url": null,
    "state": "Wisconsin",
    "street": "532 W Bayfield St"
  }
]