[
  {
    "id": "fc51057f-e541-4931-92eb-e79d1bc93f46",
    "name": "Whistle Pig Brewing Company",
    "brewery_type": "micro",
    "address_1": "1840 Dominion Way",
    "address_2": null,
    "address_3": null,
    "city": "Colorado Springs",
    "state_province": "Colorado",
    "postal_code": "80918-1467",
    "country": "United States",
    "longitude": -104.7931723,
    "latitude": 38.92372675,
    "phone": "7195981339",
    "website_url": "http://www.whistlepigbrewing.com",
    "state": "Colorado",
    "street": "1840 Dominion Way"
  },
  {
    "id": "55c3e8b0-3895-458b-a274-0be8a069da25",
    "name": "Whistle Punk Brewing Company",
    "brewery_type": "micro",
    "address_1": "122 S Monroe St",
    "address_2": null,
    "address_3": null,
    "city": "Spokane",
    "state_province": "Washington",
    "postal_code": "99201-4007",
    "country": "United States",
    "longitude": -117.4267386,
    "latitude": 47.6564232,
    "phone": "5093154465",
    "website_url": "http://www.whistlepunkbrewing.com",
    "state": "Washington",
    "street": "122 S Monroe St"
  },
  {
    "id": "6d1e42ff-6f59-4a31-afa2-e9fbdbb5661f",
    "name": "Whistleing Springs Brewing Company / Dark Hills Brewery",
    "brewery_type": "planning",
    "address_1": null,
    "address_2": null,
    "address_3": null,
    "city": "Lowell",
    "state_province": "Arkansas",
    "postal_code": "72745-9294",
    "country": "United States",
    "longitude": -94.1307587,
    "latitude": 36.2553543,
    "phone": "4792836365",
    "website_url": "http://www.darkhillsbrew.com",
    "state": "Arkansas",
    "street": null
  },
  {
    "id": "e3addd66-8750-4844-82de-88710adf9b49",
    "name": "White Birch Brewing",
    "brewery_type": "closed",
    "address_1": "1339 Hooksett Rd",
    "address_2": null,
    "address_3": null,
    "city": "Hooksett",
    "state_province": "New Hampshire",
    "postal_code": "03106-1847",
    "country": "United States",
    "longitude": -71.44114457,
    "latitude": 43.05712534,
    "phone": "6032448593",
    "website_url": "http://www.whitebirchbrewing.com",
    "state": "New Hampshire",
    "street": "1339 Hooksett Rd"
  },
  {
    "id": "9516ace5-cc78-4f2a-82d6-a7a6311b5a10",
    "name": "White Bluffs Brewing",
    "brewery_type": "micro",
    "address_1": "2034 Logston Blvd",
    "address_2": null,
    "address_3": null,
    "city": "Richland",
    "state_province": "Washington",
    "postal_code": "99354-5300",
    "country": "United States",
    "longitude": -119.2999357,
    "latitude": 46.3204119,
    "phone": "5095547059",
    "website_url": "http://www.whitebluffsbrewing.com",
    "state": "Washington",
    "street": "2034 Logston Blvd"
  },
  {
    "id": "d1cb2052-1155-4415-bb79-0d293a714de3",
    "name": "White Clay Brewing Company",
    "brewery_type": "planning",
    "address_1": null,
    "address_2": null,
    "address_3": null,
    "city": "Landenberg",
    "state_province": "Pennsylvania",
    "postal_code": "19350-1540",
    "country": "United States",
    "longitude": null,
    "latitude": null,
    "phone": null,
    "website_url": null,
    "state": "Pennsylvania",
    "street": null
  },
  {
    "id": "b4835825-07a9-4210-b648-e796a460a11d",
    "name": "White Dog Brewing Boise",
    "brewery_type": "micro",
    "address_1": "705 W Fulton St",
    "address_2": null,
    "address_3": null,
    "city": "Boise",
    "state_province": "Idaho",
    "postal_code": "83702",
    "country": "United States",
    "longitude": -116.2062186,
    "latitude": 43.61122761,
    "phone": "2089060609",
    "website_url": "http://www.whitedogbrewing.com",
    "state": "Idaho",
    "street": "705 W Fulton St"
  },
  {
    "id": "bf11197a-a50f-4bb6-af48-0719c009eed6",
    "name": "White Dog Brewing Company",
    "brewery_type": "micro",
    "address_1": "121 W Main St",
    "address_2": null,
    "address_3": null,
    "city": "Bozeman",
    "state_province": "Montana",
    "postal_code": "59715-4644",
    "country": "United States",
    "longitude": -111.0393894,
    "latitude": 45.67961135,
    "phone": "4065955574",
    "website_url": "http://www.whitedogbrewing.com",
    "state": "Montana",
    "street": "121 W Main St"
  },
  {
    "id": "6001a312-5d2b-456a-a0e1-ed2c3233cacf",
    "name": "White Elephant Beer Company",
    "brewery_type": "micro",
    "address_1": "225 Market St",
    "address_2": null,
    "address_3": null,
    "city": "Mount Airy",
    "state_province": "North Carolina",
    "postal_code": "27030-3513",
    "country": "United States",
    "longitude": -80.6090865,
    "latitude": 36.5006581,
    "phone": "3366488277",
    "website_url": "http://www.whiteelephantbeer.com",
    "state": "North Carolina",
    "street": "225 Market St"
  },
  {
    "id": "5de62477-b829-4c11-8120-471c19fd52e6",
    "name": "White Elm Brewing Co",
    "brewery_type": "micro",
    "address_1": "720 Van Dorn St",
    "address_2": null,
    "address_3": null,
    "city": "Lincoln",
    "state_province": "Nebraska",
    "postal_code": "68502-3353",
    "country": "United States",
    "longitude": -96.7167126,
    "latitude": 40.7856925,
    "phone": "4022616078",
    "website_url": "http://www.whiteelmbrewing.com",
    "state": "Nebraska",
    "street": "720 Van Dorn St"
  },
  {
    "id": "dd296d03-e327-41d5-8fcb-7cf99a3682ce",
    "name": "White Flame Brewing Co",
    "brewery_type": "brewpub",
    "address_1": "5234 36th Ave",
    "address_2": null,
    "address_3": null,
    "city": "Hudsonville",
    "state_province": "Michigan",
    "postal_code": "49426-1636",
    "country": "United States",
    "longitude": null,
    "latitude": null,
    "phone": "6162095098",
    "website_url": "http://www.whiteflamebrewing.com",
    "state": "Michigan",
    "street": "5234 36th Ave"
  },
  {
    "id": "aed12916-1c2f-48e0-8ae9-7a28f067f515",
    "name": "White Gypsy Brewery",
    "brewery_type": "micro",
    "address_1": "Templemore Enterprise Centre",
    "address_2": "Railway Rd",
    "address_3": "Kiltillane",
    "city": "Templemore",
    "state_province": "Tipperary",
    "postal_code": "E41 W110",
    "country": "Ireland",
    "longitude": -7.8294975,
    "latitude": 52.7929206,
    "phone": "35350456572",
    "website_url": "http://www.whitegypsy.ie/",
    "state": "Tipperary",
    "street": "Templemore Enterprise Centre"
  },
  {
    "id": "8517ebf6-2df8-488e-8fd6-87a94fe3bf1d",
    "name": "White Labs Kitchen and Tap",
    "brewery_type": "brewpub",
    "address_1": "172 S Charlotte St",
    "address_2": null,
    "address_3": null,
    "city": "Asheville",
    "state_province": "North Carolina",
    "postal_code": "28801",
    "country": "United States",
    "longitude": -82.5490695,
    "latitude": 35.5911334,
    "phone": "8289743868",
    "website_url": null,
    "state": "North Carolina",
    "street": "172 S Charlotte St"
  },
  {
    "id": "b2795e99-d7db-4d9d-909a-4a72f1d8bf74",
    "name": "White Labs Tasting Room",
    "brewery_type": "micro",
    "address_1": "9495 Candida St",
    "address_2": null,
    "address_3": null,
    "city": "San Diego",
    "state_province": "California",
    "postal_code": "92126-4541",
    "country": "United States",
    "longitude": -117.121435,
    "latitude": 32.895843,
    "phone": "8586933441",
    "website_url": "http://www.whitelabs.com",
    "state": "California",
    "street": "9495 Candida St"
  },
  {
    "id": "f7fed178-dc61-473d-a847-efc5fd887105",
    "name": "White Lion Brewing Company",
    "brewery_type": "contract",
    "address_1": "36 Garland St",
    "address_2": null,
    "address_3": null,
    "city": "Springfield",
    "state_province": "Massachusetts",
    "postal_code": "01118-2128",
    "country": "United States",
    "longitude": -72.53380924,
    "latitude": 42.08981856,
    "phone": "4133261829",
    "website_url": "http://www.whitelionbrewing.com",
    "state": "Massachusetts",
    "street": "36 Garland St"
  },
  {
    "id": "a65c58fa-7082-4317-bbc3-a723049bb2a5",
    "name": "White Marsh Brewing Co/Red Brick Station",
    "brewery_type": "brewpub",
    "address_1": "8149 Honeygo Blvd Ste A",
    "address_2": null,
    "address_3": null,
    "city": "Baltimore",
    "state_province": "Maryland",
    "postal_code": "21236-8209",
    "country": "United States",
    "longitude": null,
    "latitude": null,
    "phone": "4109317827",
    "website_url": "http://www.redbrickstation.com",
    "state": "Maryland",
    "street": "8149 Honeygo Blvd Ste A"
  },
  {
    "id": "678e823f-8f29-4ce4-9c28-21b544979d7c",
    "name": "White Mountain Brewing",
    "brewery_type": "brewpub",
    "address_1": "50 Winter St",
    "address_2": null,
    "address_3": null,
    "city": "Ashland",
    "state_province": "New Hampshire",
    "postal_code": "03217",
    "country": "United States",
    "longitude": null,
    "latitude": null,
    "phone": "6039374061",
    "website_url": "https://www.whitemountainbrew.com/",
    "state": "New Hampshire",
    "street": "50 Winter St"
  },
  {
    "id": "b7d35211-94cc-47f5-ae7e-840824764519",
    "name": "White Oak Brewing",
    "brewery_type": "micro",
    "address_1": "1801 Industrial Park Dr",
    "address_2": null,
    "address_3": null,
    "city": "Normal",
    "state_province": "Illinois",
    "postal_code": "61761-4378",
    "country": "United States",
    "longitude": -89.023233,
    "latitude": 40.4987,
    "phone": "3098284077",
    "website_url": "http://www.WhiteOak.beer",
    "state": "Illinois",
    "street": "1801 Industrial Park Dr"
  },
  {
    "id": "0b7dfe2c-2617-4aa6-9578-9aa1bc63e71f",
    "name": "White Raven Brewing",
    "brewery_type": "planning",
    "address_1": null,
    "address_2": null,
    "address_3": null,
    "city": "Warsaw",
    "state_province": "Indiana",
    "postal_code": "46582-8089",
    "country": "United States",
    "longitude": null,
    "latitude": null,
    "phone": "5747030643",
    "website_url": "http://www.whiteravenbrewing.com",
    "state": "Indiana",
    "street": null
  },
  {
    "id": "7ebf9a9b-da69-4a31-af9f-ec7320d82f66",
    "name": "White River Brewing Co",
    "brewery_type": "micro",
    "address_1": "505 W Commercial St",
    "address_2": null,
    "address_3": null,
    "city": "Springfield",
    "state_province": "Missouri",
    "postal_code": "65803-2631",
    "country": "United States",
    "longitude": -93.29542085,
    "latitude": 37.2296298,
    "phone": "4178691366",
    "website_url": "http://www.whiteriverbrewingco.com",
    "state": "Missouri",
    "street": "505 W Commercial St"
  },
  {
    "id": "ee5bf449-cae4-4ae4-a626-faa1d2ea35b5",
    "name": "White Rock Alehouse & Brewery",
    "brewery_type": "brewpub",
    "address_1": "7331 Gaston Ave, Suite 100",
    "address_2": null,
    "address_3": null,
    "city": "Dallas",
    "state_province": "Texas",
    "postal_code": "75214",
    "country": "United States",
    "longitude": null,
    "latitude": null,
    "phone": "2149897570",
    "website_url": "http://www.whiterockalehouse.com",
    "state": "Texas",
    "street": "7331 Gaston Ave, Suite 100"
  },
  {
    "id": "5c7a79ba-8fe4-4bc2-8d86-d6c5a9743c91",
    "name": "White Rock Vineyards & Winery",
    "brewery_type": "micro",
    "address_1": "2117 Bruno Dr",
    "address_2": null,
    "address_3": null,
    "city": "Goodview",
    "state_province": "Virginia",
    "postal_code": "24095-2974",
    "country": "United States",
    "longitude": -79.70797231,
    "latitude": 37.23145289,
    "phone": "5408903359",
    "website_url": "http://www.whiterockwines.com",
    "state": "Virginia",
    "street": "2117 Bruno Dr"
  },
  {
    "id": "4c4f077d-6ffa-44bb-aa9d-8cf3116db0a4",
    "name": "White Shutter Winery and Brewery",
    "brewery_type": "micro",
    "address_1": "3794 County Hwy 56",
    "address_2": null,
    "address_3": null,
    "city": "Nevada",
    "state_province": "Ohio",
    "postal_code": "44849",
    "country": "United States",
    "longitude": null,
    "latitude": null,
    "phone": "4198352900",
    "website_url": "http://www.whiteshutterwinery.com",
    "state": "Ohio",
    "street": "3794 County Hwy 56"
  },
  {
    "id": "76a8347d-13dc-4c90-8bc0-7063f027312b",
    "name": "White Squirrel Brewery",
    "brewery_type": "brewpub",
    "address_1": "871 Broadway Ave",
    "address_2": null,
    "address_3": null,
    "city": "Bowling Green",
    "state_province": "Kentucky",
    "postal_code": "42101-2571",
    "country": "United States",
    "longitude": -86.4407388,
    "latitude": 36.9844713,
    "phone": "2709041573",
    "website_url": "http://www.whitesquirrelbrewery.com",
    "state": "Kentucky",
    "street": "871 Broadway Ave"
  },
  {
    "id": "c9a7083e-1d8a-416c-a0d5-489b04f0e1bc",
    "name": "White Street Brewing Company",
    "brewery_type": "micro",
    "address_1": "218 S White St",
    "address_2": null,
    "address_3": null,
    "city": "Wake Forest",
    "state_province": "North Carolina",
    "postal_code": "27587-2742",
    "country": "United States",
    "longitude": -78.5100617,
    "latitude": 35.9774896,
    "phone": "9196479439",
    "website_url": "http://www.whitestreetbrewing.com",
    "state": "North Carolina",
    "street": "218 S White St"
  },
  {
    "id": "2c2f893e-57b6-42ef-8f74-931edf8b2dc9",
    "name": "White Street Brewing Company - Production Facility",
    "brewery_type": "micro",
    "address_1": "400 Park Ave",
    "address_2": null,
    "address_3": null,
    "city": "Youngsville",
    "state_province": "North Carolina",
    "postal_code": "27596-8688",
    "country": "United States",
    "longitude": -78.48610616,
    "latitude": 36.03960848,
    "phone": "9196479439",
    "website_url": null,
    "state": "North Carolina",
    "street": "400 Park Ave"
  },
  {
    "id": "a627508a-fbc7-4fa4-a0e2-d8b3c6404564",
    "name": "Whitehorse Brewing LLC",
    "brewery_type": "micro",
    "address_1": "824 Diamond St",
    "address_2": null,
    "address_3": null,
    "city": "Berlin",
    "state_province": "Pennsylvania",
    "postal_code": "15530-1539",
    "country": "United States",
    "longitude": -78.95695707,
    "latitude": 39.92530586,
    "phone": "8144442436",
    "website_url": null,
    "state": "Pennsylvania",
    "street": "824 Diamond St"
  },
  {
    "id": "ff1c0781-35f7-4018-92cd-49ce65148a84",
    "name": "Whitestone Brewery",
    "brewery_type": "micro",
    "address_1": "601 E Whitestone Blvd Ste 500",
    "address_2": null,
    "address_3": null,
    "city": "Cedar Park",
    "state_province": "Texas",
    "postal_code": "78613-9046",
    "country": "United States",
    "longitude": null,
    "latitude": null,
    "phone": "5127654828",
    "website_url": "http://www.whitestonebrewery.com",
    "state": "Texas",
    "street": "601 E Whitestone Blvd Ste 500"
  },
  {
    "id": "5442db20-6933-4c01-9457-32e46c304712",
    "name": "Whitewall Brewing Company",
    "brewery_type": "micro",
    "address_1": "14524 Smokey Point Blvd Ste 1",
    "address_2": null,
    "address_3": null,
    "city": "Marysville",
    "state_province": "Washington",
    "postal_code": "98271-8921",
    "country": "United States",
    "longitude": -122.18410445265,
    "latitude": 48.128403280772,
    "phone": "3604540464",
    "website_url": "http://www.whitewallbrewing.com",
    "state": "Washington",
    "street": "14524 Smokey Point Blvd Ste 1"
  },
  {
    "id": "bb868abb-212b-4862-a8b2-0077272c9dfc",
    "name": "Whitis AleWorks",
    "brewery_type": "planning",
    "address_1": null,
    "address_2": null,
    "address_3": null,
    "city": "Houston",
    "state_province": "Texas",
    "postal_code": "77069-3424",
    "country": "United States",
    "longitude": null,
    "latitude": null,
    "phone": null,
    "website_url": null,
    "state": "Texas",
    "street": null
  },
  {
    "id": "a299a563-434d-45ea-babc-0e0b3b0434ec",
    "name": "Whitman Brewing Company",
    "brewery_type": "planning",
    "address_1": null,
    "address_2": null,
    "address_3": null,
    "city": "Saratoga Springs",
    "state_province": "New York",
    "postal_code": "12866",
    "country": "United States",
    "longitude": null,
    "latitude": null,
    "phone": "6317868701",
    "website_url": "http://www.whitmanbrewing.com",
    "state": "New York",
    "street": null
  },
  {
    "id": "b024ba44-162a-4194-b8b8-84c0085a58f6",
    "name": "Whole Foods Market Brewing Company",
    "brewery_type": "micro",
    "address_1": "1700 Post Oak Blvd Ste 1G101",
    "address_2": null,
    "address_3": null,
    "city": "Houston",
    "state_province": "Texas",
    "postal_code": "77056-3963",
    "country": "United States",
    "longitude": null,
    "latitude": null,
    "phone": "7133460537",
    "website_url": "https://www.wholefoodsmarket.com/",
    "state": "Texas",
    "street": "1700 Post Oak Blvd Ste 1G101"
  },
  {
    "id": "6f0483b4-6dfe-4a12-aa04-a7e7f1f66ab4",
    "name": "Whole Foods Market Brewing Company- Floodcraft Brewing",
    "brewery_type": "brewpub",
    "address_1": "777 The Alameda",
    "address_2": null,
    "address_3": null,
    "city": "San Jose",
    "state_province": "California",
    "postal_code": "95126-3155",
    "country": "United States",
    "longitude": -121.9087451,
    "latitude": 37.3315931,
    "phone": "4082071126",
    "website_url": "http://floodcraftbrewing.com/",
    "state": "California",
    "street": "777 The Alameda"
  },
  {
    "id": "0b4b6ac7-952f-4002-959d-6e7b4fff4110",
    "name": "WHYM Craft Pub & Brewery",
    "brewery_type": "brewpub",
    "address_1": "853 Lafayette Rd",
    "address_2": null,
    "address_3": null,
    "city": "Hampton",
    "state_province": "New Hampshire",
    "postal_code": "03842",
    "country": "United States",
    "longitude": null,
    "latitude": null,
    "phone": "6036012801",
    "website_url": "https://whym.beer/",
    "state": "New Hampshire",
    "street": "853 Lafayette Rd"
  },
  {
    "id": "d070be83-d4ec-4799-b935-53d28ad8b1ca",
    "name": "Wibby Brewing",
    "brewery_type": "micro",
    "address_1": "209 Emery St",
    "address_2": null,
    "address_3": null,
    "city": "Longmont",
    "state_province": "Colorado",
    "postal_code": "80501-5910",
    "country": "United States",
    "longitude": -105.1002098,
    "latitude": 40.1623965,
    "phone": null,
    "website_url": "http://www.wibbybrewing.com",
    "state": "Colorado",
    "street": "209 Emery St"
  },
  {
    "id": "f89d304a-d3ac-41d9-92b8-0ea150b231f0",
    "name": "Wichita Brewing Co & Pizzeria",
    "brewery_type": "brewpub",
    "address_1": "8815 W 13th St N Ste 100",
    "address_2": null,
    "address_3": null,
    "city": "Wichita",
    "state_province": "Kansas",
    "postal_code": "67212-4072",
    "country": "United States",
    "longitude": null,
    "latitude": null,
    "phone": "3162101641",
    "website_url": "http://www.wichitabrew.com",
    "state": "Kansas",
    "street": "8815 W 13th St N Ste 100"
  },
  {
    "id": "bf687e4e-81f9-45ff-bb1f-34aff10e95e9",
    "name": "Wichita Brewing Co & Pizzeria",
    "brewery_type": "brewpub",
    "address_1": "535 N Woodlawn St",
    "address_2": null,
    "address_3": null,
    "city": "Wichita",
    "state_province": "Kansas",
    "postal_code": "67208-3668",
    "country": "United States",
    "longitude": -97.262463,
    "latitude": 37.74682,
    "phone": "3164404885",
    "website_url": "http://www.wichitabrew.com",
    "state": "Kansas",
    "street": "535 N Woodlawn St"
  },
  {
    "id": "b6eb55a9-aea4-433e-bcf7-c5a99cf248af",
    "name": "Wichita Brewing Co Production, LLC",
    "brewery_type": "micro",
    "address_1": "727 E Osie St",
    "address_2": null,
    "address_3": null,
    "city": "Wichita",
    "state_province": "Kansas",
    "postal_code": "67211-4327",
    "country": "United States",
    "longitude": -97.32983941,
    "latitude": 37.66244565,
    "phone": null,
    "website_url": null,
    "state": "Kansas",
    "street": "727 E Osie St"
  },
  {
    "id": "529115d6-8c65-4eca-832a-72a3029ca483",
    "name": "Wichita Falls Brewing Co.",
    "brewery_type": "micro",
    "address_1": "701 Indiana Ave",
    "address_2": null,
    "address_3": null,
    "city": "Wichita Falls",
    "state_province": "Texas",
    "postal_code": "76301",
    "country": "United States",
    "longitude": -98.491525,
    "latitude": 33.913486,
    "phone": "9402644677",
    "website_url": "http://www.wichitafallsbrewing.com",
    "state": "Texas",
    "street": "701 Indiana Ave"
  },
  {
    "id": "69aacfb0-223a-452c-a71a-db3487dd4186",
    "name": "Wicked Barley Brewing Co.",
    "brewery_type": "brewpub",
    "address_1": "4100 Baymeadows Rd",
    "address_2": null,
    "address_3": null,
    "city": "Jacksonville",
    "state_province": "Florida",
    "postal_code": "32217-4602",
    "country": "United States",
    "longitude": -81.5779846,
    "latitude": 30.2208765,
    "phone": "9043797077",
    "website_url": "http://www.wickedbarley.com",
    "state": "Florida",
    "street": "4100 Baymeadows Rd"
  },
  {
    "id": "47595081-be0f-41ac-a459-888cef7be9d2",
    "name": "Wicked Boxer Brewing",
    "brewery_type": "brewpub",
    "address_1": "16326 Mueschke Rd # E10",
    "address_2": null,
    "address_3": null,
    "city": "Cypress",
    "state_province": "Texas",
    "postal_code": "77433-4953",
    "country": "United States",
    "longitude": -95.7172092,
    "latitude": 29.9809872,
    "phone": "2819781866",
    "website_url": "http://www.wickedboxer.com",
    "state": "Texas",
    "street": "16326 Mueschke Rd # E10"
  },
  {
    "id": "86217917-be17-4445-8056-4f8b734200af",
    "name": "Wicked Monkey Brewing Co",
    "brewery_type": "planning",
    "address_1": null,
    "address_2": null,
    "address_3": null,
    "city": "Marana",
    "state_province": "Arizona",
    "postal_code": "85653-8154",
    "country": "United States",
    "longitude": -111.2157091,
    "latitude": 32.4446988,
    "phone": null,
    "website_url": null,
    "state": "Arizona",
    "street": null
  },
  {
    "id": "c31d47e7-b4a4-4158-a32f-db658ea2d391",
    "name": "Wicked Teuton Brewing",
    "brewery_type": "micro",
    "address_1": "1341 SW Barlow St",
    "address_2": null,
    "address_3": null,
    "city": "Oak Harbor",
    "state_province": "Washington",
    "postal_code": "98277-3159",
    "country": "United States",
    "longitude": -122.6599158,
    "latitude": 48.28728035,
    "phone": "3608625011",
    "website_url": "http://wickedteutonbrewing.com",
    "state": "Washington",
    "street": "1341 SW Barlow St"
  },
  {
    "id": "2849f939-f34f-498f-beba-c243b678765b",
    "name": "Wicked Weed Brewing",
    "brewery_type": "large",
    "address_1": "91 Biltmore Ave",
    "address_2": null,
    "address_3": null,
    "city": "Asheville",
    "state_province": "North Carolina",
    "postal_code": "28801-3626",
    "country": "United States",
    "longitude": -82.55106832,
    "latitude": 35.5916712,
    "phone": "8285759599",
    "website_url": "http://www.wickedweedbrewing.com",
    "state": "North Carolina",
    "street": "91 Biltmore Ave"
  },
  {
    "id": "99c72386-748e-40dc-8e1b-db36bc5919d5",
    "name": "Wicked Weed Brewing",
    "brewery_type": "large",
    "address_1": "145 Jacob Holme Way",
    "address_2": null,
    "address_3": null,
    "city": "Candler",
    "state_province": "North Carolina",
    "postal_code": "28715-0209",
    "country": "United States",
    "longitude": null,
    "latitude": null,
    "phone": "4846789424",
    "website_url": "http://www.wickedweedbrewing.com",
    "state": "North Carolina",
    "street": "145 Jacob Holme Way"
  },
  {
    "id": "995b3da6-99ed-4cf4-9562-05286f4430f8",
    "name": "Wicked Weed Funk House",
    "brewery_type": "large",
    "address_1": "95 Old Shoals Rd",
    "address_2": null,
    "address_3": null,
    "city": "Arden",
    "state_province": "North Carolina",
    "postal_code": "28704-9401",
    "country": "United States",
    "longitude": -82.52495553,
    "latitude": 35.4674064,
    "phone": null,
    "website_url": "http://www.wickedweedbrewing.com",
    "state": "North Carolina",
    "street": "95 Old Shoals Rd"
  },
  {
    "id": "5937f6df-a6e0-48cf-9234-bfd66b3c4c8e",
    "name": "Wicked Weed Funkatorium",
    "brewery_type": "large",
    "address_1": "95 Old Shoals Rd",
    "address_2": null,
    "address_3": null,
    "city": "Arden",
    "state_province": "North Carolina",
    "postal_code": "28704-9401",
    "country": "United States",
    "longitude": -82.52495553,
    "latitude": 35.4674064,
    "phone": "8285759599",
    "website_url": "http://www.wickedweedbrewing.com",
    "state": "North Carolina",
    "street": "95 Old Shoals Rd"
  },
  {
    "id": "a269a5ba-6871-4460-8daa-0eaf617c8230",
    "name": "Wicked Wort Brewing Company",
    "brewery_type": "brewpub",
    "address_1": "4165 W Broadway Ave",
    "address_2": null,
    "address_3": null,
    "city": "Minneapolis",
    "state_province": "Minnesota",
    "postal_code": "55422-1823",
    "country": "United States",
    "longitude": -93.3025381,
    "latitude": 44.9996613,
    "phone": "7633029849",
    "website_url": "http://www.wickedwortbrewingco.com",
    "state": "Minnesota",
    "street": "4165 W Broadway Ave"
  },
  {
    "id": "401d45ca-4c04-4bf6-af19-55b45748ef91",
    "name": "Wicklow Wolf Brewing Company",
    "brewery_type": "regional",
    "address_1": "Wicklow Wolf",
    "address_2": "Moneycarroll",
    "address_3": "Newtown Mount Kennedy",
    "city": "Bray",
    "state_province": "Wicklow",
    "postal_code": "A63 A243",
    "country": "Ireland",
    "longitude": -6.1109949,
    "latitude": 53.0842111,
    "phone": "35315676993",
    "website_url": "http://www.wicklowwolf.com/",
    "state": "Wicklow",
    "street": "Wicklow Wolf"
  },
  {
    "id": "8012f3e0-11da-4da0-8563-c26d52e0d262",
    "name": "Wicks Brewing Company LLC",
    "brewery_type": "brewpub",
    "address_1": "11620 Sterling Ave Ste C",
    "address_2": null,
    "address_3": null,
    "city": "Riverside",
    "state_province": "California",
    "postal_code": "92503-4904",
    "country": "United States",
    "longitude": -117.484431,
    "latitude": 33.89574075,
    "phone": "9516892739",
    "website_url": "http://wicksbrewing.com",
    "state": "California",
    "street": "11620 Sterling Ave Ste C"
  }
]