[
  {
    "id": "1070f42d-7db8-46a3-8f09-ec835be0ef1f",
    "name": "City Barrel Brewing + Kitchen",
    "brewery_type": "brewpub",
    "address_1": "1740 Holmes St",
    "address_2": null,
    "address_3": null,
    "city": "Kansas City",
    "state_province": "Missouri",
    "postal_code": "64108-1803",
    "country": "United States",
    "longitude": -94.575464,
    "latitude": 39.091892,
    "phone": "8162987008",
    "website_url": "http://www.citybarrelbrewing.com",
    "state": "Missouri",
    "street": "1740 Holmes St"
  },
  {
    "id": "5476e31e-0ce8-4fdf-9502-ef3e89d34832",
    "name": "City Brewing Co",
    "brewery_type": "regional",
    "address_1": "925 3rd St S",
    "address_2": null,
    "address_3": null,
    "city": "La Crosse",
    "state_province": "Wisconsin",
    "postal_code": "54601-4411",
    "country": "United States",
    "longitude": -91.25335046,
    "latitude": 43.80435523,
    "phone": "6087854200",
    "website_url": "http://www.citybrewery.com",
    "state": "Wisconsin",
    "street": "925 3rd St S"
  },
  {
    "id": "6812d6f9-b113-48c1-902a-dd2b0f1e5874",
    "name": "City Built Brewing Company",
    "brewery_type": "brewpub",
    "address_1": "820 Monroe Ave NW Ste 155",
    "address_2": null,
    "address_3": null,
    "city": "Grand Rapids",
    "state_province": "Michigan",
    "postal_code": "49503-1413",
    "country": "United States",
    "longitude": null,
    "latitude": null,
    "phone": "6168055755",
    "website_url": "http://www.citybuiltbrewing.com",
    "state": "Michigan",
    "street": "820 Monroe Ave NW Ste 155"
  },
  {
    "id": "f0f38619-5ed5-4064-83b0-e48f05783d4c",
    "name": "City Lights Brewing Co.",
    "brewery_type": "micro",
    "address_1": "2200 W Mount Vernon Ave",
    "address_2": null,
    "address_3": null,
    "city": "Milwaukee",
    "state_province": "Wisconsin",
    "postal_code": "53233-2672",
    "country": "United States",
    "longitude": -88.0118646,
    "latitude": 43.0339815,
    "phone": "4145209692",
    "website_url": "http://www.citylightsbrewing.com",
    "state": "Wisconsin",
    "street": "2200 W Mount Vernon Ave"
  },
  {
    "id": "190bb19b-1b65-4585-8ba8-55bbcf1efebe",
    "name": "City Service Brewing",
    "brewery_type": "micro",
    "address_1": "404 Main St",
    "address_2": null,
    "address_3": null,
    "city": "Darlington",
    "state_province": "Wisconsin",
    "postal_code": "53530-1428",
    "country": "United States",
    "longitude": -90.11787155,
    "latitude": 42.68028418,
    "phone": null,
    "website_url": "http://www.cityservicebrewing.wixsite.com",
    "state": "Wisconsin",
    "street": "404 Main St"
  },
  {
    "id": "d2333318-4e2a-4d4d-b7d7-a31af733822d",
    "name": "City Star Brewing",
    "brewery_type": "micro",
    "address_1": "321 Mountain Avenue",
    "address_2": null,
    "address_3": null,
    "city": "Berthoud",
    "state_province": "Colorado",
    "postal_code": "80513-",
    "country": "United States",
    "longitude": -105.0809465,
    "latitude": 40.30505214,
    "phone": "9705327827",
    "website_url": "http://www.citystarbrewing.com",
    "state": "Colorado",
    "street": "321 Mountain Avenue"
  },
  {
    "id": "b352a68f-2c4f-476c-a552-7a4fa911d64e",
    "name": "City Steam Brewery",
    "brewery_type": "closed",
    "address_1": "942 Main St Lbby 3",
    "address_2": null,
    "address_3": null,
    "city": "Hartford",
    "state_province": "Connecticut",
    "postal_code": "06103-1215",
    "country": "United States",
    "longitude": null,
    "latitude": null,
    "phone": "8605251600",
    "website_url": null,
    "state": "Connecticut",
    "street": "942 Main St Lbby 3"
  },
  {
    "id": "4da39580-1cf8-436a-bcd9-ce44d8b07896",
    "name": "City-State Brewing Company",
    "brewery_type": "planning",
    "address_1": null,
    "address_2": null,
    "address_3": null,
    "city": "Washington",
    "state_province": "District of Columbia",
    "postal_code": "20017-2518",
    "country": "United States",
    "longitude": null,
    "latitude": null,
    "phone": "2025310481",
    "website_url": "http://citystatebrewing.com",
    "state": "District of Columbia",
    "street": null
  },
  {
    "id": "728581d2-7245-4303-b6c9-2b003ed185fd",
    "name": "Civil Life Brewing Company",
    "brewery_type": "brewpub",
    "address_1": "3714 Holt Ave",
    "address_2": null,
    "address_3": null,
    "city": "Saint Louis",
    "state_province": "Missouri",
    "postal_code": "63116-2614",
    "country": "United States",
    "longitude": -90.25807165,
    "latitude": 38.5908973,
    "phone": null,
    "website_url": "http://www.thecivillife.com",
    "state": "Missouri",
    "street": "3714 Holt Ave"
  },
  {
    "id": "3e4025f3-efcc-4913-a66b-a6985899ad29",
    "name": "Civil Society Brewing Co",
    "brewery_type": "micro",
    "address_1": "1200 Town Center Dr Ste 101",
    "address_2": null,
    "address_3": null,
    "city": "Jupiter",
    "state_province": "Florida",
    "postal_code": "33458-5257",
    "country": "United States",
    "longitude": -80.11462571,
    "latitude": 26.88964636,
    "phone": "5618556680",
    "website_url": "http://www.civilsocietybrewing.com",
    "state": "Florida",
    "street": "1200 Town Center Dr Ste 101"
  },
  {
    "id": "c4cefd05-1142-4287-9509-e6e7bbeb61b9",
    "name": "Civilian Brewing Corps",
    "brewery_type": "planning",
    "address_1": null,
    "address_2": null,
    "address_3": null,
    "city": "Bloomington",
    "state_province": "Indiana",
    "postal_code": "47403-9658",
    "country": "United States",
    "longitude": null,
    "latitude": null,
    "phone": null,
    "website_url": null,
    "state": "Indiana",
    "street": null
  },
  {
    "id": "cba5abaf-d710-42d9-9ba8-e73cf378c245",
    "name": "CJs Brewing Co",
    "brewery_type": "brewpub",
    "address_1": "8115 Richardson Rd",
    "address_2": null,
    "address_3": null,
    "city": "Commerce Township",
    "state_province": "Michigan",
    "postal_code": "48390-4131",
    "country": "United States",
    "longitude": -83.44295839,
    "latitude": 42.57743694,
    "phone": "2483667979",
    "website_url": "http://www.cjsbrewingcompany.com",
    "state": "Michigan",
    "street": "8115 Richardson Rd"
  },
  {
    "id": "58fcc35e-a5d6-404e-999c-516782165368",
    "name": "CL River Outpost Brewing",
    "brewery_type": "brewpub",
    "address_1": "5 John Walsh Blvd",
    "address_2": null,
    "address_3": null,
    "city": "Peekskill",
    "state_province": "New York",
    "postal_code": "10566",
    "country": "United States",
    "longitude": null,
    "latitude": null,
    "phone": null,
    "website_url": "http://riveroutpostbrewing.com",
    "state": "New York",
    "street": "5 John Walsh Blvd"
  },
  {
    "id": "6e2d96e1-062d-4e05-b0df-5b11a252fbfc",
    "name": "Claim 52 Brewing",
    "brewery_type": "micro",
    "address_1": "1030 Tyinn St Ste 1",
    "address_2": null,
    "address_3": null,
    "city": "Eugene",
    "state_province": "Oregon",
    "postal_code": "97402-6933",
    "country": "United States",
    "longitude": -123.1379662,
    "latitude": 44.04917678,
    "phone": "5415546786",
    "website_url": null,
    "state": "Oregon",
    "street": "1030 Tyinn St Ste 1"
  },
  {
    "id": "97a6271c-ac6c-47e4-97b4-7af02ee7ad88",
    "name": "Claimstake Brewing Company",
    "brewery_type": "micro",
    "address_1": "11366 Monier Park Pl",
    "address_2": null,
    "address_3": null,
    "city": "Rancho Cordova",
    "state_province": "California",
    "postal_code": "95742-6856",
    "country": "United States",
    "longitude": -121.2607634,
    "latitude": 38.58185916,
    "phone": "9166615249",
    "website_url": "http://www.claimstakebrewing.com",
    "state": "California",
    "street": "11366 Monier Park Pl"
  },
  {
    "id": "9f0fb9c0-49ca-4c1e-aa52-ca9b099a317c",
    "name": "Clairvoyant Brewing - Boise",
    "brewery_type": "micro",
    "address_1": "2800 W Idaho St",
    "address_2": null,
    "address_3": null,
    "city": "Boise",
    "state_province": "Idaho",
    "postal_code": "83702-4628",
    "country": "United States",
    "longitude": -116.225417,
    "latitude": 43.622812,
    "phone": "2089960095",
    "website_url": "http://www.clairvoyantbrewing.com",
    "state": "Idaho",
    "street": "2800 W Idaho St"
  },
  {
    "id": "7cc65ee3-40e0-483b-bf33-589945cb5610",
    "name": "Clairvoyant Brewing - West",
    "brewery_type": "micro",
    "address_1": "9115 W Chinden Blvd Ste 107",
    "address_2": null,
    "address_3": null,
    "city": "Garden City",
    "state_province": "Idaho",
    "postal_code": "83714",
    "country": "United States",
    "longitude": -116.2958998,
    "latitude": 43.654831,
    "phone": null,
    "website_url": "https://www.clairvoyantbrewing.com",
    "state": "Idaho",
    "street": "9115 W Chinden Blvd Ste 107"
  },
  {
    "id": "18783ef1-06c4-496e-a25b-110032b07619",
    "name": "Clam Lake Beer Co",
    "brewery_type": "brewpub",
    "address_1": "106 S Mitchell St Ste A",
    "address_2": null,
    "address_3": null,
    "city": "Cadillac",
    "state_province": "Michigan",
    "postal_code": "49601-2177",
    "country": "United States",
    "longitude": null,
    "latitude": null,
    "phone": "2317756150",
    "website_url": "http://www.clamlakebeerco.com",
    "state": "Michigan",
    "street": "106 S Mitchell St Ste A"
  },
  {
    "id": "62f9023b-c528-4366-8348-3e25c6edfe53",
    "name": "Clandestine Brewing",
    "brewery_type": "micro",
    "address_1": "980 S 1st Ste B",
    "address_2": null,
    "address_3": null,
    "city": "San Jose",
    "state_province": "California",
    "postal_code": "95110-3127",
    "country": "United States",
    "longitude": -121.8786694,
    "latitude": 37.32187322,
    "phone": null,
    "website_url": "http://www.clandestinebrewing.com",
    "state": "California",
    "street": "980 S 1st Ste B"
  },
  {
    "id": "54622678-f89c-4ce7-bc09-3a27808a6225",
    "name": "Claremont Craft Ales",
    "brewery_type": "micro",
    "address_1": "1420 N Claremont Blvd Ste 204C",
    "address_2": null,
    "address_3": null,
    "city": "Claremont",
    "state_province": "California",
    "postal_code": "91711-3528",
    "country": "United States",
    "longitude": -117.7017202,
    "latitude": 34.10939116,
    "phone": "9096255350",
    "website_url": "http://www.claremontcraftales.com",
    "state": "California",
    "street": "1420 N Claremont Blvd Ste 204C"
  },
  {
    "id": "a33ce0a4-eaf9-4807-bd2b-ecc104b186c4",
    "name": "Clarion River Brewing Company",
    "brewery_type": "brewpub",
    "address_1": "600 Main St # 604",
    "address_2": null,
    "address_3": null,
    "city": "Clarion",
    "state_province": "Pennsylvania",
    "postal_code": "16214-1108",
    "country": "United States",
    "longitude": -79.6789283,
    "latitude": 41.14649162,
    "phone": "8142978399",
    "website_url": "http://www.clarionriverbrew.com",
    "state": "Pennsylvania",
    "street": "600 Main St # 604"
  },
  {
    "id": "088d36c6-2be1-4c07-8da1-d8c64f5800de",
    "name": "Clayton Brewing Co",
    "brewery_type": "contract",
    "address_1": "661 W Arrow Hwy",
    "address_2": null,
    "address_3": null,
    "city": "San Dimas",
    "state_province": "California",
    "postal_code": "91773-2936",
    "country": "United States",
    "longitude": -117.826752,
    "latitude": 34.1066017,
    "phone": "9093944900",
    "website_url": "http://www.claytonbrewingco.com",
    "state": "California",
    "street": "661 W Arrow Hwy"
  },
  {
    "id": "252f7a2b-637c-4a90-bce9-5fab3e0d6702",
    "name": "CLE Brewing",
    "brewery_type": "micro",
    "address_1": "9431 Mercantile Dr",
    "address_2": null,
    "address_3": null,
    "city": "Mentor",
    "state_province": "Ohio",
    "postal_code": "44060",
    "country": "United States",
    "longitude": -81.30644573,
    "latitude": 41.69622887,
    "phone": "4405278330",
    "website_url": "http://www.smarterbrewing.com",
    "state": "Ohio",
    "street": "9431 Mercantile Dr"
  },
  {
    "id": "da01256e-6b46-4fb2-94e4-e18d5fe01b65",
    "name": "Clemson Bros. Brewery",
    "brewery_type": "brewpub",
    "address_1": "22 Cottage St",
    "address_2": null,
    "address_3": null,
    "city": "Middletown",
    "state_province": "New York",
    "postal_code": "10940-5059",
    "country": "United States",
    "longitude": -74.41622495,
    "latitude": 41.44693028,
    "phone": "8457754638",
    "website_url": "http://www.clemsonbrewing.com",
    "state": "New York",
    "street": "22 Cottage St"
  },
  {
    "id": "41f88027-2cd2-4988-bd1c-0869bec82d61",
    "name": "Clendenin Brewing Co",
    "brewery_type": "micro",
    "address_1": "2 Main St",
    "address_2": null,
    "address_3": null,
    "city": "Clendenin",
    "state_province": "West Virginia",
    "postal_code": "25045-1001",
    "country": "United States",
    "longitude": -81.326984312027,
    "latitude": 38.534742386751,
    "phone": "3045484505",
    "website_url": "https://clendenin.beer",
    "state": "West Virginia",
    "street": "2 Main St"
  },
  {
    "id": "418f4dca-b6cc-46ef-bdd8-fb7a4febb9e8",
    "name": "Cleophus Quealy Beer Company",
    "brewery_type": "micro",
    "address_1": "448 Hester St",
    "address_2": null,
    "address_3": null,
    "city": "San Leandro",
    "state_province": "California",
    "postal_code": "94577-1024",
    "country": "United States",
    "longitude": -122.1914202,
    "latitude": 37.72210256,
    "phone": null,
    "website_url": "http://www.cleoph.us",
    "state": "California",
    "street": "448 Hester St"
  },
  {
    "id": "84229303-605d-4216-be85-cd5ad19ccb91",
    "name": "Clermont Brewing Company",
    "brewery_type": "planning",
    "address_1": null,
    "address_2": null,
    "address_3": null,
    "city": "Clermont",
    "state_province": "Florida",
    "postal_code": "34711-2108",
    "country": "United States",
    "longitude": null,
    "latitude": null,
    "phone": null,
    "website_url": null,
    "state": "Florida",
    "street": null
  },
  {
    "id": "a630d9e9-b184-4c4f-aa32-56e61cfd6c92",
    "name": "Cleveland Brewing Company @ Butcher and The Brewer",
    "brewery_type": "brewpub",
    "address_1": "2043 E 4th St",
    "address_2": null,
    "address_3": null,
    "city": "Cleveland",
    "state_province": "Ohio",
    "postal_code": "44115-1023",
    "country": "United States",
    "longitude": -81.690036,
    "latitude": 41.4991502,
    "phone": null,
    "website_url": null,
    "state": "Ohio",
    "street": "2043 E 4th St"
  },
  {
    "id": "9aab61ae-eeb8-493e-8c80-92e79bd86a2c",
    "name": "Cliffside Brewing",
    "brewery_type": "micro",
    "address_1": "16B Center St",
    "address_2": null,
    "address_3": null,
    "city": "Wallingford",
    "state_province": "Connecticut",
    "postal_code": "06492-4110",
    "country": "United States",
    "longitude": -72.8236736,
    "latitude": 41.45664583,
    "phone": null,
    "website_url": "http://www.cliffsidebrewing.com",
    "state": "Connecticut",
    "street": "16B Center St"
  },
  {
    "id": "8690decb-8627-47c1-8a42-bf73cca5662e",
    "name": "Climate City Brewing Co.",
    "brewery_type": "brewpub",
    "address_1": "509 SW G St",
    "address_2": null,
    "address_3": null,
    "city": "Grants Pass",
    "state_province": "Oregon",
    "postal_code": "97526-2472",
    "country": "United States",
    "longitude": -123.3313287,
    "latitude": 42.4401171,
    "phone": "5414793725",
    "website_url": "http://www.climatecitybrewing.com",
    "state": "Oregon",
    "street": "509 SW G St"
  },
  {
    "id": "3f324410-c135-498c-b5cc-4116df6d9f8f",
    "name": "Climax Brewing Co",
    "brewery_type": "micro",
    "address_1": "112 Valley Rd",
    "address_2": null,
    "address_3": null,
    "city": "Roselle Park",
    "state_province": "New Jersey",
    "postal_code": "07204-1402",
    "country": "United States",
    "longitude": -74.28252639,
    "latitude": 40.65943179,
    "phone": "9086209585",
    "website_url": "http://www.climaxbrewing.com",
    "state": "New Jersey",
    "street": "112 Valley Rd"
  },
  {
    "id": "03c5e7d6-e98d-481f-ad60-64d363f20446",
    "name": "Climber Nine Brewing",
    "brewery_type": "planning",
    "address_1": null,
    "address_2": null,
    "address_3": null,
    "city": "Cameron Park",
    "state_province": "California",
    "postal_code": "95682-8975",
    "country": "United States",
    "longitude": -120.9851442,
    "latitude": 38.68200185,
    "phone": null,
    "website_url": null,
    "state": "California",
    "street": null
  },
  {
    "id": "d11bf284-2d00-4915-bd7d-1f8c7b8a43f2",
    "name": "Climbing Bines Craft Ale Company",
    "brewery_type": "micro",
    "address_1": "511 Hanson Point Rd",
    "address_2": null,
    "address_3": null,
    "city": "Penn Yan",
    "state_province": "New York",
    "postal_code": "14527-9718",
    "country": "United States",
    "longitude": null,
    "latitude": null,
    "phone": "6077450221",
    "website_url": "http://www.climbingbineshopfarm.com",
    "state": "New York",
    "street": "511 Hanson Point Rd"
  },
  {
    "id": "09345655-ad47-4b71-ba33-61c1c16550a0",
    "name": "Clinch River Brewing",
    "brewery_type": "brewpub",
    "address_1": "2045 Norris Freeway",
    "address_2": null,
    "address_3": null,
    "city": "Norris",
    "state_province": "Tennessee",
    "postal_code": "37828",
    "country": "United States",
    "longitude": -84.0448186,
    "latitude": 36.1696625,
    "phone": "2763561847",
    "website_url": "http://www.clinchriverbrewing.com",
    "state": "Tennessee",
    "street": "2045 Norris Freeway"
  },
  {
    "id": "a4f67a90-e30b-4e7b-949c-1ab62077742c",
    "name": "Clock House Brewing",
    "brewery_type": "micro",
    "address_1": "600 1st St SE",
    "address_2": null,
    "address_3": null,
    "city": "Cedar Rapids",
    "state_province": "Iowa",
    "postal_code": "52401",
    "country": "United States",
    "longitude": -91.665354,
    "latitude": 41.973813,
    "phone": "3192004099",
    "website_url": "http://www.clockhousebrewing.com",
    "state": "Iowa",
    "street": "600 1st St SE"
  },
  {
    "id": "80315299-debd-4568-8975-a06f1d0038f3",
    "name": "Clockwerks Brewing",
    "brewery_type": "brewpub",
    "address_1": "25 N 4th St",
    "address_2": null,
    "address_3": null,
    "city": "Minneapolis",
    "state_province": "Minnesota",
    "postal_code": "55401-1719",
    "country": "United States",
    "longitude": -93.27195031,
    "latitude": 44.98071827,
    "phone": "6123399375",
    "website_url": "http://www.clockwerksbrewing.com",
    "state": "Minnesota",
    "street": "25 N 4th St"
  },
  {
    "id": "beccac0a-ce7c-420f-a548-67ce2b84d7eb",
    "name": "Cloud 9 Brewery",
    "brewery_type": "brewpub",
    "address_1": "1750 W State St",
    "address_2": null,
    "address_3": null,
    "city": "Boise",
    "state_province": "Idaho",
    "postal_code": "83702-3923",
    "country": "United States",
    "longitude": -116.2116802,
    "latitude": 43.62441063,
    "phone": "2083360681",
    "website_url": "http://www.cloud9brewery.com",
    "state": "Idaho",
    "street": "1750 W State St"
  },
  {
    "id": "b93ef9fe-5adc-4dae-a5e8-49c94cd7cfd0",
    "name": "Cloudburst Brewing",
    "brewery_type": "micro",
    "address_1": "2116 Western Ave",
    "address_2": null,
    "address_3": null,
    "city": "Seattle",
    "state_province": "Washington",
    "postal_code": "98121-2110",
    "country": "United States",
    "longitude": -122.3452717,
    "latitude": 47.6116138,
    "phone": "2066026061",
    "website_url": "http://www.cloudburstbrew.com",
    "state": "Washington",
    "street": "2116 Western Ave"
  },
  {
    "id": "5382a775-e629-49a1-8774-712525404364",
    "name": "Cloudburst Brewing on Shilshole",
    "brewery_type": "micro",
    "address_1": "5456 Shilshole Ave NW",
    "address_2": null,
    "address_3": null,
    "city": "Seattle",
    "state_province": "Washington",
    "postal_code": "98107-4022",
    "country": "United States",
    "longitude": -122.3865589,
    "latitude": 47.66806551,
    "phone": null,
    "website_url": "http://www.cloudburstbrew.com",
    "state": "Washington",
    "street": "5456 Shilshole Ave NW"
  },
  {
    "id": "eaed88bf-4da0-43bc-bf43-4ed6299752a3",
    "name": "Clouds Brewing",
    "brewery_type": "micro",
    "address_1": "1233 Front St Ste E",
    "address_2": null,
    "address_3": null,
    "city": "Raleigh",
    "state_province": "North Carolina",
    "postal_code": "27609-7534",
    "country": "United States",
    "longitude": null,
    "latitude": null,
    "phone": "9197474863",
    "website_url": "http://www.cloudsbrewing.com",
    "state": "North Carolina",
    "street": "1233 Front St Ste E"
  },
  {
    "id": "67e50b38-80ff-431e-a5eb-d9e49db207cf",
    "name": "Cloverdale Ale Company's Ruth McGowan's Brewpub",
    "brewery_type": "brewpub",
    "address_1": "131 E 1st St",
    "address_2": null,
    "address_3": null,
    "city": "Cloverdale",
    "state_province": "California",
    "postal_code": "95425-3701",
    "country": "United States",
    "longitude": -123.0165729,
    "latitude": 38.80532322,
    "phone": "7078949610",
    "website_url": "http://www.ruthmcgowansbrewpub.com",
    "state": "California",
    "street": "131 E 1st St"
  },
  {
    "id": "81228a3c-b30b-426b-bbb4-00fcc575e858",
    "name": "Clubhouse Brewing Company Ltd",
    "brewery_type": "micro",
    "address_1": "668 N River Rd NW",
    "address_2": null,
    "address_3": null,
    "city": "Warren",
    "state_province": "Ohio",
    "postal_code": "44483",
    "country": "United States",
    "longitude": -80.82676867,
    "latitude": 41.26602856,
    "phone": "3305487854",
    "website_url": null,
    "state": "Ohio",
    "street": "668 N River Rd NW"
  },
  {
    "id": "e55521d5-aded-4bd6-9bed-072d74a2f8c8",
    "name": "CNB Brewpub",
    "brewery_type": "planning",
    "address_1": null,
    "address_2": null,
    "address_3": null,
    "city": "Sarasota",
    "state_province": "Florida",
    "postal_code": "34242-3811",
    "country": "United States",
    "longitude": null,
    "latitude": null,
    "phone": "9418096760",
    "website_url": null,
    "state": "Florida",
    "street": null
  },
  {
    "id": "e5028c3e-023e-4987-94a5-58ab9ff94fa0",
    "name": "CO-Brew",
    "brewery_type": "micro",
    "address_1": "1133 N Broadway",
    "address_2": null,
    "address_3": null,
    "city": "Denver",
    "state_province": "Colorado",
    "postal_code": "80203-2106",
    "country": "United States",
    "longitude": null,
    "latitude": null,
    "phone": "7204854959",
    "website_url": "http://www.cobrewdenver.com",
    "state": "Colorado",
    "street": "1133 N Broadway"
  },
  {
    "id": "86dcbf88-9ef0-4f73-a021-330198902ad0",
    "name": "Coachella Valley Brewing Co",
    "brewery_type": "micro",
    "address_1": "30-640 Gunther St",
    "address_2": null,
    "address_3": null,
    "city": "Thousand Palms",
    "state_province": "California",
    "postal_code": "92276-2333",
    "country": "United States",
    "longitude": -116.401697,
    "latitude": 33.826202,
    "phone": "7603435973",
    "website_url": "http://www.cvbco.com",
    "state": "California",
    "street": "30-640 Gunther St"
  },
  {
    "id": "29f4510e-d3c3-4166-ab94-ee1879962000",
    "name": "Coal Country Brewing",
    "brewery_type": "micro",
    "address_1": "625 W High St",
    "address_2": null,
    "address_3": null,
    "city": "Ebensburg",
    "state_province": "Pennsylvania",
    "postal_code": "15931",
    "country": "United States",
    "longitude": -78.730634,
    "latitude": 40.485306,
    "phone": "8144198648",
    "website_url": "http://www.coalcountrybrewing.net",
    "state": "Pennsylvania",
    "street": "625 W High St"
  },
  {
    "id": "8f9a9b92-eedd-4ca0-9fd6-01299cb0c74e",
    "name": "Coal Creek TAP",
    "brewery_type": "micro",
    "address_1": "108 E Grand Ave",
    "address_2": null,
    "address_3": null,
    "city": "Laramie",
    "state_province": "Wyoming",
    "postal_code": "82070-3638",
    "country": "United States",
    "longitude": -105.5952184,
    "latitude": 41.31105578,
    "phone": "3074609556",
    "website_url": "http://www.coalcreektap.com",
    "state": "Wyoming",
    "street": "108 E Grand Ave"
  },
  {
    "id": "3b896acb-c1d6-42e9-add5-2d9fc30ff260",
    "name": "Coal Mine Ave Brewing Company",
    "brewery_type": "micro",
    "address_1": "9719 W Coal Mine Ave Unit A",
    "address_2": null,
    "address_3": null,
    "city": "Littleton",
    "state_province": "Colorado",
    "postal_code": "80123-8000",
    "country": "United States",
    "longitude": null,
    "latitude": null,
    "phone": "7205044866",
    "website_url": "http://www.coalmineavebrewing.com",
    "state": "Colorado",
    "street": "9719 W Coal Mine Ave Unit A"
  },
  {
    "id": "ee2bb5ba-1f1c-4ba3-9087-3cb9df5f4323",
    "name": "Coal Tipple Brewery / Kramer Farms",
    "brewery_type": "micro",
    "address_1": "1905 Steubenville Rike",
    "address_2": null,
    "address_3": null,
    "city": "Burgettstown",
    "state_province": "Pennsylvania",
    "postal_code": "15021",
    "country": "United States",
    "longitude": null,
    "latitude": null,
    "phone": "7248993344",
    "website_url": "http://www.coaltipplebrewery.com",
    "state": "Pennsylvania",
    "street": "1905 Steubenville Rike"
  },
  {
    "id": "08155729-56b6-4a82-a43e-5b458dd01c2e",
    "name": "Coalition Brewing Co",
    "brewery_type": "closed",
    "address_1": "2705 SE Ankeny St Ste C",
    "address_2": null,
    "address_3": null,
    "city": "Portland",
    "state_province": "Oregon",
    "postal_code": "97214-1817",
    "country": "United States",
    "longitude": -122.6381854,
    "latitude": 45.5225809,
    "phone": "5038948080",
    "website_url": "http://www.coalitionbrewing.com",
    "state": "Oregon",
    "street": "2705 SE Ankeny St Ste C"
  }
]