[
  {
    "id": "e5bd0c69-0309-4696-a031-221df1d49d29",
    "name": "GroundLion Brewing",
    "brewery_type": "planning",
    "address_1": null,
    "address_2": null,
    "address_3": null,
    "city": "Seagrove",
    "state_province": "North Carolina",
    "postal_code": "27341-0459",
    "country": "United States",
    "longitude": null,
    "latitude": null,
    "phone": "9192705112",
    "website_url": "http://www.groundlionbrewing.com",
    "state": "North Carolina",
    "street": null
  },
  {
    "id": "eb8a316f-dd22-4b9d-9165-8b3d8853f84c",
    "name": "Groundswell Brewing Co",
    "brewery_type": "micro",
    "address_1": "10151 Prospect Ave",
    "address_2": null,
    "address_3": null,
    "city": "Santee",
    "state_province": "California",
    "postal_code": "92071-4411",
    "country": "United States",
    "longitude": -116.9644235,
    "latitude": 32.8310696,
    "phone": "6107499123",
    "website_url": "http://www.groundswellbrew.com",
    "state": "California",
    "street": "10151 Prospect Ave"
  },
  {
    "id": "9a4b3e7f-3c66-4d4a-8318-127d957ca2e4",
    "name": "Grove City Brewing Company",
    "brewery_type": "brewpub",
    "address_1": "3946 Broadway",
    "address_2": null,
    "address_3": null,
    "city": "Grove City",
    "state_province": "Ohio",
    "postal_code": "43123-2623",
    "country": "United States",
    "longitude": null,
    "latitude": null,
    "phone": "6149910338",
    "website_url": "http://www.grovecitybrewingcompany.com",
    "state": "Ohio",
    "street": "3946 Broadway"
  },
  {
    "id": "2bd11bd2-132f-46f8-8e0b-5d3ddb3d2db8",
    "name": "Grove Roots Brewing",
    "brewery_type": "micro",
    "address_1": "302 3rd St SW",
    "address_2": null,
    "address_3": null,
    "city": "Winter Haven",
    "state_province": "Florida",
    "postal_code": "33880-3409",
    "country": "United States",
    "longitude": -81.73049326,
    "latitude": 28.01977247,
    "phone": "8632910700",
    "website_url": "http://www.groveroots.com",
    "state": "Florida",
    "street": "302 3rd St SW"
  },
  {
    "id": "a42cdc23-92ae-4234-a13a-86a3c1af3d8d",
    "name": "Growler Bay Brewing Co",
    "brewery_type": "planning",
    "address_1": null,
    "address_2": null,
    "address_3": null,
    "city": "Valdez",
    "state_province": "Alaska",
    "postal_code": "99686-3716",
    "country": "United States",
    "longitude": -146.3493638,
    "latitude": 61.1299396,
    "phone": "9072555191",
    "website_url": "https://growlerbaybrewing.com",
    "state": "Alaska",
    "street": null
  },
  {
    "id": "c7f34fa1-738d-46d8-a0b2-663c7096990d",
    "name": "Growling Bear Brewing Company",
    "brewery_type": "micro",
    "address_1": "14051 Crown Ct",
    "address_2": null,
    "address_3": null,
    "city": "Woodbridge",
    "state_province": "Virginia",
    "postal_code": "22193-1458",
    "country": "United States",
    "longitude": null,
    "latitude": null,
    "phone": null,
    "website_url": null,
    "state": "Virginia",
    "street": "14051 Crown Ct"
  },
  {
    "id": "98a49693-43bc-4f99-99ff-bdb1bd6470b4",
    "name": "Gruff Brewing Company",
    "brewery_type": "micro",
    "address_1": "104 E Maple St # 101",
    "address_2": null,
    "address_3": null,
    "city": "Bellingham",
    "state_province": "Washington",
    "postal_code": "98225-5006",
    "country": "United States",
    "longitude": -122.4822547,
    "latitude": 48.7472243,
    "phone": "3607340115",
    "website_url": "http://www.gruff-brewing.com",
    "state": "Washington",
    "street": "104 E Maple St # 101"
  },
  {
    "id": "8a158d9f-026f-4ee4-8941-e78c0c0ec638",
    "name": "Gruhlke's Microbrewery / Bias Vineyards",
    "brewery_type": "brewpub",
    "address_1": "3166 Highway B",
    "address_2": null,
    "address_3": null,
    "city": "Berger",
    "state_province": "Missouri",
    "postal_code": "63014-1418",
    "country": "United States",
    "longitude": -91.3352114,
    "latitude": 38.6769847,
    "phone": "5738345475",
    "website_url": "http://www.biaswinery.com",
    "state": "Missouri",
    "street": "3166 Highway B"
  },
  {
    "id": "09c1302b-48d1-4272-bcc6-920e67672c86",
    "name": "Gruit Brewing",
    "brewery_type": "micro",
    "address_1": "200 Anderson St",
    "address_2": null,
    "address_3": null,
    "city": "Portland",
    "state_province": "Maine",
    "postal_code": "04101-2562",
    "country": "United States",
    "longitude": -70.255898,
    "latitude": 43.669074,
    "phone": "2077738331",
    "website_url": "http://www.fermentory.com",
    "state": "Maine",
    "street": "200 Anderson St"
  },
  {
    "id": "924b7483-1f85-4ffc-9ef2-0d2697ff8d09",
    "name": "Grumpy Old Men Brewing",
    "brewery_type": "micro",
    "address_1": "1315 E Main St",
    "address_2": null,
    "address_3": null,
    "city": "Blue Ridge",
    "state_province": "Georgia",
    "postal_code": "30513-8506",
    "country": "United States",
    "longitude": -84.33050832,
    "latitude": 34.85747136,
    "phone": "7703318870",
    "website_url": "http://www.grumpyoldmenbrewing.com",
    "state": "Georgia",
    "street": "1315 E Main St"
  },
  {
    "id": "8eca212a-08e8-43ae-bbf7-a782408ac247",
    "name": "Grumpy Troll, The",
    "brewery_type": "micro",
    "address_1": "105 S 2nd St",
    "address_2": null,
    "address_3": null,
    "city": "Mount Horeb",
    "state_province": "Wisconsin",
    "postal_code": "53572-2105",
    "country": "United States",
    "longitude": -89.73830404,
    "latitude": 43.00841443,
    "phone": "6084372739",
    "website_url": "http://www.thegrumpytroll.com",
    "state": "Wisconsin",
    "street": "105 S 2nd St"
  },
  {
    "id": "413d4838-10b7-466a-b755-d8377a8945f4",
    "name": "Gruner Brothers Brewing",
    "brewery_type": "micro",
    "address_1": "1301 Wilkins Cir",
    "address_2": null,
    "address_3": null,
    "city": "Casper",
    "state_province": "Wyoming",
    "postal_code": "82601-1335",
    "country": "United States",
    "longitude": -106.34034073094,
    "latitude": 42.864174201907,
    "phone": "3074392222",
    "website_url": "http://www.grunerbrewing.com",
    "state": "Wyoming",
    "street": "1301 Wilkins Cir"
  },
  {
    "id": "53b5c0a9-2201-4a60-a110-fe1136a658ea",
    "name": "GSP Craft Brewing",
    "brewery_type": "closed",
    "address_1": null,
    "address_2": null,
    "address_3": null,
    "city": "Gig Harbor",
    "state_province": "Washington",
    "postal_code": "98332-7918",
    "country": "United States",
    "longitude": null,
    "latitude": null,
    "phone": "2533281121",
    "website_url": "http://www.facebook.com/gspcraftbrewing",
    "state": "Washington",
    "street": null
  },
  {
    "id": "303a23e1-3cb2-4f20-bfcf-25e82eb122e6",
    "name": "Guadalupe Brewery",
    "brewery_type": "micro",
    "address_1": "168 Rachel Dr",
    "address_2": null,
    "address_3": null,
    "city": "Canyon Lake",
    "state_province": "Texas",
    "postal_code": "78133-3527",
    "country": "United States",
    "longitude": null,
    "latitude": null,
    "phone": "5128789214",
    "website_url": "http://www.guadalupebrew.com",
    "state": "Texas",
    "street": "168 Rachel Dr"
  },
  {
    "id": "8bc95996-c055-43d9-aeec-fc19240e50fb",
    "name": "Guadalupe Brewery",
    "brewery_type": "micro",
    "address_1": "5674 El Camino Real Ste D",
    "address_2": null,
    "address_3": null,
    "city": "Carlsbad",
    "state_province": "California",
    "postal_code": "92008-7130",
    "country": "United States",
    "longitude": -117.2735422,
    "latitude": 33.13885281,
    "phone": "8587514278",
    "website_url": "http://www.guadalupebrewery.com",
    "state": "California",
    "street": "5674 El Camino Real Ste D"
  },
  {
    "id": "69a152da-143e-4c71-b3aa-e0ffb6c3048e",
    "name": "Guadalupe Mountain Brewing Company",
    "brewery_type": "brewpub",
    "address_1": "3404 National Parks Hwy",
    "address_2": null,
    "address_3": null,
    "city": "Carlsbad",
    "state_province": "New Mexico",
    "postal_code": "88220-5349",
    "country": "United States",
    "longitude": -104.2240211,
    "latitude": 32.3821008,
    "phone": "5753617761",
    "website_url": null,
    "state": "New Mexico",
    "street": "3404 National Parks Hwy"
  },
  {
    "id": "8be0f9a4-7c89-4122-ba92-90591ed4aef7",
    "name": "Guanacaste Brewing LLC",
    "brewery_type": "planning",
    "address_1": null,
    "address_2": null,
    "address_3": null,
    "city": "Lorton",
    "state_province": "Virginia",
    "postal_code": "22079",
    "country": "United States",
    "longitude": null,
    "latitude": null,
    "phone": "7038537687",
    "website_url": "http://www.guanacastebrewingllc.com",
    "state": "Virginia",
    "street": null
  },
  {
    "id": "b35b775a-2b1a-4203-b59c-0ce2e039c48c",
    "name": "Guanella Pass Brewing Company, LLC",
    "brewery_type": "micro",
    "address_1": "501 Rose Street",
    "address_2": null,
    "address_3": null,
    "city": "Georgetown",
    "state_province": "Colorado",
    "postal_code": "80444",
    "country": "United States",
    "longitude": -105.697303,
    "latitude": 39.705772,
    "phone": "3035695167",
    "website_url": "http://www.guanellapass.com",
    "state": "Colorado",
    "street": "501 Rose Street"
  },
  {
    "id": "c67959ff-a884-4d4a-be84-a194b410b969",
    "name": "Guardian Brewing Company",
    "brewery_type": "planning",
    "address_1": null,
    "address_2": null,
    "address_3": null,
    "city": "Saugatuck",
    "state_province": "Michigan",
    "postal_code": "49453",
    "country": "United States",
    "longitude": null,
    "latitude": null,
    "phone": "8125213611",
    "website_url": "http://www.guardianbrewingco.com",
    "state": "Michigan",
    "street": null
  },
  {
    "id": "893c746b-cc59-44c0-8da1-6239d57a3825",
    "name": "Guggman Haus Brewing Co.",
    "brewery_type": "planning",
    "address_1": null,
    "address_2": null,
    "address_3": null,
    "city": "Indianapolis",
    "state_province": "Indiana",
    "postal_code": "46202-2158",
    "country": "United States",
    "longitude": null,
    "latitude": null,
    "phone": "8122302554",
    "website_url": "http://www.guggmanhausbrewing.com",
    "state": "Indiana",
    "street": null
  },
  {
    "id": "b82b05d8-ca46-4954-b9a9-bb91a98406e5",
    "name": "Guinness Brewing (Diageo)",
    "brewery_type": "large",
    "address_1": "St. James's Gate",
    "address_2": "Dublin 8",
    "address_3": null,
    "city": "Dublin",
    "state_province": "Dublin",
    "postal_code": "D08 VF8H",
    "country": "Ireland",
    "longitude": -6.286729743,
    "latitude": 53.34193275,
    "phone": "35314084800",
    "website_url": "https://www.guinness-storehouse.com/en",
    "state": "Dublin",
    "street": "St. James's Gate"
  },
  {
    "id": "577e47da-8542-4261-a4ec-83b99325a42d",
    "name": "Guinness Open Gate Brewery and Barrel House",
    "brewery_type": "large",
    "address_1": "5001 Washington Blvd",
    "address_2": null,
    "address_3": null,
    "city": "Halethorpe",
    "state_province": "Maryland",
    "postal_code": "21227-5000",
    "country": "United States",
    "longitude": -76.69843865,
    "latitude": 39.222265,
    "phone": "9022663839",
    "website_url": null,
    "state": "Maryland",
    "street": "5001 Washington Blvd"
  },
  {
    "id": "ed040add-786c-4758-b42a-1ab876837de7",
    "name": "Gulf Coast Brewery LLC",
    "brewery_type": "micro",
    "address_1": "500 E Heinberg St",
    "address_2": null,
    "address_3": null,
    "city": "Pensacola",
    "state_province": "Florida",
    "postal_code": "32502-4145",
    "country": "United States",
    "longitude": -87.20552274,
    "latitude": 30.41799103,
    "phone": "8506962335",
    "website_url": "http://www.gulfcoastbrewery.net",
    "state": "Florida",
    "street": "500 E Heinberg St"
  },
  {
    "id": "b096f2f3-c941-418e-9011-f613fecdcd1a",
    "name": "Gulf Stream Brewing",
    "brewery_type": "planning",
    "address_1": null,
    "address_2": null,
    "address_3": null,
    "city": "Fort Lauderdale",
    "state_province": "Florida",
    "postal_code": "33304-1802",
    "country": "United States",
    "longitude": null,
    "latitude": null,
    "phone": "9547664842",
    "website_url": "http://www.gulfstreambeer.com",
    "state": "Florida",
    "street": null
  },
  {
    "id": "81b4e34e-0bfb-47d8-917c-a057f2bae670",
    "name": "Gull Dam Brewing, Inc.",
    "brewery_type": "micro",
    "address_1": "23836 Smiley Rd",
    "address_2": null,
    "address_3": null,
    "city": "Nisswa",
    "state_province": "Minnesota",
    "postal_code": "56468",
    "country": "United States",
    "longitude": -94.29766266,
    "latitude": 46.49834978,
    "phone": "2189632739",
    "website_url": "http://www.gulldambrewing.com",
    "state": "Minnesota",
    "street": "23836 Smiley Rd"
  },
  {
    "id": "0aad28bf-9036-4880-9613-f8a7dcaee10a",
    "name": "Gun Brewery Ltd",
    "brewery_type": "micro",
    "address_1": "Gun Hill",
    "address_2": null,
    "address_3": null,
    "city": "Heathfield",
    "state_province": "East Sussex",
    "postal_code": "TN21 0JY",
    "country": "England",
    "longitude": 0.222494,
    "latitude": 50.899245,
    "phone": "1323700200",
    "website_url": "https://www.gunbrewery.co.uk/",
    "state": "East Sussex",
    "street": "Gun Hill"
  },
  {
    "id": "21c53c8a-a1c1-4504-9040-a5bd3052c179",
    "name": "Gun Flint Tavern",
    "brewery_type": "brewpub",
    "address_1": "111 W Wisconsin St",
    "address_2": null,
    "address_3": null,
    "city": "Grand Marais",
    "state_province": "Minnesota",
    "postal_code": "55604-",
    "country": "United States",
    "longitude": -90.3348245,
    "latitude": 47.74937733,
    "phone": "2183872836",
    "website_url": "http://www.gunflinttavern.com",
    "state": "Minnesota",
    "street": "111 W Wisconsin St"
  },
  {
    "id": "7772fff2-1f62-48bf-8653-cff2a21ccaf6",
    "name": "Gun Hill Brewing Co",
    "brewery_type": "micro",
    "address_1": "3227 Laconia Ave",
    "address_2": null,
    "address_3": null,
    "city": "Bronx",
    "state_province": "New York",
    "postal_code": "10469-1403",
    "country": "United States",
    "longitude": -73.855814,
    "latitude": 40.8721114,
    "phone": "7188810010",
    "website_url": "http://www.gunhillbrewing.com",
    "state": "New York",
    "street": "3227 Laconia Ave"
  },
  {
    "id": "6872c14f-c3c4-49ea-a714-8c25b62163d4",
    "name": "Gunbarrel Brewing Company",
    "brewery_type": "micro",
    "address_1": "7088 Winchester Cir Ste 2",
    "address_2": null,
    "address_3": null,
    "city": "Boulder",
    "state_province": "Colorado",
    "postal_code": "80301-3761",
    "country": "United States",
    "longitude": null,
    "latitude": null,
    "phone": "8008035732",
    "website_url": "http://www.gunbarrelbrewing.com",
    "state": "Colorado",
    "street": "7088 Winchester Cir Ste 2"
  },
  {
    "id": "c29d029c-2d13-472d-a0b4-94cdc96a2f4f",
    "name": "Gunpowder Falls Brewing Co",
    "brewery_type": "micro",
    "address_1": "15556 Elm Dr",
    "address_2": null,
    "address_3": null,
    "city": "New Freedom",
    "state_province": "Pennsylvania",
    "postal_code": "17349-9344",
    "country": "United States",
    "longitude": null,
    "latitude": null,
    "phone": "7177590330",
    "website_url": "http://www.gunpowderfallsbrewing.com",
    "state": "Pennsylvania",
    "street": "15556 Elm Dr"
  },
  {
    "id": "45dcecc1-7ec4-4bbe-86f7-35b57396fa36",
    "name": "Guns & Oil Brewery",
    "brewery_type": "micro",
    "address_1": "111 W 33rd St",
    "address_2": null,
    "address_3": null,
    "city": "Boise",
    "state_province": "Idaho",
    "postal_code": "83714",
    "country": "United States",
    "longitude": -116.2389395,
    "latitude": 43.62136196,
    "phone": null,
    "website_url": "http://www.gunsandoil.com",
    "state": "Idaho",
    "street": "111 W 33rd St"
  },
  {
    "id": "0b76ee76-205d-4942-9aac-0008cd3d2e5e",
    "name": "Gunwhale Ales",
    "brewery_type": "micro",
    "address_1": "2960 Randolph Ave Unit A",
    "address_2": null,
    "address_3": null,
    "city": "Costa Mesa",
    "state_province": "California",
    "postal_code": "92626-4312",
    "country": "United States",
    "longitude": -117.8872815,
    "latitude": 33.67899369,
    "phone": "9492399074",
    "website_url": "http://www.gunwhaleales.com",
    "state": "California",
    "street": "2960 Randolph Ave Unit A"
  },
  {
    "id": "4c58219c-dc41-41b7-aeba-64cc6662c6ef",
    "name": "Gyppo Ale Mill",
    "brewery_type": "micro",
    "address_1": null,
    "address_2": null,
    "address_3": null,
    "city": "Whitethorn",
    "state_province": "California",
    "postal_code": "95589-0627",
    "country": "United States",
    "longitude": -123.9430832,
    "latitude": 40.0237557,
    "phone": "7072233443",
    "website_url": null,
    "state": "California",
    "street": null
  },
  {
    "id": "80e11204-916f-4d79-8687-9650e0d647bd",
    "name": "Gypsy Brewery",
    "brewery_type": "micro",
    "address_1": "3506 Vega Ave",
    "address_2": null,
    "address_3": null,
    "city": "Cleveland",
    "state_province": "Ohio",
    "postal_code": "44113-4900",
    "country": "United States",
    "longitude": -81.70785488,
    "latitude": 41.47449194,
    "phone": null,
    "website_url": null,
    "state": "Ohio",
    "street": "3506 Vega Ave"
  },
  {
    "id": "c2c62d00-922c-41be-b603-b3acb04373ee",
    "name": "Gypsy Brewing Company",
    "brewery_type": "micro",
    "address_1": null,
    "address_2": null,
    "address_3": null,
    "city": "Huntingtown",
    "state_province": "Maryland",
    "postal_code": "20639",
    "country": "United States",
    "longitude": null,
    "latitude": null,
    "phone": null,
    "website_url": null,
    "state": "Maryland",
    "street": null
  },
  {
    "id": "43383e50-f0d2-4a30-95af-0e0ec92513ed",
    "name": "H.A. Brewing Co",
    "brewery_type": "brewpub",
    "address_1": "2525 Grave Creek Rd",
    "address_2": null,
    "address_3": null,
    "city": "Eureka",
    "state_province": "Montana",
    "postal_code": "59917-9609",
    "country": "United States",
    "longitude": null,
    "latitude": null,
    "phone": "4068893950",
    "website_url": "http://www.habrewing.com",
    "state": "Montana",
    "street": "2525 Grave Creek Rd"
  },
  {
    "id": "ddfb8618-9884-481c-af46-9db75920906f",
    "name": "H2OPS LLC",
    "brewery_type": "planning",
    "address_1": null,
    "address_2": null,
    "address_3": null,
    "city": "Anaheim",
    "state_province": "California",
    "postal_code": "92808-1225",
    "country": "United States",
    "longitude": -117.911732,
    "latitude": 33.8347516,
    "phone": "7143924414",
    "website_url": "http://www.h2ops.com",
    "state": "California",
    "street": null
  },
  {
    "id": "b3f83269-b3e9-4637-b5a2-acfbfbe35387",
    "name": "Haas Innovations Brewing LLC",
    "brewery_type": "micro",
    "address_1": "1600 River Rd",
    "address_2": null,
    "address_3": null,
    "city": "Yakima",
    "state_province": "Washington",
    "postal_code": "98902-1249",
    "country": "United States",
    "longitude": -120.530565,
    "latitude": 46.617844,
    "phone": "5094694000",
    "website_url": "https://www.johnihaas.com",
    "state": "Washington",
    "street": "1600 River Rd"
  },
  {
    "id": "8b8d3e0f-22b8-4350-9975-575793331af8",
    "name": "Habitat Brewing Co",
    "brewery_type": "micro",
    "address_1": "174 Broadway St",
    "address_2": null,
    "address_3": null,
    "city": "Asheville",
    "state_province": "North Carolina",
    "postal_code": "28801-2305",
    "country": "United States",
    "longitude": -82.5533973,
    "latitude": 35.5986648,
    "phone": "7047018141",
    "website_url": "http://www.habitatbrewing.com",
    "state": "North Carolina",
    "street": "174 Broadway St"
  },
  {
    "id": "f98dd11d-f3ca-4bb4-bc2e-e9deb27de42d",
    "name": "Hackensack Brewing Company",
    "brewery_type": "planning",
    "address_1": null,
    "address_2": null,
    "address_3": null,
    "city": "Hackensack",
    "state_province": "New Jersey",
    "postal_code": "07601-4824",
    "country": "United States",
    "longitude": null,
    "latitude": null,
    "phone": null,
    "website_url": null,
    "state": "New Jersey",
    "street": null
  },
  {
    "id": "580761b4-cca5-45d8-9eac-4b426bbfad2b",
    "name": "HailStorm Brewing Company",
    "brewery_type": "micro",
    "address_1": "8060 186th St",
    "address_2": null,
    "address_3": null,
    "city": "Tinley Park",
    "state_province": "Illinois",
    "postal_code": "60487-9215",
    "country": "United States",
    "longitude": -87.81356158,
    "latitude": 41.55317823,
    "phone": "6306317173",
    "website_url": "http://www.hailstormbrewing.com",
    "state": "Illinois",
    "street": "8060 186th St"
  },
  {
    "id": "9b732794-2a95-48ec-80b2-c01ef485d97a",
    "name": "Haines Brewing Co",
    "brewery_type": "micro",
    "address_1": "327 Main St",
    "address_2": null,
    "address_3": null,
    "city": "Haines",
    "state_province": "Alaska",
    "postal_code": "99827",
    "country": "United States",
    "longitude": -135.4551927,
    "latitude": 59.2357624,
    "phone": "9077663823",
    "website_url": "http://www.hainesbrewing.com",
    "state": "Alaska",
    "street": "327 Main St"
  },
  {
    "id": "314a71f6-2f8c-4461-8a64-d479b1002129",
    "name": "Haint Blue Brewing Company",
    "brewery_type": "contract",
    "address_1": "806 Monroe Street",
    "address_2": null,
    "address_3": null,
    "city": "Mobile",
    "state_province": "Alabama",
    "postal_code": "36602",
    "country": "United States",
    "longitude": -88.05126184,
    "latitude": 30.68474321,
    "phone": null,
    "website_url": "http://haintbluebrew.com",
    "state": "Alabama",
    "street": "806 Monroe Street"
  },
  {
    "id": "1503f786-1afe-44fb-9668-a32cc139df58",
    "name": "Hair of the Dog Brewing Co",
    "brewery_type": "brewpub",
    "address_1": "61 SE Yamhill St",
    "address_2": null,
    "address_3": null,
    "city": "Portland",
    "state_province": "Oregon",
    "postal_code": "97214-2134",
    "country": "United States",
    "longitude": -122.6655236,
    "latitude": 45.5160413,
    "phone": "5032326585",
    "website_url": "http://www.hairofthedog.com",
    "state": "Oregon",
    "street": "61 SE Yamhill St"
  },
  {
    "id": "cf1d9929-1881-4f8c-b4e2-9aefe750cc16",
    "name": "Hairless Hare Brewery",
    "brewery_type": "micro",
    "address_1": "738 W National Rd",
    "address_2": null,
    "address_3": null,
    "city": "Vandalia",
    "state_province": "Ohio",
    "postal_code": "45377-1015",
    "country": "United States",
    "longitude": null,
    "latitude": null,
    "phone": "9373876476",
    "website_url": "http://www.hairlessharebrewery.com",
    "state": "Ohio",
    "street": "738 W National Rd"
  },
  {
    "id": "99379a99-f52f-4a6a-b966-073e30fa8c1b",
    "name": "Hairy Cow Brewing Co, LLC",
    "brewery_type": "planning",
    "address_1": null,
    "address_2": null,
    "address_3": null,
    "city": "Byron",
    "state_province": "Illinois",
    "postal_code": "61010",
    "country": "United States",
    "longitude": null,
    "latitude": null,
    "phone": "8152432866",
    "website_url": "http://www.hairycowbrewing.com",
    "state": "Illinois",
    "street": null
  },
  {
    "id": "593a9ce4-520b-458f-a184-05debb3a7295",
    "name": "Hale's Ales Brewery and Pub",
    "brewery_type": "micro",
    "address_1": "4301 Leary Way NW",
    "address_2": null,
    "address_3": null,
    "city": "Seattle",
    "state_province": "Washington",
    "postal_code": "98107-4538",
    "country": "United States",
    "longitude": -122.3655909,
    "latitude": 47.6592451,
    "phone": "2069632118",
    "website_url": "http://www.halesbrewery.com",
    "state": "Washington",
    "street": "4301 Leary Way NW"
  },
  {
    "id": "49cf8feb-2997-4da6-99ba-6c2228ffaab1",
    "name": "Half Acre Beer Co",
    "brewery_type": "regional",
    "address_1": "4257 N Lincoln Ave",
    "address_2": null,
    "address_3": null,
    "city": "Chicago",
    "state_province": "Illinois",
    "postal_code": "60618-2953",
    "country": "United States",
    "longitude": -87.6820201,
    "latitude": 41.9591945,
    "phone": "7737548488",
    "website_url": "http://www.halfacrebeer.com",
    "state": "Illinois",
    "street": "4257 N Lincoln Ave"
  },
  {
    "id": "545394a7-58c6-4c11-92a8-c9218ebc82c7",
    "name": "Half Barrel Beer Project",
    "brewery_type": "brewpub",
    "address_1": "9650 Universal Blvd Ste 143",
    "address_2": null,
    "address_3": null,
    "city": "Orlando",
    "state_province": "Florida",
    "postal_code": "32819-9383",
    "country": "United States",
    "longitude": -81.46606722,
    "latitude": 28.43441073,
    "phone": "4072033946",
    "website_url": "http://www.halfbarrelproject.com",
    "state": "Florida",
    "street": "9650 Universal Blvd Ste 143"
  },
  {
    "id": "499f13b4-35de-4566-8817-15573433a453",
    "name": "Half Batch Brewing",
    "brewery_type": "micro",
    "address_1": "393 E Main St Suite 6A",
    "address_2": null,
    "address_3": null,
    "city": "Hendersonville",
    "state_province": "Tennessee",
    "postal_code": "37075-2575",
    "country": "United States",
    "longitude": null,
    "latitude": null,
    "phone": "6153394527",
    "website_url": "http://halfbatchbrewing.com",
    "state": "Tennessee",
    "street": "393 E Main St Suite 6A"
  }
]