[
  {
    "id": "ece6204a-29eb-47e1-868d-55c2a78bc06c",
    "name": "Upslope Brewing Company - Lee Hill",
    "brewery_type": "regional",
    "address_1": "1501 Lee Hill Rd Unit 20",
    "address_2": null,
    "address_3": null,
    "city": "Boulder",
    "state_province": "Colorado",
    "postal_code": "80304-5602",
    "country": "United States",
    "longitude": null,
    "latitude": null,
    "phone": "3033961898",
    "website_url": "http://www.upslopebrewing.com",
    "state": "Colorado",
    "street": "1501 Lee Hill Rd Unit 20"
  },
  {
    "id": "4a555dfb-ea6b-4ee5-bc6a-fae6b0dd8395",
    "name": "Upstate Brewing Co",
    "brewery_type": "micro",
    "address_1": "3028 Lake Rd",
    "address_2": null,
    "address_3": null,
    "city": "Elmira",
    "state_province": "New York",
    "postal_code": "14903-1409",
    "country": "United States",
    "longitude": null,
    "latitude": null,
    "phone": "6175198381",
    "website_url": "http://www.upstatebrewing.com",
    "state": "New York",
    "street": "3028 Lake Rd"
  },
  {
    "id": "aafdae25-0224-4d28-a276-9031cc550066",
    "name": "Upstate Craft Beer Company",
    "brewery_type": "brewpub",
    "address_1": "400 Augusta St Ste 120",
    "address_2": null,
    "address_3": null,
    "city": "Greenville",
    "state_province": "South Carolina",
    "postal_code": "29601-3552",
    "country": "United States",
    "longitude": null,
    "latitude": null,
    "phone": "8646094590",
    "website_url": "http://www.upstatecraftbeer.com",
    "state": "South Carolina",
    "street": "400 Augusta St Ste 120"
  },
  {
    "id": "076ee5fa-1801-4360-9727-3a3620c1013d",
    "name": "Upstream Brewing Co (#1)",
    "brewery_type": "brewpub",
    "address_1": "514 S 11th St",
    "address_2": null,
    "address_3": null,
    "city": "Omaha",
    "state_province": "Nebraska",
    "postal_code": "68102-2808",
    "country": "United States",
    "longitude": -95.9308408,
    "latitude": 41.2547107,
    "phone": "4023440200",
    "website_url": "http://www.upstreambrewing.com",
    "state": "Nebraska",
    "street": "514 S 11th St"
  },
  {
    "id": "422294e8-cbf4-4e06-8983-603bf57b5a55",
    "name": "Uptown Brewing Co",
    "brewery_type": "micro",
    "address_1": "418 Evans St",
    "address_2": null,
    "address_3": null,
    "city": "Greenville",
    "state_province": "North Carolina",
    "postal_code": "27858-1834",
    "country": "United States",
    "longitude": null,
    "latitude": null,
    "phone": "2526712633",
    "website_url": "http://www.uptownbrewingcompany.com",
    "state": "North Carolina",
    "street": "418 Evans St"
  },
  {
    "id": "b754ef5f-2b82-4523-b2e8-42df9d6a9b63",
    "name": "Uptown Market Brewing",
    "brewery_type": "micro",
    "address_1": "6620 SW Scholls Ferry Rd",
    "address_2": null,
    "address_3": null,
    "city": "Portland",
    "state_province": "Oregon",
    "postal_code": "97223-7166",
    "country": "United States",
    "longitude": -122.7423002,
    "latitude": 45.4958797,
    "phone": "5033364783",
    "website_url": "http://www.uptownmarketpdx.com",
    "state": "Oregon",
    "street": "6620 SW Scholls Ferry Rd"
  },
  {
    "id": "e10497e6-85a6-4ed8-a643-80696a566375",
    "name": "Upward Brewing Co.",
    "brewery_type": "planning",
    "address_1": null,
    "address_2": null,
    "address_3": null,
    "city": "Livingston Manor",
    "state_province": "New York",
    "postal_code": "12758-",
    "country": "United States",
    "longitude": null,
    "latitude": null,
    "phone": "8457980471",
    "website_url": "http://www.upwardbrewing.com",
    "state": "New York",
    "street": null
  },
  {
    "id": "7b2fe435-2c61-4045-a631-c87c309ca8c2",
    "name": "Uranus Brewery",
    "brewery_type": "planning",
    "address_1": null,
    "address_2": null,
    "address_3": null,
    "city": "Saint Robert",
    "state_province": "Missouri",
    "postal_code": "65584",
    "country": "United States",
    "longitude": null,
    "latitude": null,
    "phone": "5735282924",
    "website_url": "http://www.UranusMissouri.com",
    "state": "Missouri",
    "street": null
  },
  {
    "id": "c5f18c89-13af-4176-8e2d-9c58ffa7c4b2",
    "name": "Urban Artifact",
    "brewery_type": "micro",
    "address_1": "1660 Blue Rock St",
    "address_2": null,
    "address_3": null,
    "city": "Cincinnati",
    "state_province": "Ohio",
    "postal_code": "45223-2554",
    "country": "United States",
    "longitude": -84.54196282,
    "latitude": 39.1607827,
    "phone": null,
    "website_url": "http://www.artifactbeer.com",
    "state": "Ohio",
    "street": "1660 Blue Rock St"
  },
  {
    "id": "f336bf99-b21e-41ae-8c4a-717e66d35b93",
    "name": "Urban Chestnut Brewing Co",
    "brewery_type": "regional",
    "address_1": "4465 Manchester Ave",
    "address_2": null,
    "address_3": null,
    "city": "Saint Louis",
    "state_province": "Missouri",
    "postal_code": "63110-2113",
    "country": "United States",
    "longitude": -90.261143,
    "latitude": 38.626662,
    "phone": "3142220143",
    "website_url": "http://www.urbanchestnut.com",
    "state": "Missouri",
    "street": "4465 Manchester Ave"
  },
  {
    "id": "779fbf58-ba7b-4f78-858c-db3a19aa6a04",
    "name": "Urban Comfort Restaurant and Brewery",
    "brewery_type": "brewpub",
    "address_1": "2601 Central Ave",
    "address_2": null,
    "address_3": null,
    "city": "Saint Petersburg",
    "state_province": "Florida",
    "postal_code": "33713-8722",
    "country": "United States",
    "longitude": -82.668678,
    "latitude": 27.771098,
    "phone": "7272018157",
    "website_url": "http://www.urbancomfortstpete.com",
    "state": "Florida",
    "street": "2601 Central Ave"
  },
  {
    "id": "41359b46-ffc7-49db-ac25-7da9551462c0",
    "name": "Urban Family Brewing",
    "brewery_type": "micro",
    "address_1": "4441 26th Ave W",
    "address_2": null,
    "address_3": null,
    "city": "Seattle",
    "state_province": "Washington",
    "postal_code": "98199-1218",
    "country": "United States",
    "longitude": -122.3902975,
    "latitude": 47.6605861,
    "phone": "2069468533",
    "website_url": "http://www.urbanfamilybrewing.com",
    "state": "Washington",
    "street": "4441 26th Ave W"
  },
  {
    "id": "4b3ddf69-f7b2-4292-8966-2fca894c87b1",
    "name": "Urban Growler Brewing Co",
    "brewery_type": "brewpub",
    "address_1": "2325 Endicott St",
    "address_2": null,
    "address_3": null,
    "city": "Saint Paul",
    "state_province": "Minnesota",
    "postal_code": "55114-1223",
    "country": "United States",
    "longitude": -93.19284766,
    "latitude": 44.9701392,
    "phone": "6513405793",
    "website_url": "http://www.urbangrowlerbrewing.com",
    "state": "Minnesota",
    "street": "2325 Endicott St"
  },
  {
    "id": "28b9934a-0dcf-40eb-9a9c-815e9f3eb62b",
    "name": "Urban Harvest Brewing Company",
    "brewery_type": "micro",
    "address_1": "1024 S 5th St",
    "address_2": null,
    "address_3": null,
    "city": "Milwaukee",
    "state_province": "Wisconsin",
    "postal_code": "53204-1733",
    "country": "United States",
    "longitude": -87.91672749,
    "latitude": 43.02080941,
    "phone": "4142494074",
    "website_url": "http://www.urbanharvestbrewing.com",
    "state": "Wisconsin",
    "street": "1024 S 5th St"
  },
  {
    "id": "9000f7f7-dc89-442b-9e22-9a9cbf9ddd0d",
    "name": "Urban Lodge Brewery",
    "brewery_type": "brewpub",
    "address_1": "415 N Benton Dr",
    "address_2": null,
    "address_3": null,
    "city": "Sauk Rapids",
    "state_province": "Minnesota",
    "postal_code": "56379-1534",
    "country": "United States",
    "longitude": -94.1628025,
    "latitude": 45.58571953,
    "phone": "3202815454",
    "website_url": "http://urbanlodgebrewery.com",
    "state": "Minnesota",
    "street": "415 N Benton Dr"
  },
  {
    "id": "716c0a61-1880-4229-a2bf-41f061eb6d69",
    "name": "Urban Renewal Brewery",
    "brewery_type": "planning",
    "address_1": null,
    "address_2": null,
    "address_3": null,
    "city": "Chicago",
    "state_province": "Illinois",
    "postal_code": "60640",
    "country": "United States",
    "longitude": null,
    "latitude": null,
    "phone": "7744874619",
    "website_url": "http://www.urbanrenewbrew.com",
    "state": "Illinois",
    "street": null
  },
  {
    "id": "bb7f7dc2-64dc-4d59-a13a-8162440a3f5a",
    "name": "Urban Research Brewery",
    "brewery_type": "brewpub",
    "address_1": "4501 Manchester Ave",
    "address_2": null,
    "address_3": null,
    "city": "Saint Louis",
    "state_province": "Missouri",
    "postal_code": "63110-2113",
    "country": "United States",
    "longitude": -90.274034,
    "latitude": 38.627933,
    "phone": "3144740935",
    "website_url": "http://www.urbpizzaandbeer.com",
    "state": "Missouri",
    "street": "4501 Manchester Ave"
  },
  {
    "id": "8a5276f4-1004-462f-8d1e-3adf53125343",
    "name": "Urban Roots Brewing",
    "brewery_type": "brewpub",
    "address_1": "1322 V St",
    "address_2": null,
    "address_3": null,
    "city": "Sacramento",
    "state_province": "California",
    "postal_code": "95818-1418",
    "country": "United States",
    "longitude": -121.4945908,
    "latitude": 38.56579627,
    "phone": "9167063741",
    "website_url": "http://www.urbanrootsbrewing.com",
    "state": "California",
    "street": "1322 V St"
  },
  {
    "id": "bfbcc407-1328-4791-bf71-7cc77e2a5feb",
    "name": "Urban South Brewery",
    "brewery_type": "micro",
    "address_1": "1645 Tchoupitoulas St",
    "address_2": null,
    "address_3": null,
    "city": "New Orleans",
    "state_province": "Louisiana",
    "postal_code": "70130-1852",
    "country": "United States",
    "longitude": -90.0666607,
    "latitude": 29.9296799,
    "phone": null,
    "website_url": "http://www.urbansouthbrewery.com",
    "state": "Louisiana",
    "street": "1645 Tchoupitoulas St"
  },
  {
    "id": "7eb42505-4dd3-452f-847b-2bf8f2155a79",
    "name": "Urban Village Brewing Company",
    "brewery_type": "brewpub",
    "address_1": "1001 N 2nd St",
    "address_2": null,
    "address_3": null,
    "city": "Philadelphia",
    "state_province": "Pennsylvania",
    "postal_code": "19123-1612",
    "country": "United States",
    "longitude": -75.1400237,
    "latitude": 39.9662701,
    "phone": "2676871961",
    "website_url": "http://www.urbanvillagebrewing.com",
    "state": "Pennsylvania",
    "street": "1001 N 2nd St"
  },
  {
    "id": "eae54355-ebca-400e-a9d9-7ce4ce866341",
    "name": "Urbanrest Brewing Company",
    "brewery_type": "micro",
    "address_1": "2615 Wolcott St",
    "address_2": null,
    "address_3": null,
    "city": "Ferndale",
    "state_province": "Michigan",
    "postal_code": "48220-1422",
    "country": "United States",
    "longitude": -83.1274188,
    "latitude": 42.4679929,
    "phone": null,
    "website_url": "http://www.urbanrest.com",
    "state": "Michigan",
    "street": "2615 Wolcott St"
  },
  {
    "id": "e16cb5ff-1d95-4cae-9719-ff9951b746a3",
    "name": "Urge Gastropub & Common House/Mason Ale Works",
    "brewery_type": "brewpub",
    "address_1": "255 Redel Rd",
    "address_2": null,
    "address_3": null,
    "city": "San Marcos",
    "state_province": "California",
    "postal_code": "92078-4347",
    "country": "United States",
    "longitude": -117.158627,
    "latitude": 33.135679,
    "phone": null,
    "website_url": null,
    "state": "California",
    "street": "255 Redel Rd"
  },
  {
    "id": "9b0f39aa-f7db-4378-a80c-7cfc88541776",
    "name": "Ursa Minor Brewing",
    "brewery_type": "planning",
    "address_1": null,
    "address_2": null,
    "address_3": null,
    "city": "Duluth",
    "state_province": "Minnesota",
    "postal_code": "55806",
    "country": "United States",
    "longitude": null,
    "latitude": null,
    "phone": "2182690537",
    "website_url": "http://www.ursaminorbrewing.com",
    "state": "Minnesota",
    "street": null
  },
  {
    "id": "3ce0ed18-9044-4ffa-9b18-366d0cbc657e",
    "name": "Ursula Brewery",
    "brewery_type": "micro",
    "address_1": "2101 N Ursula St Unit 10",
    "address_2": null,
    "address_3": null,
    "city": "Aurora",
    "state_province": "Colorado",
    "postal_code": "80045-7448",
    "country": "United States",
    "longitude": null,
    "latitude": null,
    "phone": "7203248529",
    "website_url": "http://www.ursulabrewery.com",
    "state": "Colorado",
    "street": "2101 N Ursula St Unit 10"
  },
  {
    "id": "f478a38b-fc50-485e-94ed-043655e2a716",
    "name": "US Beer Brewers At the Cellar Door",
    "brewery_type": "brewpub",
    "address_1": "17 W Cayuga St",
    "address_2": null,
    "address_3": null,
    "city": "Oswego",
    "state_province": "New York",
    "postal_code": "13126-4000",
    "country": "United States",
    "longitude": -76.51260925,
    "latitude": 43.45769813,
    "phone": "3152072381",
    "website_url": "http://www.usbeerbrewers.beer",
    "state": "New York",
    "street": "17 W Cayuga St"
  },
  {
    "id": "968d9c63-9c9b-4456-bb34-4c5b0eb255c0",
    "name": "Utah Brewers Cooperative",
    "brewery_type": "regional",
    "address_1": "1735 S 300 W",
    "address_2": null,
    "address_3": null,
    "city": "Salt Lake City",
    "state_province": "Utah",
    "postal_code": "84115-1802",
    "country": "United States",
    "longitude": -111.8993199,
    "latitude": 40.73267145,
    "phone": "8014668855",
    "website_url": "http://www.wasatchbeers.com",
    "state": "Utah",
    "street": "1735 S 300 W"
  },
  {
    "id": "41ade603-cf7a-4991-8ae9-bd87d8d9f56d",
    "name": "Ute Pass Brewing Co",
    "brewery_type": "brewpub",
    "address_1": "209 E Midland Ave",
    "address_2": null,
    "address_3": null,
    "city": "Woodland Park",
    "state_province": "Colorado",
    "postal_code": "80863-3101",
    "country": "United States",
    "longitude": -105.0513357,
    "latitude": 38.9944899,
    "phone": "7196868722",
    "website_url": "http://www.utepassbrewingcompany.com",
    "state": "Colorado",
    "street": "209 E Midland Ave"
  },
  {
    "id": "9ba3356c-8888-410b-ac2e-1f0550aeb43f",
    "name": "Utepils Brewing Co",
    "brewery_type": "micro",
    "address_1": "225 Thomas Ave N Apt 700",
    "address_2": null,
    "address_3": null,
    "city": "Minneapolis",
    "state_province": "Minnesota",
    "postal_code": "55405-3397",
    "country": "United States",
    "longitude": null,
    "latitude": null,
    "phone": "6122497800",
    "website_url": "http://www.utepilsbrewing.com",
    "state": "Minnesota",
    "street": "225 Thomas Ave N Apt 700"
  },
  {
    "id": "cfd51d05-11a3-487f-af99-ce3ce3f4ee2f",
    "name": "Utility Brewing Company",
    "brewery_type": "brewpub",
    "address_1": "206 N. Vienna Street",
    "address_2": null,
    "address_3": null,
    "city": "Ruston",
    "state_province": "Louisiana",
    "postal_code": "71270",
    "country": "United States",
    "longitude": -92.63790404,
    "latitude": 32.52986335,
    "phone": null,
    "website_url": "http://www.utilitybrewing.com",
    "state": "Louisiana",
    "street": "206 N. Vienna Street"
  },
  {
    "id": "73fdbccc-dbf8-4b7d-bf03-49c0e4a4e28a",
    "name": "UTOG Brewing Company",
    "brewery_type": "brewpub",
    "address_1": "2331 Grant Ave",
    "address_2": null,
    "address_3": null,
    "city": "Ogden",
    "state_province": "Utah",
    "postal_code": "84401-1407",
    "country": "United States",
    "longitude": -111.973557,
    "latitude": 41.224087,
    "phone": "8016893476",
    "website_url": "http://www.utogbrewing.com",
    "state": "Utah",
    "street": "2331 Grant Ave"
  },
  {
    "id": "16af6b57-7519-47f6-a119-2e045a870fdd",
    "name": "Uturn BBQ",
    "brewery_type": "brewpub",
    "address_1": "599 Crossing Dr",
    "address_2": null,
    "address_3": null,
    "city": "Lafayette",
    "state_province": "Colorado",
    "postal_code": "80026-1797",
    "country": "United States",
    "longitude": -105.1016163,
    "latitude": 40.0035307,
    "phone": "3039936033",
    "website_url": "http://www.uturnbbq.com",
    "state": "Colorado",
    "street": "599 Crossing Dr"
  },
  {
    "id": "c9130fd3-a4f7-42f1-bc3f-fcfb74a945d1",
    "name": "V Twin Brewing Company",
    "brewery_type": "micro",
    "address_1": "2302 N Argonne Rd Ste H",
    "address_2": null,
    "address_3": null,
    "city": "Spokane",
    "state_province": "Washington",
    "postal_code": "99212-2366",
    "country": "United States",
    "longitude": -117.28198920193,
    "latitude": 47.677936474053,
    "phone": "5098680182",
    "website_url": "http://www.facebook.com/vtwinbrewingco",
    "state": "Washington",
    "street": "2302 N Argonne Rd Ste H"
  },
  {
    "id": "4a20bd57-f979-4ad8-82a4-4da5b02f8147",
    "name": "V's Restaurant and Brewpub",
    "brewery_type": "brewpub",
    "address_1": "3461 Main St",
    "address_2": null,
    "address_3": null,
    "city": "Keokuk",
    "state_province": "Iowa",
    "postal_code": "52632-2227",
    "country": "United States",
    "longitude": -91.40894211,
    "latitude": 40.42055614,
    "phone": "3193138384",
    "website_url": null,
    "state": "Iowa",
    "street": "3461 Main St"
  },
  {
    "id": "bcc9f869-4952-4137-a502-5ac716b0a360",
    "name": "Vadia",
    "brewery_type": "brewpub",
    "address_1": "Rua Comendador Artur J. G. Barbosa n\u00ba576",
    "address_2": null,
    "address_3": null,
    "city": "Oliveira de Azemeis",
    "state_province": "Aveiro",
    "postal_code": "3720-005",
    "country": "Portugal",
    "longitude": 40.841334616245,
    "latitude": -8.4342709768244,
    "phone": "+351 256 482 151",
    "website_url": "https://www.cervejavadia.pt",
    "state": "Aveiro",
    "street": "Rua Comendador Artur J. G. Barbosa n\u00ba576"
  },
  {
    "id": "f460d4f3-c666-425d-83b6-36692195ea49",
    "name": "Vagabond Brewing",
    "brewery_type": "brewpub",
    "address_1": "2195 Hyacinth St NE Ste 172",
    "address_2": null,
    "address_3": null,
    "city": "Salem",
    "state_province": "Oregon",
    "postal_code": "97301-3118",
    "country": "United States",
    "longitude": -123.0010873,
    "latitude": 44.9820399,
    "phone": "5035129007",
    "website_url": "http://www.vagabondbrewing.com",
    "state": "Oregon",
    "street": "2195 Hyacinth St NE Ste 172"
  },
  {
    "id": "093d96cf-2aa2-41f1-a941-39f7f16b37fa",
    "name": "Vail Brewing Company",
    "brewery_type": "micro",
    "address_1": "41290 US Hwy 6",
    "address_2": null,
    "address_3": null,
    "city": "Vail",
    "state_province": "Colorado",
    "postal_code": "81657",
    "country": "United States",
    "longitude": null,
    "latitude": null,
    "phone": "9704704351",
    "website_url": "http://www.vailbrewingco.com",
    "state": "Colorado",
    "street": "41290 US Hwy 6"
  },
  {
    "id": "d2fa1ab7-b50a-4ffb-ab59-daa4110e1193",
    "name": "Valcour Brewing Company LLC",
    "brewery_type": "micro",
    "address_1": "49 Ohio Rd",
    "address_2": null,
    "address_3": null,
    "city": "Plattsburgh",
    "state_province": "New York",
    "postal_code": "12903-4409",
    "country": "United States",
    "longitude": null,
    "latitude": null,
    "phone": "5183242337",
    "website_url": "http://www.valcourbrewery.com",
    "state": "New York",
    "street": "49 Ohio Rd"
  },
  {
    "id": "6e193741-61b7-4cc8-9731-45770307547a",
    "name": "Valholl Brewing Company",
    "brewery_type": "micro",
    "address_1": "18970 3rd Ave",
    "address_2": null,
    "address_3": null,
    "city": "Poulsbo",
    "state_province": "Washington",
    "postal_code": "98370",
    "country": "United States",
    "longitude": -122.64536831727,
    "latitude": 47.735288075943,
    "phone": "3609300172",
    "website_url": "http://www.valhollbrewing.com",
    "state": "Washington",
    "street": "18970 3rd Ave"
  },
  {
    "id": "f009d054-be17-483a-a58c-d7f9021aea80",
    "name": "Valkyrie Brewing",
    "brewery_type": "micro",
    "address_1": "234 W Dallas St",
    "address_2": null,
    "address_3": null,
    "city": "Dallas",
    "state_province": "Wisconsin",
    "postal_code": "54733-9706",
    "country": "United States",
    "longitude": null,
    "latitude": null,
    "phone": "7158371824",
    "website_url": "http://www.valkyriebrewery.com",
    "state": "Wisconsin",
    "street": "234 W Dallas St"
  },
  {
    "id": "be1fa1c4-ec5e-4cde-bf24-96858b2bc560",
    "name": "Vallensons Brewing Co.",
    "brewery_type": "micro",
    "address_1": "4081 Rice Drier Road",
    "address_2": null,
    "address_3": null,
    "city": "Pearland",
    "state_province": "Texas",
    "postal_code": "77581",
    "country": "United States",
    "longitude": -95.28716205,
    "latitude": 29.57569295,
    "phone": "2817054063",
    "website_url": "http://www.vallensons.com",
    "state": "Texas",
    "street": "4081 Rice Drier Road"
  },
  {
    "id": "9a1bed12-a9be-4b59-a4b3-7760ed7380a8",
    "name": "Valley Brewing Co",
    "brewery_type": "micro",
    "address_1": "3215 River Rd",
    "address_2": null,
    "address_3": null,
    "city": "Yakima",
    "state_province": "Washington",
    "postal_code": "98902-1142",
    "country": "United States",
    "longitude": -120.553068,
    "latitude": 46.618456,
    "phone": "5099495944",
    "website_url": "http://www.valleybrewingco.com",
    "state": "Washington",
    "street": "3215 River Rd"
  },
  {
    "id": "49044ec6-74fc-4cca-8225-64035cec3922",
    "name": "Valley Brewing Co",
    "brewery_type": "brewpub",
    "address_1": "157 W Adams St",
    "address_2": null,
    "address_3": null,
    "city": "Stockton",
    "state_province": "California",
    "postal_code": "95204-5337",
    "country": "United States",
    "longitude": -121.300391,
    "latitude": 37.97295175,
    "phone": "2094642739",
    "website_url": "http://www.valleybrew.com",
    "state": "California",
    "street": "157 W Adams St"
  },
  {
    "id": "ee527ffb-6e85-4a38-856c-10db17bb4b7e",
    "name": "Valley House Brewing",
    "brewery_type": "brewpub",
    "address_1": "16111 Main St NE",
    "address_2": null,
    "address_3": null,
    "city": "Duvall",
    "state_province": "Washington",
    "postal_code": "98019-8490",
    "country": "United States",
    "longitude": -121.9858846,
    "latitude": 47.74315286,
    "phone": "4253186363",
    "website_url": "http://www.valleyhousebrewing.com",
    "state": "Washington",
    "street": "16111 Main St NE"
  },
  {
    "id": "0d4174b9-66de-4f8c-8e61-8a5d38f3a999",
    "name": "Valley River Brewery & Eatery",
    "brewery_type": "brewpub",
    "address_1": "71 Tennessee St",
    "address_2": null,
    "address_3": null,
    "city": "Murphy",
    "state_province": "North Carolina",
    "postal_code": "28906-2938",
    "country": "United States",
    "longitude": -84.03520817,
    "latitude": 35.08890404,
    "phone": "8288372337",
    "website_url": "http://www.valleyriverbrewery.com",
    "state": "North Carolina",
    "street": "71 Tennessee St"
  },
  {
    "id": "76aca7b3-9521-49b0-bc20-96fa67e4b42f",
    "name": "Valley Vineyards Winery & Cellar Dweller Brewing",
    "brewery_type": "brewpub",
    "address_1": "2276 E US Highway 22 and 3",
    "address_2": null,
    "address_3": null,
    "city": "Morrow",
    "state_province": "Ohio",
    "postal_code": "45152-9414",
    "country": "United States",
    "longitude": null,
    "latitude": null,
    "phone": "5138992485",
    "website_url": "http://www.valleyvineyards.com",
    "state": "Ohio",
    "street": "2276 E US Highway 22 and 3"
  },
  {
    "id": "032e8235-e88f-4a5c-97a5-77e536a29e2d",
    "name": "Van Der Brew",
    "brewery_type": "planning",
    "address_1": null,
    "address_2": null,
    "address_3": null,
    "city": "Winthrop",
    "state_province": "Maine",
    "postal_code": "04364-1253",
    "country": "United States",
    "longitude": null,
    "latitude": null,
    "phone": "2074411102",
    "website_url": null,
    "state": "Maine",
    "street": null
  },
  {
    "id": "729aa416-177d-4e58-8700-9e9c51d6808d",
    "name": "Vander Mill",
    "brewery_type": "brewpub",
    "address_1": "505 Ball Ave NE",
    "address_2": null,
    "address_3": null,
    "city": "Grand Rapids",
    "state_province": "Michigan",
    "postal_code": "49503-2011",
    "country": "United States",
    "longitude": -85.6305954,
    "latitude": 42.9712724,
    "phone": "6162598828",
    "website_url": "http://www.vandermill.com",
    "state": "Michigan",
    "street": "505 Ball Ave NE"
  },
  {
    "id": "d9579c97-3ecd-4133-922a-d1bc5dc58b31",
    "name": "Vanessa House Beer Company",
    "brewery_type": "micro",
    "address_1": "118 NW 8th St",
    "address_2": null,
    "address_3": null,
    "city": "Oklahoma City",
    "state_province": "Oklahoma",
    "postal_code": "73107-5723",
    "country": "United States",
    "longitude": -97.515375,
    "latitude": 35.475896,
    "phone": "4057249330",
    "website_url": "http://www.vanessahousebeerco.com",
    "state": "Oklahoma",
    "street": "118 NW 8th St"
  },
  {
    "id": "8b6d0375-b572-4b21-9a81-504aa91d39c5",
    "name": "Vanguard Brewing Company",
    "brewery_type": "micro",
    "address_1": "27501 SW 95th Ave Ste 945",
    "address_2": null,
    "address_3": null,
    "city": "Wilsonville",
    "state_province": "Oregon",
    "postal_code": "97070-5705",
    "country": "United States",
    "longitude": -122.7733742,
    "latitude": 45.3211582,
    "phone": "5039293774",
    "website_url": "http://www.vanguardbrewing.com",
    "state": "Oregon",
    "street": "27501 SW 95th Ave Ste 945"
  },
  {
    "id": "4e1f9466-2173-458d-b58d-0656112eb918",
    "name": "Vanish Farmwoods Brewery",
    "brewery_type": "brewpub",
    "address_1": "42245  Black Hops Ln",
    "address_2": null,
    "address_3": null,
    "city": "Leesburg",
    "state_province": "Virginia",
    "postal_code": "20176-5498",
    "country": "United States",
    "longitude": null,
    "latitude": null,
    "phone": "7037797407",
    "website_url": "http://vanishbeer.com",
    "state": "Virginia",
    "street": "42245  Black Hops Ln"
  }
]