[
  {
    "id": "7104bc4a-20af-46c5-9f5f-eca71eddbf9e",
    "name": "Rivals Sports Grille",
    "brewery_type": "contract",
    "address_1": "6710 Smith Rd",
    "address_2": null,
    "address_3": null,
    "city": "Middleburg Heights",
    "state_province": "Ohio",
    "postal_code": "44130-2656",
    "country": "United States",
    "longitude": -81.80433472,
    "latitude": 41.38531549,
    "phone": "2162670005",
    "website_url": "http://www.rivalscleveland.com",
    "state": "Ohio",
    "street": "6710 Smith Rd"
  },
  {
    "id": "7a724ea4-eab4-434c-ac98-25b39a1c8b05",
    "name": "River Barge Brewing",
    "brewery_type": "brewpub",
    "address_1": "71 Grovedale Ln",
    "address_2": null,
    "address_3": null,
    "city": "Wyalusing",
    "state_province": "Pennsylvania",
    "postal_code": "18853-7854",
    "country": "United States",
    "longitude": null,
    "latitude": null,
    "phone": "5707461400",
    "website_url": "http://www.riverbargebrewing.com",
    "state": "Pennsylvania",
    "street": "71 Grovedale Ln"
  },
  {
    "id": "aede08a5-8286-46f7-b426-90a21ba259cb",
    "name": "River Bend Brewing",
    "brewery_type": "closed",
    "address_1": "113 River Bend Rd",
    "address_2": null,
    "address_3": null,
    "city": "Hailey",
    "state_province": "Idaho",
    "postal_code": "83333-",
    "country": "United States",
    "longitude": null,
    "latitude": null,
    "phone": "2087888087",
    "website_url": null,
    "state": "Idaho",
    "street": "113 River Bend Rd"
  },
  {
    "id": "49d641f4-8390-4ba4-bfe1-ee5f7a16d220",
    "name": "River Bend Hop Farm And Brewery",
    "brewery_type": "micro",
    "address_1": "1800 Lower Bailey Rd",
    "address_2": null,
    "address_3": null,
    "city": "Newport",
    "state_province": "Pennsylvania",
    "postal_code": "17074-7622",
    "country": "United States",
    "longitude": null,
    "latitude": null,
    "phone": "7173156764",
    "website_url": "http://www.riverbendhopfarmandbrewery.com",
    "state": "Pennsylvania",
    "street": "1800 Lower Bailey Rd"
  },
  {
    "id": "f292442b-c5ce-457d-bb84-371e4189d687",
    "name": "River Bluff Brewing",
    "brewery_type": "micro",
    "address_1": "1224 Frederick Ave",
    "address_2": null,
    "address_3": null,
    "city": "St Joseph",
    "state_province": "Missouri",
    "postal_code": "64501-2334",
    "country": "United States",
    "longitude": -94.844399,
    "latitude": 39.770343,
    "phone": "8162595339",
    "website_url": "http://www.riverbluffbrew.com",
    "state": "Missouri",
    "street": "1224 Frederick Ave"
  },
  {
    "id": "8b916006-84bf-455e-8aa8-7590e4c72bc8",
    "name": "River Bottoms Brewing Company",
    "brewery_type": "brewpub",
    "address_1": "12 W Benton St",
    "address_2": null,
    "address_3": null,
    "city": "Carrollton",
    "state_province": "Missouri",
    "postal_code": "64633",
    "country": "United States",
    "longitude": -93.497006,
    "latitude": 39.405185,
    "phone": "6603226110",
    "website_url": "http://www.riverbottomsbrewing.com",
    "state": "Missouri",
    "street": "12 W Benton St"
  },
  {
    "id": "431908ce-6f85-4d24-bf4a-da70495754a5",
    "name": "River City Brewing",
    "brewery_type": "micro",
    "address_1": "121 S Cedar St",
    "address_2": null,
    "address_3": null,
    "city": "Spokane",
    "state_province": "Washington",
    "postal_code": "99201-6500",
    "country": "United States",
    "longitude": -117.4323508,
    "latitude": 47.65605308,
    "phone": "9043982299",
    "website_url": "http://www.rivercitybrew.com",
    "state": "Washington",
    "street": "121 S Cedar St"
  },
  {
    "id": "a3c97ac8-ab6b-4812-b918-b5485ab461cb",
    "name": "River City Brewing Co",
    "brewery_type": "brewpub",
    "address_1": "150 N Mosley St",
    "address_2": null,
    "address_3": null,
    "city": "Wichita",
    "state_province": "Kansas",
    "postal_code": "67202-2804",
    "country": "United States",
    "longitude": null,
    "latitude": null,
    "phone": "3162632739",
    "website_url": "http://rivercitybrewingco.com",
    "state": "Kansas",
    "street": "150 N Mosley St"
  },
  {
    "id": "fcc98f37-d0d3-459f-8e38-85bf9d9367f0",
    "name": "River City Brewing Co",
    "brewery_type": "brewpub",
    "address_1": "835 Museum Cir",
    "address_2": null,
    "address_3": null,
    "city": "Jacksonville",
    "state_province": "Florida",
    "postal_code": "32207-9003",
    "country": "United States",
    "longitude": -81.66111727,
    "latitude": 30.31862639,
    "phone": "9043982299",
    "website_url": "http://www.rivercitybrewing.com",
    "state": "Florida",
    "street": "835 Museum Cir"
  },
  {
    "id": "db09f911-a566-463c-b6de-a42d540f4dd1",
    "name": "River City Brewing Co",
    "brewery_type": "brewpub",
    "address_1": "6241 Fair Oaks Blvd Ste G",
    "address_2": null,
    "address_3": null,
    "city": "Sacramento",
    "state_province": "California",
    "postal_code": "95814-3338",
    "country": "United States",
    "longitude": -121.3297812,
    "latitude": 38.61512607,
    "phone": "9165505093",
    "website_url": "http://www.rivercitybrewing.net",
    "state": "California",
    "street": "6241 Fair Oaks Blvd Ste G"
  },
  {
    "id": "a14fa9cd-bfe0-4c80-a928-0e8d97547e02",
    "name": "River Company Restaurant & Brewery Inc, The",
    "brewery_type": "brewpub",
    "address_1": "6633 Viscoe Rd",
    "address_2": null,
    "address_3": null,
    "city": "Fairlawn",
    "state_province": "Virginia",
    "postal_code": "24141-6903",
    "country": "United States",
    "longitude": -80.54498015,
    "latitude": 37.1460358,
    "phone": "5406333940",
    "website_url": "http://www.therivercompanybrewery.com",
    "state": "Virginia",
    "street": "6633 Viscoe Rd"
  },
  {
    "id": "d6dbff7d-aba1-4ff4-8c87-4aa479bbb8fb",
    "name": "River Dog Brewing Co",
    "brewery_type": "micro",
    "address_1": "591 Browns Cove Rd Unit H",
    "address_2": null,
    "address_3": null,
    "city": "Ridgeland",
    "state_province": "South Carolina",
    "postal_code": "29936-7281",
    "country": "United States",
    "longitude": null,
    "latitude": null,
    "phone": "8436452302",
    "website_url": "http://www.riverdogbrewing.com",
    "state": "South Carolina",
    "street": "591 Browns Cove Rd Unit H"
  },
  {
    "id": "3120822f-e867-44e5-b293-241fb32dcca7",
    "name": "River Hawk Brewing",
    "brewery_type": "micro",
    "address_1": "24735 W Eames St",
    "address_2": null,
    "address_3": null,
    "city": "Channahon",
    "state_province": "Illinois",
    "postal_code": "60410-8705",
    "country": "United States",
    "longitude": -88.21732025,
    "latitude": 41.43542539,
    "phone": "8152552202",
    "website_url": "http://www.riverhawkbrewing.com",
    "state": "Illinois",
    "street": "24735 W Eames St"
  },
  {
    "id": "fc966601-8786-44df-a2f0-3dc4c1ff566f",
    "name": "River Horse Brewing Company",
    "brewery_type": "micro",
    "address_1": "2 Graphics Dr",
    "address_2": null,
    "address_3": null,
    "city": "Ewing",
    "state_province": "New Jersey",
    "postal_code": "08628-1546",
    "country": "United States",
    "longitude": -74.79656178,
    "latitude": 40.2765378,
    "phone": "6098830890",
    "website_url": "http://www.riverhorse.com",
    "state": "New Jersey",
    "street": "2 Graphics Dr"
  },
  {
    "id": "e8c5b1f3-a823-485f-8f68-050c88adbe12",
    "name": "River Mile 38 Brewing Co",
    "brewery_type": "micro",
    "address_1": "285 3rd St",
    "address_2": null,
    "address_3": null,
    "city": "Cathlamet",
    "state_province": "Washington",
    "postal_code": "98612-9561",
    "country": "United States",
    "longitude": -123.3853742,
    "latitude": 46.2054338,
    "phone": "3603554662",
    "website_url": "http://www.rivermile38.com",
    "state": "Washington",
    "street": "285 3rd St"
  },
  {
    "id": "cbdb28e4-633a-4b27-95f9-f8383c53298c",
    "name": "River North Brewery",
    "brewery_type": "micro",
    "address_1": "6021 Washington St Unit A",
    "address_2": null,
    "address_3": null,
    "city": "Denver",
    "state_province": "Colorado",
    "postal_code": "80216-1153",
    "country": "United States",
    "longitude": null,
    "latitude": null,
    "phone": "7858656057",
    "website_url": "http://www.rivernorthbrewery.com",
    "state": "Colorado",
    "street": "6021 Washington St Unit A"
  },
  {
    "id": "48f9049b-e240-4e4f-80ae-d6e2ec181912",
    "name": "River North Brewery - RiNo",
    "brewery_type": "planning",
    "address_1": null,
    "address_2": null,
    "address_3": null,
    "city": "Denver",
    "state_province": "Colorado",
    "postal_code": "80205-2440",
    "country": "United States",
    "longitude": null,
    "latitude": null,
    "phone": "7858656057",
    "website_url": "http://www.rivernorthbrewery.com",
    "state": "Colorado",
    "street": null
  },
  {
    "id": "faf0e458-0f8c-4ad0-990a-e803c574a1e2",
    "name": "River of No Return Brewing Co",
    "brewery_type": "closed",
    "address_1": "810 S Hwy 93",
    "address_2": null,
    "address_3": null,
    "city": "Challis",
    "state_province": "Idaho",
    "postal_code": "83226",
    "country": "United States",
    "longitude": -114.224139,
    "latitude": 44.50008,
    "phone": "2088797667",
    "website_url": null,
    "state": "Idaho",
    "street": "810 S Hwy 93"
  },
  {
    "id": "b2800c76-3e90-4b98-8f0c-dc5d58a240dc",
    "name": "River Rat Brewery",
    "brewery_type": "brewpub",
    "address_1": "1231 Shop Rd",
    "address_2": null,
    "address_3": null,
    "city": "Columbia",
    "state_province": "South Carolina",
    "postal_code": "29201-4744",
    "country": "United States",
    "longitude": -81.01125386,
    "latitude": 33.97325589,
    "phone": "8037245712",
    "website_url": "http://www.riverratbrewery.com",
    "state": "South Carolina",
    "street": "1231 Shop Rd"
  },
  {
    "id": "49867107-1f94-468e-9a6f-4e5505b6ce9e",
    "name": "River Ridge Brewing",
    "brewery_type": "micro",
    "address_1": "303 S Riverview St",
    "address_2": null,
    "address_3": null,
    "city": "Bellevue",
    "state_province": "Iowa",
    "postal_code": "52031-1353",
    "country": "United States",
    "longitude": -90.4223409,
    "latitude": 42.2567622,
    "phone": "5632310299",
    "website_url": "http://www.riverridgebrewing.com",
    "state": "Iowa",
    "street": "303 S Riverview St"
  },
  {
    "id": "ccc58e3b-3eb4-4932-a843-afe6593ab96d",
    "name": "River Rock Brewery",
    "brewery_type": "micro",
    "address_1": "807 C St",
    "address_2": null,
    "address_3": null,
    "city": "Galt",
    "state_province": "California",
    "postal_code": "95632-1706",
    "country": "United States",
    "longitude": -121.3004126,
    "latitude": 38.2532789,
    "phone": "2093316071",
    "website_url": "http://riverrockbrewery.com",
    "state": "California",
    "street": "807 C St"
  },
  {
    "id": "3bcfdd00-3126-4d97-8a75-7236d477b6cf",
    "name": "River Roost Brewery",
    "brewery_type": "micro",
    "address_1": "230 S Main St",
    "address_2": null,
    "address_3": null,
    "city": "White River Junction",
    "state_province": "Vermont",
    "postal_code": "05001-7204",
    "country": "United States",
    "longitude": -72.31821547,
    "latitude": 43.64560685,
    "phone": null,
    "website_url": "http://www.riverroostbrewery.com",
    "state": "Vermont",
    "street": "230 S Main St"
  },
  {
    "id": "dd8e7ee8-f9d4-4f2b-8b74-dc76d840264e",
    "name": "River Rouge Brewing Company",
    "brewery_type": "micro",
    "address_1": "406 E 4th St",
    "address_2": null,
    "address_3": null,
    "city": "Royal Oak",
    "state_province": "Michigan",
    "postal_code": "48067-2757",
    "country": "United States",
    "longitude": -83.14059587,
    "latitude": 42.48726531,
    "phone": "2488020555",
    "website_url": "http://www.riverrougebrew.com",
    "state": "Michigan",
    "street": "406 E 4th St"
  },
  {
    "id": "f3aeb883-5ed4-41c2-a4da-0ca55516affd",
    "name": "River Styx Brewing",
    "brewery_type": "micro",
    "address_1": "166 Boulder Dr Ste 112",
    "address_2": null,
    "address_3": null,
    "city": "Fitchburg",
    "state_province": "Massachusetts",
    "postal_code": "01420-3168",
    "country": "United States",
    "longitude": -71.7946112,
    "latitude": 42.5817291,
    "phone": "9786965176",
    "website_url": "http://www.riverstyxbrewing.com",
    "state": "Massachusetts",
    "street": "166 Boulder Dr Ste 112"
  },
  {
    "id": "9d9082d8-b3f1-47c4-b068-b3b8a272b2b5",
    "name": "River Time Brewing",
    "brewery_type": "brewpub",
    "address_1": "650 Emens Ave S",
    "address_2": null,
    "address_3": null,
    "city": "Darrington",
    "state_province": "Washington",
    "postal_code": "98241",
    "country": "United States",
    "longitude": -121.6020402,
    "latitude": 48.24905291,
    "phone": "2674837411",
    "website_url": "http://www.rivertimebrewing.com",
    "state": "Washington",
    "street": "650 Emens Ave S"
  },
  {
    "id": "cad4e26e-fb01-4cda-be91-070fc3503e23",
    "name": "River's Edge Brewing Co",
    "brewery_type": "brewpub",
    "address_1": "125 S Main St Ste 400",
    "address_2": null,
    "address_3": null,
    "city": "Milford",
    "state_province": "Michigan",
    "postal_code": "48381-1976",
    "country": "United States",
    "longitude": null,
    "latitude": null,
    "phone": "2486851625",
    "website_url": "http://www.riversedgebrew.com",
    "state": "Michigan",
    "street": "125 S Main St Ste 400"
  },
  {
    "id": "d2f56aea-e533-4819-872d-f5ae1f7289f6",
    "name": "RiverBend Brewing Pub",
    "brewery_type": "closed",
    "address_1": "2650 NE Division St",
    "address_2": null,
    "address_3": null,
    "city": "Bend",
    "state_province": "Oregon",
    "postal_code": "97703-3569",
    "country": "United States",
    "longitude": -121.3051834,
    "latitude": 44.0760099,
    "phone": "5415507550",
    "website_url": "http://www.riverbendbrewing.com",
    "state": "Oregon",
    "street": "2650 NE Division St"
  },
  {
    "id": "5e7a1229-c739-4d88-8b72-b4b9fcb98ba0",
    "name": "Riverlands Brewing Company",
    "brewery_type": "micro",
    "address_1": "1860 Dean St St Unit A",
    "address_2": null,
    "address_3": null,
    "city": "Saint Charles",
    "state_province": "Illinois",
    "postal_code": "60174-4591",
    "country": "United States",
    "longitude": -88.337804389199,
    "latitude": 41.918785953533,
    "phone": "6305496293",
    "website_url": "http://www.riverlandsbrewing.com",
    "state": "Illinois",
    "street": "1860 Dean St St Unit A"
  },
  {
    "id": "302a399c-c230-4e4d-a906-c438f006d953",
    "name": "Rivermen Brewing Co",
    "brewery_type": "brewpub",
    "address_1": "1500 River Dr",
    "address_2": null,
    "address_3": null,
    "city": "Belmont",
    "state_province": "North Carolina",
    "postal_code": "28012-3586",
    "country": "United States",
    "longitude": -81.015546,
    "latitude": 35.240249,
    "phone": "7043634698",
    "website_url": "http://www.rivermenbrewingcompany.com",
    "state": "North Carolina",
    "street": "1500 River Dr"
  },
  {
    "id": "bce76e42-8b32-4f50-a8fd-81e718747856",
    "name": "Riverport Brewing Co",
    "brewery_type": "micro",
    "address_1": "150 9th St Ste B",
    "address_2": null,
    "address_3": null,
    "city": "Clarkston",
    "state_province": "Washington",
    "postal_code": "99403-1856",
    "country": "United States",
    "longitude": -117.04981946759,
    "latitude": 46.424885379979,
    "phone": "5097588889",
    "website_url": "http://www.riverportbrewing.com",
    "state": "Washington",
    "street": "150 9th St Ste B"
  },
  {
    "id": "81de27d4-0ccb-4810-b0b8-074f30983f3c",
    "name": "Riverside Brewery &  Restaurant",
    "brewery_type": "brewpub",
    "address_1": "255 S Main St",
    "address_2": null,
    "address_3": null,
    "city": "West Bend",
    "state_province": "Wisconsin",
    "postal_code": "53095-3323",
    "country": "United States",
    "longitude": -88.18128088,
    "latitude": 43.42164792,
    "phone": "2623342739",
    "website_url": null,
    "state": "Wisconsin",
    "street": "255 S Main St"
  },
  {
    "id": "4413789e-c56c-4c2b-935e-de2e5e334cb2",
    "name": "Riverside Brewing Ltd",
    "brewery_type": "micro",
    "address_1": "Shoreham Road",
    "address_2": null,
    "address_3": null,
    "city": "Steyning",
    "state_province": "West Sussex",
    "postal_code": "BN44 3TN",
    "country": "England",
    "longitude": -0.300906,
    "latitude": 50.877797,
    "phone": "1903898030",
    "website_url": "http://www.riversidebreweryltd.co.uk/",
    "state": "West Sussex",
    "street": "Shoreham Road"
  },
  {
    "id": "973a0067-bd17-472b-a30b-a8228921f6e0",
    "name": "Rivertown Brewing Co - Monroe Barrel House",
    "brewery_type": "micro",
    "address_1": "6550 Hamilton Lebanon Rd",
    "address_2": null,
    "address_3": null,
    "city": "Monroe",
    "state_province": "Ohio",
    "postal_code": "45044-9285",
    "country": "United States",
    "longitude": -84.41215417,
    "latitude": 39.44575612,
    "phone": "5133607839",
    "website_url": "http://www.rivertownbrewery.com",
    "state": "Ohio",
    "street": "6550 Hamilton Lebanon Rd"
  },
  {
    "id": "f9a0e0bf-2306-4319-991c-cb5327807ddb",
    "name": "Rivertowne Brewery - Production Facility",
    "brewery_type": "micro",
    "address_1": "5578 Old William Penn Hwy",
    "address_2": null,
    "address_3": null,
    "city": "Export",
    "state_province": "Pennsylvania",
    "postal_code": "15632-9303",
    "country": "United States",
    "longitude": -79.6373888,
    "latitude": 40.42147373,
    "phone": "7245192145",
    "website_url": "http://www.myrivertowne.com",
    "state": "Pennsylvania",
    "street": "5578 Old William Penn Hwy"
  },
  {
    "id": "13f854d3-ef7a-4933-b22b-02a13df51bb6",
    "name": "Rivertowne Pour House",
    "brewery_type": "micro",
    "address_1": "312 Center Rd",
    "address_2": null,
    "address_3": null,
    "city": "Monroeville",
    "state_province": "Pennsylvania",
    "postal_code": "15146-1322",
    "country": "United States",
    "longitude": -79.76389793,
    "latitude": 40.44745731,
    "phone": "4123728199",
    "website_url": "http://www.myrivertowne.com",
    "state": "Pennsylvania",
    "street": "312 Center Rd"
  },
  {
    "id": "b3ff8d79-69ef-41d5-b907-1f154bd5fe7a",
    "name": "Riverwalk Brewing Co.",
    "brewery_type": "micro",
    "address_1": "40 Parker St",
    "address_2": null,
    "address_3": null,
    "city": "Newburyport",
    "state_province": "Massachusetts",
    "postal_code": "01950-4056",
    "country": "United States",
    "longitude": -70.86726727,
    "latitude": 42.79921535,
    "phone": "9784992337",
    "website_url": "http://www.riverwalkbrewing.com",
    "state": "Massachusetts",
    "street": "40 Parker St"
  },
  {
    "id": "ebc2635f-d48f-4a50-ba77-7e4057453142",
    "name": "Riverwatch Brewery",
    "brewery_type": "micro",
    "address_1": "1150 5th St Bldg 61",
    "address_2": null,
    "address_3": null,
    "city": "Augusta",
    "state_province": "Georgia",
    "postal_code": "30901-5861",
    "country": "United States",
    "longitude": null,
    "latitude": null,
    "phone": "7064217177",
    "website_url": "http://www.riverwatchbrewery.com",
    "state": "Georgia",
    "street": "1150 5th St Bldg 61"
  },
  {
    "id": "3464a881-e543-4563-937a-944e6e6c85e6",
    "name": "RJ Rockers Brewing Co",
    "brewery_type": "micro",
    "address_1": "226 W Main St Ste A",
    "address_2": null,
    "address_3": null,
    "city": "Spartanburg",
    "state_province": "South Carolina",
    "postal_code": "29306-2308",
    "country": "United States",
    "longitude": null,
    "latitude": null,
    "phone": "8645871435",
    "website_url": "http://www.rjrockers.com",
    "state": "South Carolina",
    "street": "226 W Main St Ste A"
  },
  {
    "id": "cb835f7c-7f61-4e0e-a4ab-913fd06d78ea",
    "name": "Roadhouse Brewing Company",
    "brewery_type": "micro",
    "address_1": "1225 Gregory Ln",
    "address_2": null,
    "address_3": null,
    "city": "Jackson",
    "state_province": "Wyoming",
    "postal_code": "83001-9433",
    "country": "United States",
    "longitude": -110.7963199,
    "latitude": 43.46346041,
    "phone": "3072641900",
    "website_url": "http://www.roadhousebrewery.com",
    "state": "Wyoming",
    "street": "1225 Gregory Ln"
  },
  {
    "id": "ab5908c7-1c68-40e7-9540-815a79af730b",
    "name": "Roadhouse Pub and Eatery",
    "brewery_type": "brewpub",
    "address_1": "20 E Broadway Ave",
    "address_2": null,
    "address_3": null,
    "city": "Jackson Hole",
    "state_province": "Wyoming",
    "postal_code": "83001-8630",
    "country": "United States",
    "longitude": -110.76149959764,
    "latitude": 43.480682791836,
    "phone": "3077390700",
    "website_url": "http://www.roadhousebrewery.com",
    "state": "Wyoming",
    "street": "20 E Broadway Ave"
  },
  {
    "id": "579678d2-7826-419b-9fe0-b3d8cfdcf574",
    "name": "Roadmap Brewing Co",
    "brewery_type": "micro",
    "address_1": "723 N Alamo St",
    "address_2": null,
    "address_3": null,
    "city": "San Antonio",
    "state_province": "Texas",
    "postal_code": "78215-1812",
    "country": "United States",
    "longitude": -98.4842435,
    "latitude": 29.4318109,
    "phone": null,
    "website_url": "http://www.roadmapbrewing.com",
    "state": "Texas",
    "street": "723 N Alamo St"
  },
  {
    "id": "be7ced94-d8cd-47c2-8789-31a4010490bf",
    "name": "Roadrunner Abbey Brewing",
    "brewery_type": "planning",
    "address_1": null,
    "address_2": null,
    "address_3": null,
    "city": "Chandler",
    "state_province": "Arizona",
    "postal_code": "85249-4724",
    "country": "United States",
    "longitude": -111.8408489,
    "latitude": 33.3067132,
    "phone": "4805708283",
    "website_url": null,
    "state": "Arizona",
    "street": null
  },
  {
    "id": "5771cc53-3ba2-49c0-9517-b8f7b218eefc",
    "name": "Roak Brewing Co.",
    "brewery_type": "micro",
    "address_1": "330 E Lincoln Ave",
    "address_2": null,
    "address_3": null,
    "city": "Royal Oak",
    "state_province": "Michigan",
    "postal_code": "48067-2700",
    "country": "United States",
    "longitude": -83.14209914,
    "latitude": 42.48342093,
    "phone": "2482688780",
    "website_url": "http://www.roakbrewing.com",
    "state": "Michigan",
    "street": "330 E Lincoln Ave"
  },
  {
    "id": "5dbdf6bc-f0c5-43b4-8ce6-29a3eddf2142",
    "name": "Roaring Fork Beer Company",
    "brewery_type": "proprietor",
    "address_1": "1941 Dolores Way",
    "address_2": null,
    "address_3": null,
    "city": "Carbondale",
    "state_province": "Colorado",
    "postal_code": "81623-2235",
    "country": "United States",
    "longitude": null,
    "latitude": null,
    "phone": "9705105934",
    "website_url": "http://www.roaringforkbeerco.com",
    "state": "Colorado",
    "street": "1941 Dolores Way"
  },
  {
    "id": "9482402b-aafe-409b-a54c-13d101e1ee97",
    "name": "Roaring Table Brewing",
    "brewery_type": "micro",
    "address_1": "739 W IL 22",
    "address_2": null,
    "address_3": null,
    "city": "Lake Zurich",
    "state_province": "Illinois",
    "postal_code": "60047",
    "country": "United States",
    "longitude": null,
    "latitude": null,
    "phone": "2246624562",
    "website_url": "http://www.roaringtable.com",
    "state": "Illinois",
    "street": "739 W IL 22"
  },
  {
    "id": "971a1d10-0d75-4152-8107-ecdb6904534d",
    "name": "Robin Hood Brewing Co",
    "brewery_type": "brewpub",
    "address_1": null,
    "address_2": null,
    "address_3": null,
    "city": "Bellefonte",
    "state_province": "Pennsylvania",
    "postal_code": "16823",
    "country": "United States",
    "longitude": null,
    "latitude": null,
    "phone": "8143578399",
    "website_url": "http://www.robinhoodbrewingco.com",
    "state": "Pennsylvania",
    "street": null
  },
  {
    "id": "66573e06-6aee-4f97-898b-8e51d75da152",
    "name": "Roc Brewing Co",
    "brewery_type": "brewpub",
    "address_1": "56 S Union St",
    "address_2": null,
    "address_3": null,
    "city": "Rochester",
    "state_province": "New York",
    "postal_code": "14607-1839",
    "country": "United States",
    "longitude": -77.59793317,
    "latitude": 43.15337067,
    "phone": "5857949798",
    "website_url": "http://www.rocbrewingco.com",
    "state": "New York",
    "street": "56 S Union St"
  },
  {
    "id": "7fab3d6d-5621-42d7-ba8c-7bac81bd4df9",
    "name": "Rochester Mills Beer Co",
    "brewery_type": "brewpub",
    "address_1": "400 Water St Ste 101",
    "address_2": null,
    "address_3": null,
    "city": "Rochester",
    "state_province": "Michigan",
    "postal_code": "48307-2089",
    "country": "United States",
    "longitude": null,
    "latitude": null,
    "phone": "2486505080",
    "website_url": "http://www.beercos.com",
    "state": "Michigan",
    "street": "400 Water St Ste 101"
  },
  {
    "id": "54dbff86-41fe-421c-937e-2903bac3c9f7",
    "name": "Rochester Mills Production Brewery",
    "brewery_type": "micro",
    "address_1": "3275 Lapeer W Rd",
    "address_2": null,
    "address_3": null,
    "city": "Auburn Hills",
    "state_province": "Michigan",
    "postal_code": "48326-1723",
    "country": "United States",
    "longitude": null,
    "latitude": null,
    "phone": "2483773130",
    "website_url": "http://www.beercos.com",
    "state": "Michigan",
    "street": "3275 Lapeer W Rd"
  },
  {
    "id": "147c0123-232a-448a-b689-3ae78d34d66f",
    "name": "Rock & Run Brewery",
    "brewery_type": "closed",
    "address_1": "110 E Kansas St",
    "address_2": null,
    "address_3": null,
    "city": "Liberty",
    "state_province": "Missouri",
    "postal_code": "64068-2374",
    "country": "United States",
    "longitude": -94.4190247,
    "latitude": 39.2461993,
    "phone": "8164152337",
    "website_url": "http://www.rockandrunbrewery.com",
    "state": "Missouri",
    "street": "110 E Kansas St"
  }
]