[
  {
    "id": "7f1de675-59d2-4c2f-992a-9a3092084b33",
    "name": "Pure Project",
    "brewery_type": "micro",
    "address_1": "9030 Kenamar Dr Ste 308",
    "address_2": null,
    "address_3": null,
    "city": "San Diego",
    "state_province": "California",
    "postal_code": "92121-2432",
    "country": "United States",
    "longitude": -117.1555351,
    "latitude": 32.88830151,
    "phone": "8582526143",
    "website_url": "http://www.purebrewing.org",
    "state": "California",
    "street": "9030 Kenamar Dr Ste 308"
  },
  {
    "id": "2fc1f3e1-43bf-4e50-9877-cc80a600de29",
    "name": "Purgatory Beer Co, LLC",
    "brewery_type": "micro",
    "address_1": "670 Linwood Ave Bldg C",
    "address_2": null,
    "address_3": null,
    "city": "Whitinsville",
    "state_province": "Massachusetts",
    "postal_code": "01588-2068",
    "country": "United States",
    "longitude": null,
    "latitude": null,
    "phone": "7745450243",
    "website_url": "http://www.purgatorybeer.com",
    "state": "Massachusetts",
    "street": "670 Linwood Ave Bldg C"
  },
  {
    "id": "2a22f461-fb7f-4347-87f7-e6316274fcd9",
    "name": "Puritan Brew Company",
    "brewery_type": "contract",
    "address_1": "205 W Dickson St",
    "address_2": null,
    "address_3": null,
    "city": "Fayetteville",
    "state_province": "Arkansas",
    "postal_code": "72701-5222",
    "country": "United States",
    "longitude": -94.1620702,
    "latitude": 36.066188,
    "phone": "4793012365",
    "website_url": "http://www.puritanbrewcompany.com",
    "state": "Arkansas",
    "street": "205 W Dickson St"
  },
  {
    "id": "b8e7517b-317b-4e4d-9d3d-4f7a35200908",
    "name": "Purpose Brewing and Cellars",
    "brewery_type": "micro",
    "address_1": "4025 S Mason St Unit C",
    "address_2": null,
    "address_3": null,
    "city": "Fort Collins",
    "state_province": "Colorado",
    "postal_code": "80525-5953",
    "country": "United States",
    "longitude": null,
    "latitude": null,
    "phone": "9703774107",
    "website_url": "http://www.purposebrewing.com",
    "state": "Colorado",
    "street": "4025 S Mason St Unit C"
  },
  {
    "id": "c522a9cc-0865-4764-8447-d733d4a7046f",
    "name": "Put-In-Bay Brewing Co",
    "brewery_type": "brewpub",
    "address_1": "441 Catawba Ave",
    "address_2": null,
    "address_3": null,
    "city": "Put In Bay",
    "state_province": "Ohio",
    "postal_code": "43456-6536",
    "country": "United States",
    "longitude": -82.81996476,
    "latitude": 41.65188956,
    "phone": "4192854677",
    "website_url": "http://www.putinbaybrewery.com",
    "state": "Ohio",
    "street": "441 Catawba Ave"
  },
  {
    "id": "64ef6c86-1c4e-41aa-983f-3a380b552973",
    "name": "Puyallup River Brewing Co",
    "brewery_type": "closed",
    "address_1": null,
    "address_2": null,
    "address_3": null,
    "city": "Puyallup",
    "state_province": "Washington",
    "postal_code": "98375-6923",
    "country": "United States",
    "longitude": null,
    "latitude": null,
    "phone": "2535908219",
    "website_url": "http://www.puyallupriverbrewing.com",
    "state": "Washington",
    "street": null
  },
  {
    "id": "07b5c626-a59e-4b2c-894e-e940ec87d094",
    "name": "Pyramid Breweries / North American Breweries",
    "brewery_type": "brewpub",
    "address_1": "1201 1st Ave S",
    "address_2": null,
    "address_3": null,
    "city": "Seattle",
    "state_province": "Washington",
    "postal_code": "98134-1238",
    "country": "United States",
    "longitude": -122.33477,
    "latitude": 47.5920086,
    "phone": "2066823377",
    "website_url": "http://www.pyramidbrew.com",
    "state": "Washington",
    "street": "1201 1st Ave S"
  },
  {
    "id": "4073c00b-a6c5-4b1f-b9fd-3671fc10cff9",
    "name": "Q-wa Bar Yakitori",
    "brewery_type": "bar",
    "address_1": "39 East Coast Road",
    "address_2": null,
    "address_3": null,
    "city": "Singapore",
    "state_province": "Singapore",
    "postal_code": "428756",
    "country": "Singapore",
    "longitude": 1.3049374192657,
    "latitude": 103.9029166,
    "phone": "+65 6348 9938",
    "website_url": null,
    "state": "Singapore",
    "street": "39 East Coast Road"
  },
  {
    "id": "30f16fe6-539b-4238-affb-1ad6604de275",
    "name": "Quaff On Brewing",
    "brewery_type": "micro",
    "address_1": "1934 State Road 135 N",
    "address_2": null,
    "address_3": null,
    "city": "Nashville",
    "state_province": "Indiana",
    "postal_code": "47448-8418",
    "country": "United States",
    "longitude": null,
    "latitude": null,
    "phone": "8129886006",
    "website_url": "http://www.quaffon.com",
    "state": "Indiana",
    "street": "1934 State Road 135 N"
  },
  {
    "id": "9ea909e7-6392-4241-a9a3-b5a11932fb7a",
    "name": "QUAKE! Brewing Company",
    "brewery_type": "closed",
    "address_1": "1540 N Shoreline Dr",
    "address_2": null,
    "address_3": null,
    "city": "Wasilla",
    "state_province": "Alaska",
    "postal_code": "99654",
    "country": "United States",
    "longitude": -149.340342,
    "latitude": 61.596646,
    "phone": "4048340997",
    "website_url": "http://www.quakebrewingcompany.com",
    "state": "Alaska",
    "street": "1540 N Shoreline Dr"
  },
  {
    "id": "ac19d512-0d7c-4821-a198-1bc0dec4e9cc",
    "name": "Quantum Brewing Co",
    "brewery_type": "micro",
    "address_1": "5375 Kearny Villa Rd Ste 116",
    "address_2": null,
    "address_3": null,
    "city": "San Diego",
    "state_province": "California",
    "postal_code": "92123-1422",
    "country": "United States",
    "longitude": -117.1170304,
    "latitude": 32.8901624,
    "phone": "8582546481",
    "website_url": "http://www.quantumbrewingsd.com",
    "state": "California",
    "street": "5375 Kearny Villa Rd Ste 116"
  },
  {
    "id": "c7367015-8da6-4abb-a8e8-dc7ab974b7bd",
    "name": "Quarry Brewing",
    "brewery_type": "micro",
    "address_1": "124 W Broadway St",
    "address_2": null,
    "address_3": null,
    "city": "Butte",
    "state_province": "Montana",
    "postal_code": "59701-9224",
    "country": "United States",
    "longitude": -112.5390009,
    "latitude": 46.01335466,
    "phone": "4067230245",
    "website_url": "http://www.wedigbeer.com",
    "state": "Montana",
    "street": "124 W Broadway St"
  },
  {
    "id": "2b5180bb-1de5-4961-af08-6a227d1cb37c",
    "name": "Quarter Barrel Arcade",
    "brewery_type": "brewpub",
    "address_1": "616 2nd Ave SE",
    "address_2": null,
    "address_3": null,
    "city": "Cedar Rapids",
    "state_province": "Iowa",
    "postal_code": "52401-1306",
    "country": "United States",
    "longitude": -91.66318094,
    "latitude": 41.98062533,
    "phone": "3196211836",
    "website_url": "http://www.thequarterbarrel.com",
    "state": "Iowa",
    "street": "616 2nd Ave SE"
  },
  {
    "id": "8c192935-c685-444f-abc2-5a5e637f8b8d",
    "name": "Quarter Barrel Brewery",
    "brewery_type": "brewpub",
    "address_1": "107 E Church St",
    "address_2": null,
    "address_3": null,
    "city": "Oxford",
    "state_province": "Ohio",
    "postal_code": "45056-1317",
    "country": "United States",
    "longitude": -84.74045186,
    "latitude": 39.51142737,
    "phone": "5135232525",
    "website_url": null,
    "state": "Ohio",
    "street": "107 E Church St"
  },
  {
    "id": "8c1536cc-c630-465c-9694-85490c0c13b6",
    "name": "Quarter Barrel Brewery and Pub",
    "brewery_type": "brewpub",
    "address_1": "103 Main St",
    "address_2": null,
    "address_3": null,
    "city": "Hamilton",
    "state_province": "Ohio",
    "postal_code": "45013",
    "country": "United States",
    "longitude": -84.3556606,
    "latitude": 39.1246414,
    "phone": "5135552525",
    "website_url": null,
    "state": "Ohio",
    "street": "103 Main St"
  },
  {
    "id": "9faf7b68-73ee-4252-aafa-b903c7376a12",
    "name": "Quarter Celtic Brewpub",
    "brewery_type": "brewpub",
    "address_1": "1100 San Mateo Blvd NE Ste 50",
    "address_2": null,
    "address_3": null,
    "city": "Albuquerque",
    "state_province": "New Mexico",
    "postal_code": "87110-6473",
    "country": "United States",
    "longitude": null,
    "latitude": null,
    "phone": "5055031387",
    "website_url": "http://www.quartercelticbrewery.com",
    "state": "New Mexico",
    "street": "1100 San Mateo Blvd NE Ste 50"
  },
  {
    "id": "79a8d058-2314-4b8b-b1ce-e125ca04e45b",
    "name": "Quartzite Brewing Company",
    "brewery_type": "micro",
    "address_1": "105 W Main Ave",
    "address_2": null,
    "address_3": null,
    "city": "Chewelah",
    "state_province": "Washington",
    "postal_code": "99109-9257",
    "country": "United States",
    "longitude": -117.71646,
    "latitude": 48.27618,
    "phone": "5099363686",
    "website_url": "https://quartzitebrewco.business.site",
    "state": "Washington",
    "street": "105 W Main Ave"
  },
  {
    "id": "9452153d-ec17-4f40-8801-1652436c1d51",
    "name": "Quattro Goombas Brewery",
    "brewery_type": "brewpub",
    "address_1": "22860 James Monroe Hwy",
    "address_2": null,
    "address_3": null,
    "city": "Aldie",
    "state_province": "Virginia",
    "postal_code": "20105-1916",
    "country": "United States",
    "longitude": null,
    "latitude": null,
    "phone": "7035091332",
    "website_url": "http://www.goombabrewery.com",
    "state": "Virginia",
    "street": "22860 James Monroe Hwy"
  },
  {
    "id": "4dfeb9cd-7b63-46e6-ac77-76a97d86daeb",
    "name": "Queen City Brewery of Cincinnati",
    "brewery_type": "micro",
    "address_1": "11253 Williamson Rd",
    "address_2": null,
    "address_3": null,
    "city": "Cincinnati",
    "state_province": "Ohio",
    "postal_code": "45241-2230",
    "country": "United States",
    "longitude": null,
    "latitude": null,
    "phone": null,
    "website_url": null,
    "state": "Ohio",
    "street": "11253 Williamson Rd"
  },
  {
    "id": "fbba8bc4-e368-44a0-8526-3c792d164ab1",
    "name": "Queen City Brewery, LLC",
    "brewery_type": "micro",
    "address_1": "703 Pine St",
    "address_2": null,
    "address_3": null,
    "city": "Burlington",
    "state_province": "Vermont",
    "postal_code": "05401-4921",
    "country": "United States",
    "longitude": -73.21483275,
    "latitude": 44.4594977,
    "phone": "8025400280",
    "website_url": "http://www.queencitybrewery.com",
    "state": "Vermont",
    "street": "703 Pine St"
  },
  {
    "id": "b443f794-3038-4669-837a-3140a2251d6a",
    "name": "Queen City Brewing",
    "brewery_type": "micro",
    "address_1": "834 Spring Hill Rd",
    "address_2": null,
    "address_3": null,
    "city": "Staunton",
    "state_province": "Virginia",
    "postal_code": "24401-2865",
    "country": "United States",
    "longitude": null,
    "latitude": null,
    "phone": "5402138014",
    "website_url": "http://www.queencitybrewing.com",
    "state": "Virginia",
    "street": "834 Spring Hill Rd"
  },
  {
    "id": "f0112fde-2dd4-4ab0-99cb-5266c55628b6",
    "name": "Queens Brewery",
    "brewery_type": "proprietor",
    "address_1": "1539 Covert St",
    "address_2": null,
    "address_3": null,
    "city": "Ridgewood",
    "state_province": "New York",
    "postal_code": "11385-5356",
    "country": "United States",
    "longitude": -73.90428508,
    "latitude": 40.6949116,
    "phone": "6462652049",
    "website_url": "http://www.queensbrewery.com",
    "state": "New York",
    "street": "1539 Covert St"
  },
  {
    "id": "393eb2eb-c37c-4009-b50b-a7b1d2ebfc66",
    "name": "Quest Brewing Company",
    "brewery_type": "micro",
    "address_1": "55 Airview Dr",
    "address_2": null,
    "address_3": null,
    "city": "Greenville",
    "state_province": "South Carolina",
    "postal_code": "29607-2632",
    "country": "United States",
    "longitude": -82.34515691,
    "latitude": 34.8465767,
    "phone": "8642726232",
    "website_url": "http://www.questbrewing.com",
    "state": "South Carolina",
    "street": "55 Airview Dr"
  },
  {
    "id": "105764ab-27f9-4bd0-8d62-2a2c61e5ec8d",
    "name": "Quick Trigger Brewing Company",
    "brewery_type": "brewpub",
    "address_1": "118 Main St W",
    "address_2": null,
    "address_3": null,
    "city": "Ahoskie",
    "state_province": "North Carolina",
    "postal_code": "27910-3302",
    "country": "United States",
    "longitude": -76.9863065,
    "latitude": 36.2857593,
    "phone": "2523326844",
    "website_url": "http://www.quicktriggerbrewing.com",
    "state": "North Carolina",
    "street": "118 Main St W"
  },
  {
    "id": "70d18ff8-cc1d-4a3a-8524-e37a200a0ab2",
    "name": "Quigley's Pint and Plate",
    "brewery_type": "brewpub",
    "address_1": "257 Willbrook Blvd",
    "address_2": null,
    "address_3": null,
    "city": "Pawleys Island",
    "state_province": "South Carolina",
    "postal_code": "29585-7789",
    "country": "United States",
    "longitude": null,
    "latitude": null,
    "phone": "8432377010",
    "website_url": null,
    "state": "South Carolina",
    "street": "257 Willbrook Blvd"
  },
  {
    "id": "03118499-a3d0-4c22-860d-4529509ae095",
    "name": "Quilbilly's Restaurant and Taproom",
    "brewery_type": "brewpub",
    "address_1": "294793 US Highway 101",
    "address_2": null,
    "address_3": null,
    "city": "Quilcene",
    "state_province": "Washington",
    "postal_code": "98376-9000",
    "country": "United States",
    "longitude": -122.8755823,
    "latitude": 47.82347577,
    "phone": "3607656485",
    "website_url": "https://www.quilbillys.com",
    "state": "Washington",
    "street": "294793 US Highway 101"
  },
  {
    "id": "d88f3979-3660-40cd-820c-f0da9cf4ce22",
    "name": "Quinn Brewing Company",
    "brewery_type": "micro",
    "address_1": "3000 Commerce Loop Ste 3200",
    "address_2": null,
    "address_3": null,
    "city": "Irwin",
    "state_province": "Pennsylvania",
    "postal_code": "15642-8112",
    "country": "United States",
    "longitude": null,
    "latitude": null,
    "phone": "7245905916",
    "website_url": "http://www.quinnbrewing.com",
    "state": "Pennsylvania",
    "street": "3000 Commerce Loop Ste 3200"
  },
  {
    "id": "5185fd8b-4369-4613-a595-5e9c06f624b6",
    "name": "Quirk Brewing",
    "brewery_type": "micro",
    "address_1": "425 B St",
    "address_2": null,
    "address_3": null,
    "city": "Walla Walla",
    "state_province": "Washington",
    "postal_code": "99362-2265",
    "country": "United States",
    "longitude": -118.2755318,
    "latitude": 46.0913886,
    "phone": null,
    "website_url": null,
    "state": "Washington",
    "street": "425 B St"
  },
  {
    "id": "9b9418e4-8a71-4e97-9403-2b787aace83a",
    "name": "R.S. Taylor & Sons Brewery",
    "brewery_type": "brewpub",
    "address_1": "3602 County Route 30",
    "address_2": null,
    "address_3": null,
    "city": "Salem",
    "state_province": "New York",
    "postal_code": "12865-4702",
    "country": "United States",
    "longitude": -73.360912,
    "latitude": 43.175335,
    "phone": "5182090474",
    "website_url": "http://www.rstaylorbrewing.com",
    "state": "New York",
    "street": "3602 County Route 30"
  },
  {
    "id": "d6fde152-fd90-463c-9eec-7c25da6278f4",
    "name": "R.Shea Brewing",
    "brewery_type": "micro",
    "address_1": "1662 Merriman Rd",
    "address_2": null,
    "address_3": null,
    "city": "Akron",
    "state_province": "Ohio",
    "postal_code": "44313-9000",
    "country": "United States",
    "longitude": -81.55341503,
    "latitude": 41.13489995,
    "phone": "3307945654",
    "website_url": "http://www.rsheabrewing.com",
    "state": "Ohio",
    "street": "1662 Merriman Rd"
  },
  {
    "id": "bff7304d-177d-44ed-bbb1-c5d2b19783aa",
    "name": "Rabbit Hole Brewing",
    "brewery_type": "micro",
    "address_1": "106 E 6th",
    "address_2": null,
    "address_3": null,
    "city": "Justin",
    "state_province": "Texas",
    "postal_code": "76247-4635",
    "country": "United States",
    "longitude": null,
    "latitude": null,
    "phone": "9404413528",
    "website_url": "http://www.rabbitholebrewing.com",
    "state": "Texas",
    "street": "106 E 6th"
  },
  {
    "id": "128677f2-1463-4619-be91-9d0077e78ffd",
    "name": "Rabble-Rouser Brewing Company",
    "brewery_type": "micro",
    "address_1": null,
    "address_2": null,
    "address_3": null,
    "city": "Mcallen",
    "state_province": "Texas",
    "postal_code": "78501",
    "country": "United States",
    "longitude": null,
    "latitude": null,
    "phone": "9563290100",
    "website_url": "http://www.therabble-rousers.com",
    "state": "Texas",
    "street": null
  },
  {
    "id": "f1f86e50-2558-4f60-9d6d-f9dd8301a26f",
    "name": "Rabid Brewing, LLC",
    "brewery_type": "micro",
    "address_1": "17559 Bretz Dr",
    "address_2": null,
    "address_3": null,
    "city": "Homewood",
    "state_province": "Illinois",
    "postal_code": "60430",
    "country": "United States",
    "longitude": -87.6330234,
    "latitude": 41.5647232,
    "phone": "7089603193",
    "website_url": "http://www.rabidbrewing.com",
    "state": "Illinois",
    "street": "17559 Bretz Dr"
  },
  {
    "id": "391a35c6-e0b6-4a79-a95b-e6469a674107",
    "name": "Race Street Brew Works",
    "brewery_type": "brewpub",
    "address_1": "511 Spruce St Ste 2",
    "address_2": null,
    "address_3": null,
    "city": "Clearfield",
    "state_province": "Pennsylvania",
    "postal_code": "16830-1923",
    "country": "United States",
    "longitude": null,
    "latitude": null,
    "phone": "8142054052",
    "website_url": "http://www.racestreetbrew.com",
    "state": "Pennsylvania",
    "street": "511 Spruce St Ste 2"
  },
  {
    "id": "3830bd5c-0997-4a3c-b2d5-9f56386cdc21",
    "name": "Racine Brewing Co",
    "brewery_type": "micro",
    "address_1": "303 Main St",
    "address_2": null,
    "address_3": null,
    "city": "Racine",
    "state_province": "Wisconsin",
    "postal_code": "53403",
    "country": "United States",
    "longitude": -87.78339257,
    "latitude": 42.73050741,
    "phone": "2626310670",
    "website_url": "http://www.racinebrewingcompany.com",
    "state": "Wisconsin",
    "street": "303 Main St"
  },
  {
    "id": "911ff443-97e8-4769-80d9-b7efe3b7a9a0",
    "name": "Racing City Brewing Company",
    "brewery_type": "micro",
    "address_1": "250 Excelsior Ave",
    "address_2": null,
    "address_3": null,
    "city": "Saratoga Springs",
    "state_province": "New York",
    "postal_code": "12866-8532",
    "country": "United States",
    "longitude": -73.7769944,
    "latitude": 43.0888891,
    "phone": "5183504515",
    "website_url": "http://www.racingcitybrewingcompany.com",
    "state": "New York",
    "street": "250 Excelsior Ave"
  },
  {
    "id": "8d1600f2-6526-4bdb-8992-bb0fdb286005",
    "name": "Radiant Pig Craft Beers",
    "brewery_type": "contract",
    "address_1": "122 W 27th St Fl 10",
    "address_2": null,
    "address_3": null,
    "city": "New York",
    "state_province": "New York",
    "postal_code": "10001-6227",
    "country": "United States",
    "longitude": null,
    "latitude": null,
    "phone": null,
    "website_url": null,
    "state": "New York",
    "street": "122 W 27th St Fl 10"
  },
  {
    "id": "7c73edeb-85e0-4a8c-9f34-33834ce70cd8",
    "name": "Radicle Effect Brewerks",
    "brewery_type": "micro",
    "address_1": "1340 31st St",
    "address_2": null,
    "address_3": null,
    "city": "Rock Island",
    "state_province": "Illinois",
    "postal_code": "61201-2949",
    "country": "United States",
    "longitude": -90.55595294,
    "latitude": 41.49803483,
    "phone": "3092837605",
    "website_url": "http://www.rebrewerks.com",
    "state": "Illinois",
    "street": "1340 31st St"
  },
  {
    "id": "d9ca812a-80a6-4665-a243-3552f3b0563b",
    "name": "Radio Brewing Company",
    "brewery_type": "brewpub",
    "address_1": "319 Main St",
    "address_2": null,
    "address_3": null,
    "city": "Kellogg",
    "state_province": "Idaho",
    "postal_code": "83837",
    "country": "United States",
    "longitude": -116.1225116,
    "latitude": 47.53391643,
    "phone": "2087866633",
    "website_url": "http://www.radiobrewingcompany.com",
    "state": "Idaho",
    "street": "319 Main St"
  },
  {
    "id": "eea07160-746d-48bd-82cf-29f8de4e6915",
    "name": "Radium City Brewing",
    "brewery_type": "micro",
    "address_1": null,
    "address_2": null,
    "address_3": null,
    "city": "Ottawa",
    "state_province": "Illinois",
    "postal_code": "61350",
    "country": "United States",
    "longitude": null,
    "latitude": null,
    "phone": null,
    "website_url": "http://www.radiumcitybrewing.com",
    "state": "Illinois",
    "street": null
  },
  {
    "id": "633070e8-f61d-4e78-82ce-54d4d229f58e",
    "name": "Radius Brewing Company",
    "brewery_type": "micro",
    "address_1": "610 Merchant St",
    "address_2": null,
    "address_3": null,
    "city": "Emporia",
    "state_province": "Kansas",
    "postal_code": "66801-2859",
    "country": "United States",
    "longitude": -96.18130706,
    "latitude": 38.40521996,
    "phone": "6202084677",
    "website_url": "http://radiusbrewing@yahoo.com",
    "state": "Kansas",
    "street": "610 Merchant St"
  },
  {
    "id": "8295ba7b-4f06-4370-995d-ebacaffea398",
    "name": "Ragged Island Brewing Company",
    "brewery_type": "micro",
    "address_1": "54 Bristol Ferry Rd",
    "address_2": null,
    "address_3": null,
    "city": "Portsmouth",
    "state_province": "Rhode Island",
    "postal_code": "02871",
    "country": "United States",
    "longitude": -71.25695,
    "latitude": 41.616314,
    "phone": "4013182991",
    "website_url": "http://www.raggedislandbrewing.com",
    "state": "Rhode Island",
    "street": "54 Bristol Ferry Rd"
  },
  {
    "id": "d91cbdb4-443b-43e6-8005-02616b3c3e80",
    "name": "Ragtime Tavern Seafood and Grill",
    "brewery_type": "brewpub",
    "address_1": "207 Atlantic Blvd",
    "address_2": null,
    "address_3": null,
    "city": "Atlantic Beach",
    "state_province": "Florida",
    "postal_code": "32233-5273",
    "country": "United States",
    "longitude": -81.3964898,
    "latitude": 30.3247964,
    "phone": "9042417877",
    "website_url": "http://www.ragtimetavern.com",
    "state": "Florida",
    "street": "207 Atlantic Blvd"
  },
  {
    "id": "eb13cc36-c81f-4518-9b84-24e7ea268d85",
    "name": "Rahr and Sons Brewing Co",
    "brewery_type": "regional",
    "address_1": "701 Galveston Ave",
    "address_2": null,
    "address_3": null,
    "city": "Fort Worth",
    "state_province": "Texas",
    "postal_code": "76104-3355",
    "country": "United States",
    "longitude": -97.327292,
    "latitude": 32.7371,
    "phone": "8178109266",
    "website_url": "http://www.rahrbrewing.com",
    "state": "Texas",
    "street": "701 Galveston Ave"
  },
  {
    "id": "e24adb1a-11ab-4db3-8e5f-93c14a8c7a09",
    "name": "Rahr Technical Center LLC",
    "brewery_type": "micro",
    "address_1": "800 1st Ave W",
    "address_2": null,
    "address_3": null,
    "city": "Shakopee",
    "state_province": "Minnesota",
    "postal_code": "55379-1148",
    "country": "United States",
    "longitude": -93.5365005,
    "latitude": 44.7968103,
    "phone": "9524650585",
    "website_url": null,
    "state": "Minnesota",
    "street": "800 1st Ave W"
  },
  {
    "id": "512eb241-55cf-47bf-b949-824cc7fd7449",
    "name": "Raices Brewing Co",
    "brewery_type": "planning",
    "address_1": null,
    "address_2": null,
    "address_3": null,
    "city": "Denver",
    "state_province": "Colorado",
    "postal_code": "80204",
    "country": "United States",
    "longitude": null,
    "latitude": null,
    "phone": "2024237060",
    "website_url": "http://www.raicesbrewing.com",
    "state": "Colorado",
    "street": null
  },
  {
    "id": "5a8a414d-d2a5-4ca8-b436-27d5571bd56c",
    "name": "Rail Hop'n Brewing Co",
    "brewery_type": "micro",
    "address_1": "122 W Main St Ste 101B",
    "address_2": null,
    "address_3": null,
    "city": "Auburn",
    "state_province": "Washington",
    "postal_code": "98001-4924",
    "country": "United States",
    "longitude": -122.2290885,
    "latitude": 47.3120419,
    "phone": "2532176800",
    "website_url": "http://www.railhopn.com",
    "state": "Washington",
    "street": "122 W Main St Ste 101B"
  },
  {
    "id": "e433ddf5-de9b-4306-88c8-dea56bbf8d4b",
    "name": "Rail Line Brewing",
    "brewery_type": "brewpub",
    "address_1": "301 N Main St",
    "address_2": null,
    "address_3": null,
    "city": "Simpsonville",
    "state_province": "South Carolina",
    "postal_code": "29681-2311",
    "country": "United States",
    "longitude": -82.25782481,
    "latitude": 34.7414657,
    "phone": "8645939722",
    "website_url": "http://www.raillinebrewing.com",
    "state": "South Carolina",
    "street": "301 N Main St"
  },
  {
    "id": "03701616-c339-41c3-ac31-9ba74e82745e",
    "name": "Railhead Brewing Company",
    "brewery_type": "brewpub",
    "address_1": "40 Park Dr",
    "address_2": null,
    "address_3": null,
    "city": "Hornell",
    "state_province": "New York",
    "postal_code": "14843-2213",
    "country": "United States",
    "longitude": null,
    "latitude": null,
    "phone": "6073243286",
    "website_url": "http://www.railheadbrewing.com",
    "state": "New York",
    "street": "40 Park Dr"
  },
  {
    "id": "a7e1db73-8d89-46f7-b3a5-7f186529e972",
    "name": "Railhouse Brewery",
    "brewery_type": "micro",
    "address_1": "105 E South St Unit C",
    "address_2": null,
    "address_3": null,
    "city": "Aberdeen",
    "state_province": "North Carolina",
    "postal_code": "28315-",
    "country": "United States",
    "longitude": null,
    "latitude": null,
    "phone": "9107835280",
    "website_url": "http://www.railhousebrewery.com",
    "state": "North Carolina",
    "street": "105 E South St Unit C"
  }
]