[
  {
    "id": "46ee6aab-af12-44ff-aa5a-ed12944370fd",
    "name": "Presidential Brewing Co.",
    "brewery_type": "planning",
    "address_1": null,
    "address_2": null,
    "address_3": null,
    "city": "Portage",
    "state_province": "Michigan",
    "postal_code": "49024",
    "country": "United States",
    "longitude": null,
    "latitude": null,
    "phone": "2694689765",
    "website_url": "http://www.presidentialbrewing.com",
    "state": "Michigan",
    "street": null
  },
  {
    "id": "2d046236-3fe0-49ec-be63-c59777f23f7c",
    "name": "Pressure Drop Brewing",
    "brewery_type": "micro",
    "address_1": "65 Vandalia St",
    "address_2": null,
    "address_3": null,
    "city": "Buffalo",
    "state_province": "New York",
    "postal_code": "14204-2739",
    "country": "United States",
    "longitude": -78.86103739,
    "latitude": 42.86640421,
    "phone": "7168489942",
    "website_url": "http://www.barrelfactory.com",
    "state": "New York",
    "street": "65 Vandalia St"
  },
  {
    "id": "a64ce5ee-e021-4f18-8874-8cce9f78071c",
    "name": "Prestonrose Farm and Brewing Co.",
    "brewery_type": "brewpub",
    "address_1": "201 Saint Louis Valley Rd",
    "address_2": null,
    "address_3": null,
    "city": "Paris",
    "state_province": "Arkansas",
    "postal_code": "72855-5853",
    "country": "United States",
    "longitude": null,
    "latitude": null,
    "phone": "7075025544",
    "website_url": "http://prestonrose.squarespace.com",
    "state": "Arkansas",
    "street": "201 Saint Louis Valley Rd"
  },
  {
    "id": "af17e34e-10da-4da5-bcb7-9ec68a5c16cf",
    "name": "Pretentious Barrel House",
    "brewery_type": "micro",
    "address_1": "745 Taylor Ave",
    "address_2": null,
    "address_3": null,
    "city": "Columbus",
    "state_province": "Ohio",
    "postal_code": "43219-2526",
    "country": "United States",
    "longitude": -82.960769,
    "latitude": 39.981855,
    "phone": "6148877687",
    "website_url": "http://www.pretentiousbarrelhouse.com",
    "state": "Ohio",
    "street": "745 Taylor Ave"
  },
  {
    "id": "b7168e48-b946-4939-96b9-31415250ff51",
    "name": "Pretentious Beer Co",
    "brewery_type": "micro",
    "address_1": "131 S Central St",
    "address_2": null,
    "address_3": null,
    "city": "Knoxville",
    "state_province": "Tennessee",
    "postal_code": "37902",
    "country": "United States",
    "longitude": -83.91814044,
    "latitude": 35.96939844,
    "phone": "8658517693",
    "website_url": "http://www.pretentiousbeerco.com",
    "state": "Tennessee",
    "street": "131 S Central St"
  },
  {
    "id": "ba1b921c-0f94-44aa-88b1-9bb31fb1776e",
    "name": "Pretoria Fields Collective",
    "brewery_type": "micro",
    "address_1": "120 Pine Ave",
    "address_2": null,
    "address_3": null,
    "city": "Albany",
    "state_province": "Georgia",
    "postal_code": "31701-2529",
    "country": "United States",
    "longitude": -84.149593,
    "latitude": 31.57858294,
    "phone": "2295181770",
    "website_url": "http://www.pretoriafields.com",
    "state": "Georgia",
    "street": "120 Pine Ave"
  },
  {
    "id": "21dd64a1-c254-4c35-a7b7-f909b88c8d10",
    "name": "Preyer Brewing Company",
    "brewery_type": "micro",
    "address_1": "600 A-B Battleground Ave",
    "address_2": null,
    "address_3": null,
    "city": "Greensboro",
    "state_province": "North Carolina",
    "postal_code": "27401-2015",
    "country": "United States",
    "longitude": null,
    "latitude": null,
    "phone": "3362569450",
    "website_url": "http://www.preyerbrewing.com",
    "state": "North Carolina",
    "street": "600 A-B Battleground Ave"
  },
  {
    "id": "7281326b-9a0e-413c-86b4-36ebf5034e3a",
    "name": "Priest Lake Brewing",
    "brewery_type": "micro",
    "address_1": "28392 ID-57",
    "address_2": null,
    "address_3": null,
    "city": "Priest Lake",
    "state_province": "Idaho",
    "postal_code": "83856-9701",
    "country": "United States",
    "longitude": -116.935511,
    "latitude": 48.5218798,
    "phone": "2084430900",
    "website_url": "https://priestlakebrewing.wordpress.com/",
    "state": "Idaho",
    "street": "28392 ID-57"
  },
  {
    "id": "041933ef-caad-429f-84eb-2fe597d09c3b",
    "name": "Primal Brewery",
    "brewery_type": "micro",
    "address_1": "16432 Old Statesville Rd",
    "address_2": null,
    "address_3": null,
    "city": "Huntersville",
    "state_province": "North Carolina",
    "postal_code": "28078-7245",
    "country": "United States",
    "longitude": -80.84384068,
    "latitude": 35.43603236,
    "phone": "7049472920",
    "website_url": "http://www.primalbrewery.com",
    "state": "North Carolina",
    "street": "16432 Old Statesville Rd"
  },
  {
    "id": "fa2495b5-598e-4353-9fb7-3a678a77d0c9",
    "name": "Primitive Beer LLC",
    "brewery_type": "micro",
    "address_1": "2025 Ionosphere St Unit 101",
    "address_2": null,
    "address_3": null,
    "city": "Longmont",
    "state_province": "Colorado",
    "postal_code": "80504-7439",
    "country": "United States",
    "longitude": null,
    "latitude": null,
    "phone": "9142557436",
    "website_url": "http://www.Primitive.beer",
    "state": "Colorado",
    "street": "2025 Ionosphere St Unit 101"
  },
  {
    "id": "dbb4c0fa-b513-42bb-be51-53de04f58d8b",
    "name": "Printer's Ale Manufacturing Co.",
    "brewery_type": "micro",
    "address_1": "940 Columbia Dr",
    "address_2": null,
    "address_3": null,
    "city": "Carrollton",
    "state_province": "Georgia",
    "postal_code": "30117-8780",
    "country": "United States",
    "longitude": -85.10249657,
    "latitude": 33.61138945,
    "phone": "7708364253",
    "website_url": "http://www.printers-ale.com",
    "state": "Georgia",
    "street": "940 Columbia Dr"
  },
  {
    "id": "2ca6d9b6-4a8e-4358-a4f3-38fd59edf479",
    "name": "Printshop Beer Co",
    "brewery_type": "micro",
    "address_1": "1532 Island Home Ave",
    "address_2": null,
    "address_3": null,
    "city": "Knoxville",
    "state_province": "Tennessee",
    "postal_code": "37920",
    "country": "United States",
    "longitude": -83.8972435,
    "latitude": 35.9607605,
    "phone": "8654749591",
    "website_url": null,
    "state": "Tennessee",
    "street": "1532 Island Home Ave"
  },
  {
    "id": "196c769f-4df9-4bea-bee4-41399bfc8d7f",
    "name": "Priory Brewing",
    "brewery_type": "micro",
    "address_1": "Unit 5, Tallaght Enterprise Centre",
    "address_2": "Main Road",
    "address_3": "Dublin 24",
    "city": "Tallaght",
    "state_province": "Dublin",
    "postal_code": "D24 TYX9",
    "country": "Ireland",
    "longitude": -6.3538952,
    "latitude": 53.2872173,
    "phone": "35314685300",
    "website_url": "https://www.priorybrewing.ie/",
    "state": "Dublin",
    "street": "Unit 5, Tallaght Enterprise Centre"
  },
  {
    "id": "6e63e61e-d792-4cf6-ab67-6dfafe3ac8ee",
    "name": "Prison Brews",
    "brewery_type": "brewpub",
    "address_1": "305 Ash St",
    "address_2": null,
    "address_3": null,
    "city": "Jefferson City",
    "state_province": "Missouri",
    "postal_code": "65101-4002",
    "country": "United States",
    "longitude": -92.1616013,
    "latitude": 38.5687256,
    "phone": "5736350678",
    "website_url": "http://www.prisonbrews.com",
    "state": "Missouri",
    "street": "305 Ash St"
  },
  {
    "id": "596f4926-ba58-48f6-92bf-b773df67aac2",
    "name": "Prison City Brewing",
    "brewery_type": "brewpub",
    "address_1": "28 State St",
    "address_2": null,
    "address_3": null,
    "city": "Auburn",
    "state_province": "New York",
    "postal_code": "13021-3625",
    "country": "United States",
    "longitude": -76.5682427,
    "latitude": 42.9317672,
    "phone": "9177272477",
    "website_url": "http://www.prisoncitybrewing.com",
    "state": "New York",
    "street": "28 State St"
  },
  {
    "id": "0c9c1cb2-6f27-4325-9166-a34a991c573d",
    "name": "Prison Hill Brewing Co",
    "brewery_type": "brewpub",
    "address_1": "278 S Main St",
    "address_2": null,
    "address_3": null,
    "city": "Yuma",
    "state_province": "Arizona",
    "postal_code": "85364-1425",
    "country": "United States",
    "longitude": -114.6181995,
    "latitude": 32.7229185,
    "phone": "9282764001",
    "website_url": null,
    "state": "Arizona",
    "street": "278 S Main St"
  },
  {
    "id": "44e1daec-9053-413d-84bf-34d2d7e6a58f",
    "name": "Pro Re Nata Brewery",
    "brewery_type": "micro",
    "address_1": "6135 Rockfish Gap Tpke",
    "address_2": null,
    "address_3": null,
    "city": "Crozet",
    "state_province": "Virginia",
    "postal_code": "22932-3325",
    "country": "United States",
    "longitude": null,
    "latitude": null,
    "phone": "4348234878",
    "website_url": "http://www.prnbrewery.com",
    "state": "Virginia",
    "street": "6135 Rockfish Gap Tpke"
  },
  {
    "id": "3a56defa-55f4-47b9-8237-b3f98bf1064a",
    "name": "Proclamation Ale Company",
    "brewery_type": "micro",
    "address_1": "298 Kilvert St",
    "address_2": null,
    "address_3": null,
    "city": "Warwick",
    "state_province": "Rhode Island",
    "postal_code": "02886",
    "country": "United States",
    "longitude": -71.445959,
    "latitude": 41.730117,
    "phone": "4017876450",
    "website_url": "http://www.proclamationaleco.com",
    "state": "Rhode Island",
    "street": "298 Kilvert St"
  },
  {
    "id": "9431a008-3c97-40d5-baaf-7ba4b05acf64",
    "name": "Prodigal Son Brewery and Pub, The",
    "brewery_type": "brewpub",
    "address_1": "230 SE Court Ave",
    "address_2": null,
    "address_3": null,
    "city": "Pendleton",
    "state_province": "Oregon",
    "postal_code": "97801-2349",
    "country": "United States",
    "longitude": -118.7848215,
    "latitude": 45.6733148,
    "phone": "5412766090",
    "website_url": "http://www.prodigalsonbrewery.com",
    "state": "Oregon",
    "street": "230 SE Court Ave"
  },
  {
    "id": "6aff3c96-8d81-4d57-b427-9651c95bb6bf",
    "name": "Progress Brewing",
    "brewery_type": "micro",
    "address_1": "1822 Chico Ave",
    "address_2": null,
    "address_3": null,
    "city": "South El Monte",
    "state_province": "California",
    "postal_code": "91733-2944",
    "country": "United States",
    "longitude": -118.0598847,
    "latitude": 34.04935718,
    "phone": "6265529603",
    "website_url": "http://progress-brewing.com",
    "state": "California",
    "street": "1822 Chico Ave"
  },
  {
    "id": "448b1c20-2757-4084-8dc2-700824b6b3ff",
    "name": "Prohibition Brewing",
    "brewery_type": "brewpub",
    "address_1": "2004 E Vista Way",
    "address_2": null,
    "address_3": null,
    "city": "Vista",
    "state_province": "California",
    "postal_code": "92084-3321",
    "country": "United States",
    "longitude": -117.226841,
    "latitude": 33.230457,
    "phone": "7602953525",
    "website_url": "http://www.prohibitionbrewingcompany.com",
    "state": "California",
    "street": "2004 E Vista Way"
  },
  {
    "id": "0753cb2a-dcab-4b00-a941-b2a1af31cb42",
    "name": "Prohibition Pig",
    "brewery_type": "brewpub",
    "address_1": "23 S Main St Ste 1",
    "address_2": null,
    "address_3": null,
    "city": "Waterbury",
    "state_province": "Vermont",
    "postal_code": "05676-1863",
    "country": "United States",
    "longitude": null,
    "latitude": null,
    "phone": "8022444120",
    "website_url": "http://www.prohibitionpig.com",
    "state": "Vermont",
    "street": "23 S Main St Ste 1"
  },
  {
    "id": "79c3efb7-c8a0-4171-8734-ab6d1d3d32f0",
    "name": "Proof Brewing Co",
    "brewery_type": "micro",
    "address_1": "644 McDonnell Dr",
    "address_2": null,
    "address_3": null,
    "city": "Tallahassee",
    "state_province": "Florida",
    "postal_code": "32310-4808",
    "country": "United States",
    "longitude": -84.29116011,
    "latitude": 30.43293512,
    "phone": null,
    "website_url": "http://www.proofbrewingco.com",
    "state": "Florida",
    "street": "644 McDonnell Dr"
  },
  {
    "id": "a9dbe836-f39c-466c-8776-21caac8d433e",
    "name": "Propagation LLC",
    "brewery_type": "planning",
    "address_1": null,
    "address_2": null,
    "address_3": null,
    "city": "Saint Louis",
    "state_province": "Missouri",
    "postal_code": "63104-2425",
    "country": "United States",
    "longitude": null,
    "latitude": null,
    "phone": null,
    "website_url": "http://www.propagation.us",
    "state": "Missouri",
    "street": null
  },
  {
    "id": "30de6826-44e6-410d-bc9f-f91e684babcd",
    "name": "Proper Brewing Co",
    "brewery_type": "micro",
    "address_1": "857 S Main St",
    "address_2": null,
    "address_3": null,
    "city": "Salt Lake City",
    "state_province": "Utah",
    "postal_code": "84111",
    "country": "United States",
    "longitude": -111.8906741,
    "latitude": 40.7505505,
    "phone": "8019531707",
    "website_url": "http://www.properbrewingco.com",
    "state": "Utah",
    "street": "857 S Main St"
  },
  {
    "id": "f50b650c-b23f-4c28-aaf0-e41b540df87b",
    "name": "Propolis Brewing LLC",
    "brewery_type": "micro",
    "address_1": "2457 Jefferson St",
    "address_2": null,
    "address_3": null,
    "city": "Port Townsend",
    "state_province": "Washington",
    "postal_code": "98368-4634",
    "country": "United States",
    "longitude": -122.7734441,
    "latitude": 48.10915193,
    "phone": "7652155850",
    "website_url": "http://www.propolisbrewing.com",
    "state": "Washington",
    "street": "2457 Jefferson St"
  },
  {
    "id": "2cd4b108-518b-491d-8716-ef275c5d743b",
    "name": "Props Brewery and Grill",
    "brewery_type": "brewpub",
    "address_1": "125 Lovejoy Rd",
    "address_2": null,
    "address_3": null,
    "city": "Fort Walton Beach",
    "state_province": "Florida",
    "postal_code": "32548",
    "country": "United States",
    "longitude": null,
    "latitude": null,
    "phone": "8505867117",
    "website_url": "http://www.propsbrewery.com",
    "state": "Florida",
    "street": "125 Lovejoy Rd"
  },
  {
    "id": "5a129cf3-6e47-4244-ac3a-473028cd577e",
    "name": "Props Craft Brewery Taproom",
    "brewery_type": "micro",
    "address_1": "125 Lovejoy Rd NW",
    "address_2": null,
    "address_3": null,
    "city": "Fort Walton Beach",
    "state_province": "Florida",
    "postal_code": "32548-3418",
    "country": "United States",
    "longitude": -86.64962237,
    "latitude": 30.42411689,
    "phone": "8505867117",
    "website_url": "http://www.propsbrewery.com",
    "state": "Florida",
    "street": "125 Lovejoy Rd NW"
  },
  {
    "id": "c720c16f-37c4-49ac-ab31-d410ff491f81",
    "name": "Prost Brewing",
    "brewery_type": "micro",
    "address_1": "2540 19th St",
    "address_2": null,
    "address_3": null,
    "city": "Denver",
    "state_province": "Colorado",
    "postal_code": "80211-3910",
    "country": "United States",
    "longitude": -105.0067758,
    "latitude": 39.761363,
    "phone": "3037291175",
    "website_url": "http://www.prostbrewing.com",
    "state": "Colorado",
    "street": "2540 19th St"
  },
  {
    "id": "0676073b-a116-400c-a65a-7101daefc68b",
    "name": "Prost Brewing - Highlands Ranch",
    "brewery_type": "micro",
    "address_1": "53 Centennial Blvd",
    "address_2": null,
    "address_3": null,
    "city": "Highlands Ranch",
    "state_province": "Colorado",
    "postal_code": "80129",
    "country": "United States",
    "longitude": null,
    "latitude": null,
    "phone": "7206790505",
    "website_url": "https://www.prostbrewing.com/",
    "state": "Colorado",
    "street": "53 Centennial Blvd"
  },
  {
    "id": "fe7b2d32-800c-456c-b969-b9b2def948ed",
    "name": "Protector Brewery",
    "brewery_type": "micro",
    "address_1": "8680 Miralani Dr Ste 128",
    "address_2": null,
    "address_3": null,
    "city": "San Diego",
    "state_province": "California",
    "postal_code": "92126-6392",
    "country": "United States",
    "longitude": -117.137429,
    "latitude": 32.896584,
    "phone": "8587579160",
    "website_url": "http://www.protectorbrewery.com",
    "state": "California",
    "street": "8680 Miralani Dr Ste 128"
  },
  {
    "id": "0c115e76-1940-4b64-ba13-c903d95f0aed",
    "name": "Providence Brewing Company",
    "brewery_type": "micro",
    "address_1": "10 Sims Ave Unit 110",
    "address_2": null,
    "address_3": null,
    "city": "Providence",
    "state_province": "Rhode Island",
    "postal_code": "02909-1165",
    "country": "United States",
    "longitude": -71.4335016,
    "latitude": 41.8270445,
    "phone": "4013491260",
    "website_url": "https://providencebrewingcompany.com",
    "state": "Rhode Island",
    "street": "10 Sims Ave Unit 110"
  },
  {
    "id": "1243a0bb-ddff-44a2-8257-05a597432665",
    "name": "Pryes Brewing Company",
    "brewery_type": "micro",
    "address_1": "1401 W River Rd # N",
    "address_2": null,
    "address_3": null,
    "city": "Minneapolis",
    "state_province": "Minnesota",
    "postal_code": "55411-3436",
    "country": "United States",
    "longitude": -93.2763222,
    "latitude": 44.9935022,
    "phone": "6127877937",
    "website_url": "http://www.pryesbrewing.com",
    "state": "Minnesota",
    "street": "1401 W River Rd # N"
  },
  {
    "id": "d0963852-764a-4acd-b1b4-34af406036dd",
    "name": "PT's Brewing Co.",
    "brewery_type": "micro",
    "address_1": "3101 N Tenaya Way",
    "address_2": null,
    "address_3": null,
    "city": "Las Vegas",
    "state_province": "Nevada",
    "postal_code": "89128-0437",
    "country": "United States",
    "longitude": -115.2509527,
    "latitude": 36.1739188,
    "phone": null,
    "website_url": null,
    "state": "Nevada",
    "street": "3101 N Tenaya Way"
  },
  {
    "id": "f66e0f8c-af6d-4f0b-a2f0-53f279062189",
    "name": "Pub Craught",
    "brewery_type": "planning",
    "address_1": null,
    "address_2": null,
    "address_3": null,
    "city": "Baton Rouge",
    "state_province": "Louisiana",
    "postal_code": "70809-2228",
    "country": "United States",
    "longitude": null,
    "latitude": null,
    "phone": null,
    "website_url": null,
    "state": "Louisiana",
    "street": null
  },
  {
    "id": "2c797daa-c0a9-4a75-86b0-ed59a6a78b52",
    "name": "Pub Dog Brewing Company",
    "brewery_type": "micro",
    "address_1": "1203 New Windsor Rd",
    "address_2": null,
    "address_3": null,
    "city": "Westminster",
    "state_province": "Maryland",
    "postal_code": "21158-6704",
    "country": "United States",
    "longitude": -77.05229796,
    "latitude": 39.55045197,
    "phone": "4108483993",
    "website_url": "http://www.pubdog.com",
    "state": "Maryland",
    "street": "1203 New Windsor Rd"
  },
  {
    "id": "87961052-082b-4070-a77d-044a353c4e53",
    "name": "Public Brewhouse",
    "brewery_type": "micro",
    "address_1": "209 N Hoff Ave",
    "address_2": null,
    "address_3": null,
    "city": "Tucson",
    "state_province": "Arizona",
    "postal_code": "85705-8537",
    "country": "United States",
    "longitude": -110.9648848,
    "latitude": 32.22401718,
    "phone": "5207752337",
    "website_url": "http://www.publicbrewhouse.com",
    "state": "Arizona",
    "street": "209 N Hoff Ave"
  },
  {
    "id": "23009018-e5ab-4747-bd83-04665b226ea0",
    "name": "Public Coast Brewing",
    "brewery_type": "brewpub",
    "address_1": "264 E 3rd Ave",
    "address_2": null,
    "address_3": null,
    "city": "Cannon Beach",
    "state_province": "Oregon",
    "postal_code": "97110-2008",
    "country": "United States",
    "longitude": -123.9590737,
    "latitude": 45.90084068,
    "phone": "5034360285",
    "website_url": "http://www.publiccoastbrewing.com",
    "state": "Oregon",
    "street": "264 E 3rd Ave"
  },
  {
    "id": "32630107-81cf-4045-a0c3-5eb8f7b0ea63",
    "name": "Public Craft Brewing Co",
    "brewery_type": "micro",
    "address_1": "716 58th St",
    "address_2": null,
    "address_3": null,
    "city": "Kenosha",
    "state_province": "Wisconsin",
    "postal_code": "53140-4137",
    "country": "United States",
    "longitude": -87.81975091,
    "latitude": 42.58315424,
    "phone": "2626522739",
    "website_url": "http://www.publiccraftbrewing.com",
    "state": "Wisconsin",
    "street": "716 58th St"
  },
  {
    "id": "fa88cd5f-0c7d-495a-a4db-1ef89e1c1b7a",
    "name": "Public House Brewing Co",
    "brewery_type": "micro",
    "address_1": "551 State Route B",
    "address_2": null,
    "address_3": null,
    "city": "Saint James",
    "state_province": "Missouri",
    "postal_code": "65559-1055",
    "country": "United States",
    "longitude": -91.609275,
    "latitude": 38.01608,
    "phone": "5732613333",
    "website_url": "http://www.publichousebrewery.com",
    "state": "Missouri",
    "street": "551 State Route B"
  },
  {
    "id": "7c04768b-0adb-46eb-844b-c7f150a45831",
    "name": "Public House Brewing Company",
    "brewery_type": "micro",
    "address_1": "600 N Rolla St Ste B",
    "address_2": null,
    "address_3": null,
    "city": "Rolla",
    "state_province": "Missouri",
    "postal_code": "65401-3111",
    "country": "United States",
    "longitude": -91.77201,
    "latitude": 37.954113,
    "phone": "5734262337",
    "website_url": "http://www.publichousebrewery.com",
    "state": "Missouri",
    "street": "600 N Rolla St Ste B"
  },
  {
    "id": "a8d0eaec-038a-4812-8771-8bd32b8c7bb6",
    "name": "Public House Kitchen and Brewery",
    "brewery_type": "brewpub",
    "address_1": "9406 Battle St",
    "address_2": null,
    "address_3": null,
    "city": "Manassas",
    "state_province": "Virginia",
    "postal_code": "20110-5431",
    "country": "United States",
    "longitude": -77.4726206,
    "latitude": 38.7513396,
    "phone": "5712921427",
    "website_url": "http://www.badwolfpublichouse.com",
    "state": "Virginia",
    "street": "9406 Battle St"
  },
  {
    "id": "1194e820-846b-47be-a99b-fe9cbdbf6df8",
    "name": "Pubstomper Brewing Company",
    "brewery_type": "proprietor",
    "address_1": "132 Tower Ln",
    "address_2": null,
    "address_3": null,
    "city": "Westover",
    "state_province": "West Virginia",
    "postal_code": "26501-4506",
    "country": "United States",
    "longitude": -79.96183033,
    "latitude": 39.63624754,
    "phone": "3046850996",
    "website_url": "http://www.pubstomperbrewing.com",
    "state": "West Virginia",
    "street": "132 Tower Ln"
  },
  {
    "id": "e8797224-010f-4448-9b2a-a7455f8a768f",
    "name": "Pueblo Vida Brewing Co",
    "brewery_type": "micro",
    "address_1": "115 E Broadway Blvd",
    "address_2": null,
    "address_3": null,
    "city": "Tucson",
    "state_province": "Arizona",
    "postal_code": "85701-2011",
    "country": "United States",
    "longitude": -110.9451764,
    "latitude": 32.2214274,
    "phone": "5206237168",
    "website_url": "http://www.pueblovidabrewing.com",
    "state": "Arizona",
    "street": "115 E Broadway Blvd"
  },
  {
    "id": "14929b86-bff4-421a-bc03-be80a56572f8",
    "name": "Pug Ryan's Brewing Company",
    "brewery_type": "brewpub",
    "address_1": "104 Village Pl",
    "address_2": null,
    "address_3": null,
    "city": "Dillon",
    "state_province": "Colorado",
    "postal_code": "80435-2515",
    "country": "United States",
    "longitude": -106.0467598,
    "latitude": 39.62832675,
    "phone": "9704682145",
    "website_url": "http://www.pugryans.com",
    "state": "Colorado",
    "street": "104 Village Pl"
  },
  {
    "id": "50b1e05a-9230-43af-8fba-f04386753196",
    "name": "Pull Brewing Co",
    "brewery_type": "contract",
    "address_1": "317 Springtown Rd",
    "address_2": null,
    "address_3": null,
    "city": "New Paltz",
    "state_province": "New York",
    "postal_code": "12561-3020",
    "country": "United States",
    "longitude": -74.097562,
    "latitude": 41.760486,
    "phone": null,
    "website_url": "http://www.pullbrewing.com",
    "state": "New York",
    "street": "317 Springtown Rd"
  },
  {
    "id": "9119c101-09bb-4ac0-a3fe-da23442b96b7",
    "name": "Pulpit Rock Brewing Co.",
    "brewery_type": "micro",
    "address_1": "207 College Dr",
    "address_2": null,
    "address_3": null,
    "city": "Decorah",
    "state_province": "Iowa",
    "postal_code": "52101-1304",
    "country": "United States",
    "longitude": -91.7962545,
    "latitude": 43.30654024,
    "phone": "5633803610",
    "website_url": "http://www.pulpitrockbrewing.net",
    "state": "Iowa",
    "street": "207 College Dr"
  },
  {
    "id": "0cb99662-37d0-4a67-8fd4-8298f9179051",
    "name": "Pumphouse Brewery and Restaurant",
    "brewery_type": "brewpub",
    "address_1": "540 Main St",
    "address_2": null,
    "address_3": null,
    "city": "Longmont",
    "state_province": "Colorado",
    "postal_code": "80501-5537",
    "country": "United States",
    "longitude": -105.1020999,
    "latitude": 40.1687619,
    "phone": "3037020881",
    "website_url": "http://www.pumphousebrewery.com",
    "state": "Colorado",
    "street": "540 Main St"
  },
  {
    "id": "56758247-521c-4219-afa2-0665c48c50ef",
    "name": "Puntigamer Brauerei (Heineken)",
    "brewery_type": "large",
    "address_1": "Triester Str. 361",
    "address_2": null,
    "address_3": null,
    "city": "Graz",
    "state_province": "Steiermark",
    "postal_code": "8055",
    "country": "Austria",
    "longitude": 15.432570096538,
    "latitude": 47.029627917575,
    "phone": "+4331629710013",
    "website_url": "https://www.puntigamer.at",
    "state": "Steiermark",
    "street": "Triester Str. 361"
  },
  {
    "id": "d0dd6285-194e-4a7e-b260-1304a482c335",
    "name": "Pure Order Brewing Co",
    "brewery_type": "micro",
    "address_1": "410 N Quarantina St",
    "address_2": null,
    "address_3": null,
    "city": "Santa Barbara",
    "state_province": "California",
    "postal_code": "93103-3119",
    "country": "United States",
    "longitude": -119.6864979,
    "latitude": 34.42351207,
    "phone": "8059662881",
    "website_url": "http://www.pureorderbrewing.com",
    "state": "California",
    "street": "410 N Quarantina St"
  }
]