[
  {
    "id": "2e73516c-cb09-4946-a500-e6bc12149b97",
    "name": "Blue Ghost Brewing Company",
    "brewery_type": "brewpub",
    "address_1": "125 Underwood Rd",
    "address_2": null,
    "address_3": null,
    "city": "Fletcher",
    "state_province": "North Carolina",
    "postal_code": "28732-",
    "country": "United States",
    "longitude": -82.5305803,
    "latitude": 35.4368388,
    "phone": "8283760159",
    "website_url": "http://www.blueghostbrewing.com",
    "state": "North Carolina",
    "street": "125 Underwood Rd"
  },
  {
    "id": "ff28c999-2a8b-4f5e-be5c-61708b56d8c2",
    "name": "Blue Heron Brew Pub",
    "brewery_type": "brewpub",
    "address_1": "108 W 9th St",
    "address_2": null,
    "address_3": null,
    "city": "Marshfield",
    "state_province": "Wisconsin",
    "postal_code": "54449-4111",
    "country": "United States",
    "longitude": -90.18148902,
    "latitude": 44.65938079,
    "phone": "7153891868",
    "website_url": "http://www.blueheronbrewpub.com",
    "state": "Wisconsin",
    "street": "108 W 9th St"
  },
  {
    "id": "7d96c9eb-d026-4579-b0d2-703de93af667",
    "name": "Blue Heron Brewing",
    "brewery_type": "micro",
    "address_1": "2214 New Mexico 68",
    "address_2": null,
    "address_3": null,
    "city": "Embudo",
    "state_province": "New Mexico",
    "postal_code": "87531",
    "country": "United States",
    "longitude": null,
    "latitude": null,
    "phone": "5055799188",
    "website_url": "http://www.blueheronbrews.com",
    "state": "New Mexico",
    "street": "2214 New Mexico 68"
  },
  {
    "id": "9c8281e9-37e8-4f0f-8608-5be45c0148fd",
    "name": "Blue Island Beer Co",
    "brewery_type": "micro",
    "address_1": "13357 Olde Western Ave",
    "address_2": null,
    "address_3": null,
    "city": "Blue Island",
    "state_province": "Illinois",
    "postal_code": "60406-2969",
    "country": "United States",
    "longitude": null,
    "latitude": null,
    "phone": "7089548085",
    "website_url": "http://www.blueislandbeerco.com",
    "state": "Illinois",
    "street": "13357 Olde Western Ave"
  },
  {
    "id": "aef7a703-7954-41ed-9e29-c6d6bb8a23fe",
    "name": "Blue Line Brewery",
    "brewery_type": "brewpub",
    "address_1": "555 Lake Flower Ave",
    "address_2": null,
    "address_3": null,
    "city": "Saranac Lake",
    "state_province": "New York",
    "postal_code": "12983-2465",
    "country": "United States",
    "longitude": -74.11766659,
    "latitude": 44.31358605,
    "phone": "5183548114",
    "website_url": "http://www.bluelinebrew.com",
    "state": "New York",
    "street": "555 Lake Flower Ave"
  },
  {
    "id": "de0da44e-8a09-4e8d-8b3a-aca03b39cc23",
    "name": "Blue Moon Brewery",
    "brewery_type": "large",
    "address_1": "3750 Chestnut Pl",
    "address_2": null,
    "address_3": null,
    "city": "Denver",
    "state_province": "Colorado",
    "postal_code": "80216-3632",
    "country": "United States",
    "longitude": -104.9769417,
    "latitude": 39.7735561,
    "phone": null,
    "website_url": null,
    "state": "Colorado",
    "street": "3750 Chestnut Pl"
  },
  {
    "id": "1ec80861-6a0b-45be-a7bb-824b42088f80",
    "name": "Blue Mountain Barrel House and Organic Brewery",
    "brewery_type": "micro",
    "address_1": "495 Cooperative Way",
    "address_2": null,
    "address_3": null,
    "city": "Arrington",
    "state_province": "Virginia",
    "postal_code": "22922-3305",
    "country": "United States",
    "longitude": null,
    "latitude": null,
    "phone": "4342634002",
    "website_url": "http://www.bluemountainbarrel.com",
    "state": "Virginia",
    "street": "495 Cooperative Way"
  },
  {
    "id": "34ca6770-79f4-419e-b244-16f21b1273f4",
    "name": "Blue Mountain Brewery",
    "brewery_type": "micro",
    "address_1": "9519 Critzers Shop Rd",
    "address_2": null,
    "address_3": null,
    "city": "Afton",
    "state_province": "Virginia",
    "postal_code": "22920-2415",
    "country": "United States",
    "longitude": null,
    "latitude": null,
    "phone": "5404568020",
    "website_url": "http://www.bluemountainbrewery.com",
    "state": "Virginia",
    "street": "9519 Critzers Shop Rd"
  },
  {
    "id": "23799b52-1cb9-423e-abd5-35c913bf68e9",
    "name": "Blue Mountain Pizza and Brew Pub",
    "brewery_type": "brewpub",
    "address_1": "55 N Main St",
    "address_2": null,
    "address_3": null,
    "city": "Weaverville",
    "state_province": "North Carolina",
    "postal_code": "28787-6634",
    "country": "United States",
    "longitude": -82.55934457,
    "latitude": 35.70849553,
    "phone": "8286588777",
    "website_url": "http://www.bluemountainpizza.com",
    "state": "North Carolina",
    "street": "55 N Main St"
  },
  {
    "id": "151dc23e-ecd8-4402-a4c5-2fac488d5e92",
    "name": "Blue Nose Brewery",
    "brewery_type": "micro",
    "address_1": "6119 East Ave",
    "address_2": null,
    "address_3": null,
    "city": "Hodgkins",
    "state_province": "Illinois",
    "postal_code": "60525-4126",
    "country": "United States",
    "longitude": -87.85833464,
    "latitude": 41.77904908,
    "phone": "7089055198",
    "website_url": "http://www.bluenosebrewery.com",
    "state": "Illinois",
    "street": "6119 East Ave"
  },
  {
    "id": "4857f5fa-2815-44f7-b30d-2b1f0d3c0c6b",
    "name": "Blue Note Brewing Company",
    "brewery_type": "micro",
    "address_1": "750 Dead Cat Aly",
    "address_2": null,
    "address_3": null,
    "city": "Woodland",
    "state_province": "California",
    "postal_code": "95695-3435",
    "country": "United States",
    "longitude": -121.7712396,
    "latitude": 38.67803633,
    "phone": "5303584677",
    "website_url": "http://www.bluenotebrewing.com",
    "state": "California",
    "street": "750 Dead Cat Aly"
  },
  {
    "id": "b2e4ab7a-3508-450d-8bea-47b39bee40d2",
    "name": "Blue Oak Brewing Co",
    "brewery_type": "micro",
    "address_1": "821 Cherry Ln",
    "address_2": null,
    "address_3": null,
    "city": "San Carlos",
    "state_province": "California",
    "postal_code": "94070-3306",
    "country": "United States",
    "longitude": -122.2534864,
    "latitude": 37.51008173,
    "phone": "4152739676",
    "website_url": "http://blueoakbrewing.com",
    "state": "California",
    "street": "821 Cherry Ln"
  },
  {
    "id": "5c4c95ae-4128-4510-b2c7-2a7c483de5a2",
    "name": "Blue Owl Brewing",
    "brewery_type": "micro",
    "address_1": "2400 E Cesar Chavez St Ste 300",
    "address_2": null,
    "address_3": null,
    "city": "Austin",
    "state_province": "Texas",
    "postal_code": "78702-4638",
    "country": "United States",
    "longitude": -97.7189581,
    "latitude": 30.2545583,
    "phone": "5125931262",
    "website_url": "http://www.blueowlbrewing.com",
    "state": "Texas",
    "street": "2400 E Cesar Chavez St Ste 300"
  },
  {
    "id": "638f8af8-5c7f-4eed-9b7e-5c199227e154",
    "name": "Blue Pants Brewery",
    "brewery_type": "micro",
    "address_1": "500 Lanier Rd, Bld 1 - Ste A",
    "address_2": null,
    "address_3": null,
    "city": "Madison",
    "state_province": "Alabama",
    "postal_code": "35758-8675",
    "country": "United States",
    "longitude": null,
    "latitude": null,
    "phone": "2566796330",
    "website_url": "http://www.bluepantsbrew.com",
    "state": "Alabama",
    "street": "500 Lanier Rd, Bld 1 - Ste A"
  },
  {
    "id": "2305e910-7a97-4d2e-bc7d-573216936035",
    "name": "Blue Pike Cantina",
    "brewery_type": "brewpub",
    "address_1": "152 S Water St",
    "address_2": null,
    "address_3": null,
    "city": "Marine City",
    "state_province": "Michigan",
    "postal_code": "48039-1687",
    "country": "United States",
    "longitude": -82.49085669,
    "latitude": 42.71829576,
    "phone": "8107654200",
    "website_url": null,
    "state": "Michigan",
    "street": "152 S Water St"
  },
  {
    "id": "448fb5bd-505b-40a0-ab84-0720ff5f281c",
    "name": "Blue Point Brewing",
    "brewery_type": "large",
    "address_1": "225 West Main St",
    "address_2": null,
    "address_3": null,
    "city": "Patchogue",
    "state_province": "New York",
    "postal_code": "11772",
    "country": "United States",
    "longitude": -73.02103705,
    "latitude": 40.76644215,
    "phone": null,
    "website_url": null,
    "state": "New York",
    "street": "225 West Main St"
  },
  {
    "id": "593ee04a-4af6-4d32-a00d-f8ac6357469a",
    "name": "Blue Point Brewing Co",
    "brewery_type": "large",
    "address_1": "161 River Ave",
    "address_2": null,
    "address_3": null,
    "city": "Patchogue",
    "state_province": "New York",
    "postal_code": "11772-3304",
    "country": "United States",
    "longitude": -73.0216063,
    "latitude": 40.75913445,
    "phone": "6314756944",
    "website_url": "http://www.bluepointbrewing.com",
    "state": "New York",
    "street": "161 River Ave"
  },
  {
    "id": "054cbb4c-2427-493a-98d6-00e3d3baeb1e",
    "name": "Blue Raven Brewery",
    "brewery_type": "taproom",
    "address_1": "209 E 18th St",
    "address_2": null,
    "address_3": null,
    "city": "Cheyenne",
    "state_province": "Wyoming",
    "postal_code": "82001-4507",
    "country": "United States",
    "longitude": -104.81996920028,
    "latitude": 41.157018313336,
    "phone": "3073691978",
    "website_url": "https://www.blueravenbrewery.com",
    "state": "Wyoming",
    "street": "209 E 18th St"
  },
  {
    "id": "f1b9daa7-cb17-498a-b784-e2ff41b4257f",
    "name": "BLUE RIDGE BREWING",
    "brewery_type": "planning",
    "address_1": null,
    "address_2": null,
    "address_3": null,
    "city": "Malta",
    "state_province": "Montana",
    "postal_code": "59538",
    "country": "United States",
    "longitude": null,
    "latitude": null,
    "phone": "4066542855",
    "website_url": null,
    "state": "Montana",
    "street": null
  },
  {
    "id": "05a8d9a8-670a-4e5d-86c3-fddd352cfe43",
    "name": "Blue Ridge Brewing Co/Foothills Brewing",
    "brewery_type": "brewpub",
    "address_1": "308 Trade St",
    "address_2": null,
    "address_3": null,
    "city": "Greer",
    "state_province": "South Carolina",
    "postal_code": "29651-3432",
    "country": "United States",
    "longitude": -82.2262648,
    "latitude": 34.9361559,
    "phone": "8642324677",
    "website_url": "http://www.blueridgebrewing.com",
    "state": "South Carolina",
    "street": "308 Trade St"
  },
  {
    "id": "e1312a12-35d9-4636-a80a-9f9a95463964",
    "name": "Blue Ridge Community College",
    "brewery_type": "planning",
    "address_1": null,
    "address_2": null,
    "address_3": null,
    "city": "Flat Rock",
    "state_province": "North Carolina",
    "postal_code": "28731-4774",
    "country": "United States",
    "longitude": null,
    "latitude": null,
    "phone": "8286941674",
    "website_url": "http://www.blueridge.edu",
    "state": "North Carolina",
    "street": null
  },
  {
    "id": "3b5c7026-2f62-4fc0-ad1b-71a62ed0989d",
    "name": "Blue Skye Brewery",
    "brewery_type": "brewpub",
    "address_1": "116 N Santa Fe Ave",
    "address_2": null,
    "address_3": null,
    "city": "Salina",
    "state_province": "Kansas",
    "postal_code": "67401-2614",
    "country": "United States",
    "longitude": -97.608998,
    "latitude": 38.84100296,
    "phone": "7854521234",
    "website_url": "http://blueskyebrewery.com",
    "state": "Kansas",
    "street": "116 N Santa Fe Ave"
  },
  {
    "id": "b43d9155-7bdb-49af-b0b8-58bc87119cfe",
    "name": "Blue Spruce Brewing",
    "brewery_type": "brewpub",
    "address_1": "4151 E County Line Rd Unit G",
    "address_2": null,
    "address_3": null,
    "city": "Centennial",
    "state_province": "Colorado",
    "postal_code": "80122-8113",
    "country": "United States",
    "longitude": null,
    "latitude": null,
    "phone": "3037710590",
    "website_url": "http://www.bluesprucebrewing.com",
    "state": "Colorado",
    "street": "4151 E County Line Rd Unit G"
  },
  {
    "id": "20541e39-2e32-455d-9b2b-cb926fc11fa2",
    "name": "Blue Spruce Brewing Littleton",
    "brewery_type": "brewpub",
    "address_1": "10577 W Centennial Rd",
    "address_2": null,
    "address_3": null,
    "city": "Littleton",
    "state_province": "Colorado",
    "postal_code": "80127-4233",
    "country": "United States",
    "longitude": null,
    "latitude": null,
    "phone": null,
    "website_url": "http://www.bluesprucebrewing.com",
    "state": "Colorado",
    "street": "10577 W Centennial Rd"
  },
  {
    "id": "6d48e0c5-c4ec-43f9-8678-28daa1be8c78",
    "name": "Blue Stallion Brewing Company",
    "brewery_type": "micro",
    "address_1": "610 W Third St",
    "address_2": null,
    "address_3": null,
    "city": "Lexington",
    "state_province": "Kentucky",
    "postal_code": "40508-1243",
    "country": "United States",
    "longitude": -84.50136234,
    "latitude": 38.05710985,
    "phone": "8596088490",
    "website_url": "http://www.bluestallionbrewing.com",
    "state": "Kentucky",
    "street": "610 W Third St"
  },
  {
    "id": "549145aa-cde9-4d76-a282-7508eaee9b3c",
    "name": "Blue Star Brewing Co",
    "brewery_type": "brewpub",
    "address_1": "1414 S Alamo St # 105",
    "address_2": null,
    "address_3": null,
    "city": "San Antonio",
    "state_province": "Texas",
    "postal_code": "78210-1117",
    "country": "United States",
    "longitude": -98.49615307,
    "latitude": 29.40989569,
    "phone": "2102125506",
    "website_url": "http://www.bluestarbrewing.com",
    "state": "Texas",
    "street": "1414 S Alamo St # 105"
  },
  {
    "id": "eeef44bf-a841-4f54-94d3-d9864b81785c",
    "name": "Blue Tractor Brewing Co",
    "brewery_type": "brewpub",
    "address_1": "207 E Washington St",
    "address_2": null,
    "address_3": null,
    "city": "Ann Arbor",
    "state_province": "Michigan",
    "postal_code": "48104-2007",
    "country": "United States",
    "longitude": -83.74704578,
    "latitude": 42.28052759,
    "phone": "7342224095",
    "website_url": null,
    "state": "Michigan",
    "street": "207 E Washington St"
  },
  {
    "id": "1487d681-ecde-4a87-a70d-12956186e99c",
    "name": "Blue Wolf Brewing Company LLC",
    "brewery_type": "micro",
    "address_1": "8515 Edinburgh Centre Dr.",
    "address_2": null,
    "address_3": null,
    "city": "Brooklyn Park",
    "state_province": "Minnesota",
    "postal_code": "55443",
    "country": "United States",
    "longitude": null,
    "latitude": null,
    "phone": "7633906700",
    "website_url": "http://www.bluewolfbrew.com",
    "state": "Minnesota",
    "street": "8515 Edinburgh Centre Dr."
  },
  {
    "id": "c3d86c65-615c-4d13-9c5d-9f4bc7b5ee64",
    "name": "Blue Zone Brewing Co.",
    "brewery_type": "planning",
    "address_1": null,
    "address_2": null,
    "address_3": null,
    "city": "Saint George",
    "state_province": "Utah",
    "postal_code": "84790-5716",
    "country": "United States",
    "longitude": null,
    "latitude": null,
    "phone": "4353135050",
    "website_url": null,
    "state": "Utah",
    "street": null
  },
  {
    "id": "d30dffbe-c246-4137-9ab2-e15e68c44d4b",
    "name": "Bluebird Brasserie",
    "brewery_type": "brewpub",
    "address_1": "13730 Ventura Blvd",
    "address_2": null,
    "address_3": null,
    "city": "Sherman Oaks",
    "state_province": "California",
    "postal_code": "91423",
    "country": "United States",
    "longitude": -118.4365891,
    "latitude": 34.1489109,
    "phone": null,
    "website_url": "http://www.bluebirdbrasserie.com",
    "state": "California",
    "street": "13730 Ventura Blvd"
  },
  {
    "id": "fe28d7bf-10f6-4535-821b-71dab747bc14",
    "name": "Bluebird Microcreamery and Brewery",
    "brewery_type": "micro",
    "address_1": "7415 Greenwood Ave N",
    "address_2": null,
    "address_3": null,
    "city": "Seattle",
    "state_province": "Washington",
    "postal_code": "98103-5044",
    "country": "United States",
    "longitude": -122.355108,
    "latitude": 47.6826657,
    "phone": "2066598154",
    "website_url": "https://www.facebook.com/bluebirdicecrm",
    "state": "Washington",
    "street": "7415 Greenwood Ave N"
  },
  {
    "id": "cc7d935c-c318-4a60-9da6-e683a3ce7fb9",
    "name": "Bluebonnet Beer Co",
    "brewery_type": "micro",
    "address_1": "1700 Bryant Dr Ste 107",
    "address_2": null,
    "address_3": null,
    "city": "Round Rock",
    "state_province": "Texas",
    "postal_code": "78664-3898",
    "country": "United States",
    "longitude": -97.645332,
    "latitude": 30.491657,
    "phone": "5127744258",
    "website_url": "http://www.bluebonnetbeerco.com",
    "state": "Texas",
    "street": "1700 Bryant Dr Ste 107"
  },
  {
    "id": "769657dd-ea31-413f-a465-54e729967309",
    "name": "Bluegrass Brewing Co - Brewpub",
    "brewery_type": "brewpub",
    "address_1": "300 W Main St",
    "address_2": null,
    "address_3": null,
    "city": "Louisville",
    "state_province": "Kentucky",
    "postal_code": "40202-2945",
    "country": "United States",
    "longitude": -85.75508898,
    "latitude": 38.25620645,
    "phone": "5028997070",
    "website_url": "http://www.bbcbrew.com",
    "state": "Kentucky",
    "street": "300 W Main St"
  },
  {
    "id": "2b6bb7e5-a528-4387-a970-0be422a7afcc",
    "name": "Bluejacket",
    "brewery_type": "brewpub",
    "address_1": "300 Tingey St SE",
    "address_2": null,
    "address_3": null,
    "city": "Washington",
    "state_province": "District of Columbia",
    "postal_code": "20003-4625",
    "country": "United States",
    "longitude": -77.0006981,
    "latitude": 38.8750965,
    "phone": null,
    "website_url": "http://www.bluejacketdc.com",
    "state": "District of Columbia",
    "street": "300 Tingey St SE"
  },
  {
    "id": "4ff360b9-b45b-45d2-8646-c2b91975890f",
    "name": "Blueprint Brewing Co.",
    "brewery_type": "micro",
    "address_1": "1571 Gehman Rd",
    "address_2": null,
    "address_3": null,
    "city": "Harleysville",
    "state_province": "Pennsylvania",
    "postal_code": "19438-2930",
    "country": "United States",
    "longitude": null,
    "latitude": null,
    "phone": "4843197901",
    "website_url": "http://www.blueprintbrewco.com",
    "state": "Pennsylvania",
    "street": "1571 Gehman Rd"
  },
  {
    "id": "b4f332ec-a7a0-4acb-8d19-9c4073a4b84e",
    "name": "Blues City Brewing Co",
    "brewery_type": "regional",
    "address_1": "5151 E Raines Rd",
    "address_2": null,
    "address_3": null,
    "city": "Memphis",
    "state_province": "Tennessee",
    "postal_code": "38118-7026",
    "country": "United States",
    "longitude": -89.8874019,
    "latitude": 35.0350188,
    "phone": "6087854200",
    "website_url": "http://www.citybrewing.com",
    "state": "Tennessee",
    "street": "5151 E Raines Rd"
  },
  {
    "id": "6e5e63f5-4465-4ea8-9dbf-b55213db2775",
    "name": "Bluestone Brewing Company",
    "brewery_type": "brewpub",
    "address_1": "18 Pitney St",
    "address_2": null,
    "address_3": null,
    "city": "Sayre",
    "state_province": "Pennsylvania",
    "postal_code": "18840-2720",
    "country": "United States",
    "longitude": -76.54508776,
    "latitude": 41.99222929,
    "phone": "5707310222",
    "website_url": "http://www.bluestonebrewingcompany.com",
    "state": "Pennsylvania",
    "street": "18 Pitney St"
  },
  {
    "id": "804a6227-ddd1-41d8-8771-2485a1c63bdb",
    "name": "BlueTarp Brewing Co",
    "brewery_type": "micro",
    "address_1": "731 E College Ave",
    "address_2": null,
    "address_3": null,
    "city": "Decatur",
    "state_province": "Georgia",
    "postal_code": "30030-5365",
    "country": "United States",
    "longitude": -84.2835622,
    "latitude": 33.7740425,
    "phone": "4046696740",
    "website_url": "http://www.bluetarpbrew.com",
    "state": "Georgia",
    "street": "731 E College Ave"
  },
  {
    "id": "6cf234fc-dbea-49e6-8f47-900554620a42",
    "name": "Bluewater Brewing Co",
    "brewery_type": "micro",
    "address_1": "318 S Royal Ave",
    "address_2": null,
    "address_3": null,
    "city": "Florence",
    "state_province": "Alabama",
    "postal_code": "35630-4810",
    "country": "United States",
    "longitude": -87.65970529,
    "latitude": 34.8041295,
    "phone": "2562751221",
    "website_url": "http://www.facebook.com/pg/BluewaterBrewingCompanyInc",
    "state": "Alabama",
    "street": "318 S Royal Ave"
  },
  {
    "id": "47245471-08aa-439c-acfb-67fb282e336a",
    "name": "Bluewood Brewing",
    "brewery_type": "micro",
    "address_1": "1821 Cherokee St",
    "address_2": null,
    "address_3": null,
    "city": "Saint Louis",
    "state_province": "Missouri",
    "postal_code": "63118",
    "country": "United States",
    "longitude": -90.216631,
    "latitude": 38.601767,
    "phone": "3143764166",
    "website_url": "http://www.bluewoodbrewing.com",
    "state": "Missouri",
    "street": "1821 Cherokee St"
  },
  {
    "id": "0c7d6d42-ad91-4e1c-8556-c1c1ac8617ae",
    "name": "Bnaf, LLC",
    "brewery_type": "planning",
    "address_1": null,
    "address_2": null,
    "address_3": null,
    "city": "Austin",
    "state_province": "Texas",
    "postal_code": "78727-7602",
    "country": "United States",
    "longitude": null,
    "latitude": null,
    "phone": null,
    "website_url": null,
    "state": "Texas",
    "street": null
  },
  {
    "id": "7363955c-5498-4fe3-becb-5c09ae0978bc",
    "name": "BNS Brewing & Distilling Co.",
    "brewery_type": "closed",
    "address_1": "10960 Wheatlands Ave Ste 101",
    "address_2": null,
    "address_3": null,
    "city": "Santee",
    "state_province": "California",
    "postal_code": "92071-5617",
    "country": "United States",
    "longitude": -116.9583418,
    "latitude": 32.84680335,
    "phone": "6199560952",
    "website_url": "http://www.bnsbrewinganddistilling.com",
    "state": "California",
    "street": "10960 Wheatlands Ave Ste 101"
  },
  {
    "id": "033c99f9-ac36-4169-8721-1e90548a253a",
    "name": "Bo Bristle Brewing Co.",
    "brewery_type": "micro",
    "address_1": "Unit 5, Banagher Enterprise Centre",
    "address_2": "Church St",
    "address_3": "Kylebeg",
    "city": "Banagher",
    "state_province": "Offaly",
    "postal_code": "R42 KX30",
    "country": "Ireland",
    "longitude": -7.9921729,
    "latitude": 53.1866197,
    "phone": "353861250283",
    "website_url": null,
    "state": "Offaly",
    "street": "Unit 5, Banagher Enterprise Centre"
  },
  {
    "id": "b58ed0a2-769a-4923-b0f6-360bff09ab8c",
    "name": "Boak Brewing Co",
    "brewery_type": "contract",
    "address_1": "262 Wanaque Ave Rear",
    "address_2": null,
    "address_3": null,
    "city": "Pompton Lakes",
    "state_province": "New Jersey",
    "postal_code": "07442-2116",
    "country": "United States",
    "longitude": null,
    "latitude": null,
    "phone": "9735706381",
    "website_url": "http://www.boaks.com",
    "state": "New Jersey",
    "street": "262 Wanaque Ave Rear"
  },
  {
    "id": "1e876ec1-817a-4153-a143-459dc0627309",
    "name": "Boat Town Brewing",
    "brewery_type": "micro",
    "address_1": "18146 Campground Rd",
    "address_2": null,
    "address_3": null,
    "city": "Phillipsburg",
    "state_province": "Missouri",
    "postal_code": "65722-8122",
    "country": "United States",
    "longitude": -92.712765,
    "latitude": 37.59991,
    "phone": "4175332306",
    "website_url": "http://www.boattownbrewing.com",
    "state": "Missouri",
    "street": "18146 Campground Rd"
  },
  {
    "id": "863ccdbc-4d91-4499-9e10-c6c175e54d6d",
    "name": "Boathouse Brewery LLC",
    "brewery_type": "brewpub",
    "address_1": "47 E Sheridan St",
    "address_2": null,
    "address_3": null,
    "city": "Ely",
    "state_province": "Minnesota",
    "postal_code": "55731-1289",
    "country": "United States",
    "longitude": -91.8656329,
    "latitude": 47.9034136,
    "phone": "2183654301",
    "website_url": "http://www.frontiernet.net",
    "state": "Minnesota",
    "street": "47 E Sheridan St"
  },
  {
    "id": "3b84f884-47c8-4dbb-84f7-1cb785d2c2a1",
    "name": "Boathouse Brothers Brewing Co",
    "brewery_type": "micro",
    "address_1": "16211 Main Avenue SE",
    "address_2": null,
    "address_3": null,
    "city": "Prior Lake",
    "state_province": "Minnesota",
    "postal_code": "55372-2332",
    "country": "United States",
    "longitude": -93.42397083,
    "latitude": 44.71449616,
    "phone": "9522506143",
    "website_url": null,
    "state": "Minnesota",
    "street": "16211 Main Avenue SE"
  },
  {
    "id": "cb05f966-8048-44d9-87a7-a52ea80fdd7b",
    "name": "Boatyard Brewing Co",
    "brewery_type": "micro",
    "address_1": "432 E Paterson St",
    "address_2": null,
    "address_3": null,
    "city": "Kalamazoo",
    "state_province": "Michigan",
    "postal_code": "49007-2599",
    "country": "United States",
    "longitude": -85.578439,
    "latitude": 42.303203,
    "phone": "2692260300",
    "website_url": "http://www.boatyardbrewing.com",
    "state": "Michigan",
    "street": "432 E Paterson St"
  },
  {
    "id": "941a14d9-f881-4f74-992c-75ab08d5837e",
    "name": "Bob Loblaw Brewing",
    "brewery_type": "planning",
    "address_1": null,
    "address_2": null,
    "address_3": null,
    "city": "Miami",
    "state_province": "Florida",
    "postal_code": "33179",
    "country": "United States",
    "longitude": null,
    "latitude": null,
    "phone": "3052495628",
    "website_url": "http://www.bobloblawbrewing.com",
    "state": "Florida",
    "street": null
  },
  {
    "id": "add8f33d-d999-4acd-a8cc-11cac7434700",
    "name": "Bobcat Brewery & Cafe",
    "brewery_type": "brewpub",
    "address_1": "5 Main St",
    "address_2": null,
    "address_3": null,
    "city": "Bristol",
    "state_province": "Vermont",
    "postal_code": "05443-1317",
    "country": "United States",
    "longitude": -73.07811204,
    "latitude": 44.13284975,
    "phone": "8024533311",
    "website_url": "http://www.bobcatcafe.com",
    "state": "Vermont",
    "street": "5 Main St"
  }
]