[
  {
    "id": "1e03e945-7418-4d87-9e61-ca95542a4580",
    "name": "Basic City Beer Co. (Southside RVA)",
    "brewery_type": "micro",
    "address_1": "212 W 6th St",
    "address_2": null,
    "address_3": null,
    "city": "Richmond",
    "state_province": "Virginia",
    "postal_code": "23224",
    "country": "United States",
    "longitude": null,
    "latitude": null,
    "phone": "8044474735",
    "website_url": "https://www.basiccitybeer.com/rva-map",
    "state": "Virginia",
    "street": "212 W 6th St"
  },
  {
    "id": "4d515475-dfce-446d-bf21-62a12a4021c3",
    "name": "Basket Case Brewing Co",
    "brewery_type": "brewpub",
    "address_1": "1340 Mill St",
    "address_2": null,
    "address_3": null,
    "city": "Jasper",
    "state_province": "Indiana",
    "postal_code": "47546-2310",
    "country": "United States",
    "longitude": -86.92850063,
    "latitude": 38.39736355,
    "phone": "8124824345",
    "website_url": "http://www.basketcasebeer.com",
    "state": "Indiana",
    "street": "1340 Mill St"
  },
  {
    "id": "66e4ffa1-88da-4a41-8bf3-fea86dbcaada",
    "name": "Bastard Brothers Brewing Company",
    "brewery_type": "micro",
    "address_1": "2114 Penta Dr",
    "address_2": null,
    "address_3": null,
    "city": "High Ridge",
    "state_province": "Missouri",
    "postal_code": "63049-2684",
    "country": "United States",
    "longitude": -90.503349,
    "latitude": 38.48282,
    "phone": "3145203401",
    "website_url": "http://www.bastardbrothersbrewery.com",
    "state": "Missouri",
    "street": "2114 Penta Dr"
  },
  {
    "id": "469e0667-cecc-4e07-b27c-443a187baf51",
    "name": "Bastet Brewing",
    "brewery_type": "planning",
    "address_1": null,
    "address_2": null,
    "address_3": null,
    "city": "Tampa",
    "state_province": "Florida",
    "postal_code": "33613-1254",
    "country": "United States",
    "longitude": null,
    "latitude": null,
    "phone": null,
    "website_url": "http://www.bastetbrewing.com",
    "state": "Florida",
    "street": null
  },
  {
    "id": "52f98458-5a40-43bc-88f7-f6dbc6b4cc95",
    "name": "Bastion Brewing Company",
    "brewery_type": "brewpub",
    "address_1": "12529 Christianson Rd",
    "address_2": null,
    "address_3": null,
    "city": "Anacortes",
    "state_province": "Washington",
    "postal_code": "98221-8682",
    "country": "United States",
    "longitude": -122.5708729,
    "latitude": 48.46080506,
    "phone": "3603991614",
    "website_url": "http://www.bastionbrewingcompany.com",
    "state": "Washington",
    "street": "12529 Christianson Rd"
  },
  {
    "id": "e48f036b-e371-4e7e-b78f-08a976dc26db",
    "name": "Bastone Brewery",
    "brewery_type": "brewpub",
    "address_1": "419 S Main St",
    "address_2": null,
    "address_3": null,
    "city": "Royal Oak",
    "state_province": "Michigan",
    "postal_code": "48067-2615",
    "country": "United States",
    "longitude": -83.1440578,
    "latitude": 42.4836283,
    "phone": "2485446250",
    "website_url": "http://www.bastone.net/br/bastone-brewery",
    "state": "Michigan",
    "street": "419 S Main St"
  },
  {
    "id": "e9ce69e2-13cf-48bd-81e2-10235db692aa",
    "name": "Batch Brewing Co",
    "brewery_type": "brewpub",
    "address_1": "1400 Porter St",
    "address_2": null,
    "address_3": null,
    "city": "Detroit",
    "state_province": "Michigan",
    "postal_code": "48216-1934",
    "country": "United States",
    "longitude": -83.088689,
    "latitude": 42.3184806,
    "phone": "3133388008",
    "website_url": "http://www.BatchBrewingCompany.com",
    "state": "Michigan",
    "street": "1400 Porter St"
  },
  {
    "id": "a0fe534d-c9f1-4232-88cd-b918d16952d8",
    "name": "Batch Craft Beer and Kolaches",
    "brewery_type": "planning",
    "address_1": null,
    "address_2": null,
    "address_3": null,
    "city": "Austin",
    "state_province": "Texas",
    "postal_code": "78723",
    "country": "United States",
    "longitude": null,
    "latitude": null,
    "phone": "5124013025",
    "website_url": "http://www.batchatx.com",
    "state": "Texas",
    "street": null
  },
  {
    "id": "b9371de8-5c61-41c2-b2dd-9d4f5fd6eae7",
    "name": "Bath Brewing Company",
    "brewery_type": "brewpub",
    "address_1": "141 Front St",
    "address_2": null,
    "address_3": null,
    "city": "Bath",
    "state_province": "Maine",
    "postal_code": "04530",
    "country": "United States",
    "longitude": -69.81414593,
    "latitude": 43.91408541,
    "phone": "2075603389",
    "website_url": "http://www.bathbrewing.com",
    "state": "Maine",
    "street": "141 Front St"
  },
  {
    "id": "7166c5a7-c772-44de-b0e1-fea41d5b4368",
    "name": "Bathtub Row Brewing Co-op",
    "brewery_type": "micro",
    "address_1": "163 Central Park Sq",
    "address_2": null,
    "address_3": null,
    "city": "Los Alamos",
    "state_province": "New Mexico",
    "postal_code": "87544-4029",
    "country": "United States",
    "longitude": -106.3007594,
    "latitude": 35.8839054,
    "phone": "5055008381",
    "website_url": null,
    "state": "New Mexico",
    "street": "163 Central Park Sq"
  },
  {
    "id": "8fa5ceba-e668-479e-9eb6-792be566eff2",
    "name": "Battered Boar Brewing Co",
    "brewery_type": "micro",
    "address_1": "14700 Metro Plaza Blvd Ste F",
    "address_2": null,
    "address_3": null,
    "city": "Edmond",
    "state_province": "Oklahoma",
    "postal_code": "73013-1991",
    "country": "United States",
    "longitude": -97.50849,
    "latitude": 35.619996,
    "phone": "4052545000",
    "website_url": "http://www.batteredboar.com",
    "state": "Oklahoma",
    "street": "14700 Metro Plaza Blvd Ste F"
  },
  {
    "id": "5d9e917f-4b58-41bf-9acb-a4d06fcacba5",
    "name": "Battery Steele Brewing",
    "brewery_type": "micro",
    "address_1": "1 Industrial Way Ste 12",
    "address_2": null,
    "address_3": null,
    "city": "Portland",
    "state_province": "Maine",
    "postal_code": "04103-1072",
    "country": "United States",
    "longitude": null,
    "latitude": null,
    "phone": null,
    "website_url": "http://www.batterysteele.com",
    "state": "Maine",
    "street": "1 Industrial Way Ste 12"
  },
  {
    "id": "b630a613-c4e9-4d35-a437-beef57df6fd7",
    "name": "Battle Born\u00c2\u00ae Beer",
    "brewery_type": "contract",
    "address_1": "100 N Arlington Ave Ste 100",
    "address_2": null,
    "address_3": null,
    "city": "Reno",
    "state_province": "Nevada",
    "postal_code": "89501-1233",
    "country": "United States",
    "longitude": null,
    "latitude": null,
    "phone": "8183173128",
    "website_url": "http://battleborn.beer",
    "state": "Nevada",
    "street": "100 N Arlington Ave Ste 100"
  },
  {
    "id": "ef48afa5-9ac1-439c-851d-0fb04b43786f",
    "name": "Battle Brewery",
    "brewery_type": "micro",
    "address_1": "North Trade Road",
    "address_2": null,
    "address_3": null,
    "city": "Battle",
    "state_province": "East Sussex",
    "postal_code": "TN33 0HN",
    "country": "England",
    "longitude": 0.457425,
    "latitude": 50.916346,
    "phone": "1424772838",
    "website_url": "http://battlebrewery.co.uk/",
    "state": "East Sussex",
    "street": "North Trade Road"
  },
  {
    "id": "ee894df8-970e-4fcd-96fd-56a385f03aab",
    "name": "Battle Hill Brewing Company",
    "brewery_type": "micro",
    "address_1": "4 Charles Street",
    "address_2": null,
    "address_3": null,
    "city": "Fort Ann",
    "state_province": "New York",
    "postal_code": "12827",
    "country": "United States",
    "longitude": -73.48739346,
    "latitude": 43.41676935,
    "phone": "5186391033",
    "website_url": "http://www.battlehillbrewing.com",
    "state": "New York",
    "street": "4 Charles Street"
  },
  {
    "id": "247f6183-0e55-4613-bd72-06d88eee5fed",
    "name": "Battle Mountain Brewing Co",
    "brewery_type": "brewpub",
    "address_1": "330 Third St",
    "address_2": null,
    "address_3": null,
    "city": "Castle Rock",
    "state_province": "Colorado",
    "postal_code": "80104",
    "country": "United States",
    "longitude": -104.859545,
    "latitude": 39.3721413,
    "phone": "7202871961",
    "website_url": "https://www.battlemountaincr.com",
    "state": "Colorado",
    "street": "330 Third St"
  },
  {
    "id": "bbacaa05-6e27-4383-8e2d-f36e3f52b8d5",
    "name": "Battle Road Brewing Co",
    "brewery_type": "micro",
    "address_1": "5 Clock Tower Pl",
    "address_2": null,
    "address_3": null,
    "city": "Maynard",
    "state_province": "Massachusetts",
    "postal_code": "01754-2530",
    "country": "United States",
    "longitude": -71.45416113,
    "latitude": 42.43001225,
    "phone": "9782985229",
    "website_url": "http://www.battleroadbh.com",
    "state": "Massachusetts",
    "street": "5 Clock Tower Pl"
  },
  {
    "id": "b5857838-ef52-47ed-b4e4-849a321374eb",
    "name": "Battlefield Brew Works",
    "brewery_type": "brewpub",
    "address_1": "248 Hunterstown Rd",
    "address_2": null,
    "address_3": null,
    "city": "Gettysburg",
    "state_province": "Pennsylvania",
    "postal_code": "17325-7840",
    "country": "United States",
    "longitude": null,
    "latitude": null,
    "phone": "7173982907",
    "website_url": "http://www.battlefieldbrewworks.com",
    "state": "Pennsylvania",
    "street": "248 Hunterstown Rd"
  },
  {
    "id": "aa5a338a-a6ac-46d1-9fb1-d376df65e0bb",
    "name": "Battlefield Brewing Co",
    "brewery_type": "brewpub",
    "address_1": "4187 Plank Rd",
    "address_2": null,
    "address_3": null,
    "city": "Fredericksburg",
    "state_province": "Virginia",
    "postal_code": "22407-4896",
    "country": "United States",
    "longitude": null,
    "latitude": null,
    "phone": "5407852164",
    "website_url": null,
    "state": "Virginia",
    "street": "4187 Plank Rd"
  },
  {
    "id": "cbe608f9-a825-478c-bdab-ef2359ab53c5",
    "name": "BattleHops Brewing",
    "brewery_type": "planning",
    "address_1": null,
    "address_2": null,
    "address_3": null,
    "city": "Katy",
    "state_province": "Texas",
    "postal_code": "77494",
    "country": "United States",
    "longitude": null,
    "latitude": null,
    "phone": "8323245284",
    "website_url": "http://www.battlehopsbrewing.com",
    "state": "Texas",
    "street": null
  },
  {
    "id": "a3d48843-21ee-44be-9f51-d83784bf12f7",
    "name": "Battlemage Brewing Co",
    "brewery_type": "micro",
    "address_1": "2870 Scott St Ste 102",
    "address_2": null,
    "address_3": null,
    "city": "Vista",
    "state_province": "California",
    "postal_code": "92081-8556",
    "country": "United States",
    "longitude": -117.227634,
    "latitude": 33.140153,
    "phone": "7602166425",
    "website_url": "http://www.battlemagebrewing.com",
    "state": "California",
    "street": "2870 Scott St Ste 102"
  },
  {
    "id": "299656e1-ccc9-4659-8fe8-e62b86be62eb",
    "name": "Batzen",
    "brewery_type": "regional",
    "address_1": "Via Andreas Hofer 30",
    "address_2": null,
    "address_3": null,
    "city": "Bolzano",
    "state_province": "Bolzano",
    "postal_code": "39100",
    "country": "Italy",
    "longitude": 46.501855459782,
    "latitude": 11.357376358549,
    "phone": "+39 0471 050 950",
    "website_url": "https://www.batzen.it/brauerei/",
    "state": "Bolzano",
    "street": "Via Andreas Hofer 30"
  },
  {
    "id": "45bf9811-0d89-40c3-a020-2d2638a0c932",
    "name": "Bauhaus Brew Labs",
    "brewery_type": "micro",
    "address_1": "1315 Tyler St NE",
    "address_2": null,
    "address_3": null,
    "city": "Minneapolis",
    "state_province": "Minnesota",
    "postal_code": "55413-1530",
    "country": "United States",
    "longitude": -93.237365,
    "latitude": 45.042082,
    "phone": "6122976911",
    "website_url": "http://bauhausbrewlabs.com",
    "state": "Minnesota",
    "street": "1315 Tyler St NE"
  },
  {
    "id": "e5b27570-2203-47b4-b92a-92e8eb46a4f8",
    "name": "Bavarian Bierhaus",
    "brewery_type": "brewpub",
    "address_1": "700 W Lexington Blvd",
    "address_2": null,
    "address_3": null,
    "city": "Glendale",
    "state_province": "Wisconsin",
    "postal_code": "53217-4912",
    "country": "United States",
    "longitude": -87.91923009,
    "latitude": 43.11415845,
    "phone": "4142367000",
    "website_url": "http://www.thebavarianbierhaus.com",
    "state": "Wisconsin",
    "street": "700 W Lexington Blvd"
  },
  {
    "id": "f5d36db3-999a-49b8-84e0-7416f86bd23a",
    "name": "Bavarian Brothers Brewing",
    "brewery_type": "brewpub",
    "address_1": "164 Shepherd Grade Rd",
    "address_2": null,
    "address_3": null,
    "city": "Shepherdstown",
    "state_province": "West Virginia",
    "postal_code": "25443-4601",
    "country": "United States",
    "longitude": -77.804886,
    "latitude": 39.436699,
    "phone": "3048762551",
    "website_url": null,
    "state": "West Virginia",
    "street": "164 Shepherd Grade Rd"
  },
  {
    "id": "9c9033e3-8657-4d05-af18-5bc1d3077810",
    "name": "Bawden Street Brewing Company",
    "brewery_type": "micro",
    "address_1": "325 Bawden St",
    "address_2": null,
    "address_3": null,
    "city": "Ketchikan",
    "state_province": "Alaska",
    "postal_code": "99901",
    "country": "United States",
    "longitude": -131.644822,
    "latitude": 55.34321,
    "phone": "9072254722",
    "website_url": "https://www.facebook.com/bawdenstreetbrewing",
    "state": "Alaska",
    "street": "325 Bawden St"
  },
  {
    "id": "8fb49b63-7bf4-489e-ab18-bf77a99dfc34",
    "name": "Baxter Brewing Co, LLC",
    "brewery_type": "regional",
    "address_1": "130 Mill St",
    "address_2": null,
    "address_3": null,
    "city": "Lewiston",
    "state_province": "Maine",
    "postal_code": "04240-7774",
    "country": "United States",
    "longitude": -70.219607,
    "latitude": 44.09567728,
    "phone": "2073336769",
    "website_url": "http://www.baxterbrewing.com",
    "state": "Maine",
    "street": "130 Mill St"
  },
  {
    "id": "b39a23d8-56f2-48a3-b505-3f460935ec54",
    "name": "Bay Brewing Company",
    "brewery_type": "planning",
    "address_1": null,
    "address_2": null,
    "address_3": null,
    "city": "Miami",
    "state_province": "Florida",
    "postal_code": "33130-3488",
    "country": "United States",
    "longitude": null,
    "latitude": null,
    "phone": "18134763767",
    "website_url": null,
    "state": "Florida",
    "street": null
  },
  {
    "id": "decc7931-94cf-4acb-badc-4b3ab00736be",
    "name": "Bay Bridge Brewing Co",
    "brewery_type": "micro",
    "address_1": "688 Marsat Ct Ste B",
    "address_2": null,
    "address_3": null,
    "city": "Chula Vista",
    "state_province": "California",
    "postal_code": "91911-4697",
    "country": "United States",
    "longitude": -117.0830312,
    "latitude": 32.601264,
    "phone": "6199347371",
    "website_url": "http://www.baybridgebrewing.com",
    "state": "California",
    "street": "688 Marsat Ct Ste B"
  },
  {
    "id": "ee153c57-00c1-4321-8ae7-473a3cb65fa2",
    "name": "Bay City Brewing Co.",
    "brewery_type": "micro",
    "address_1": "3760 Hancock St",
    "address_2": null,
    "address_3": null,
    "city": "San Diego",
    "state_province": "California",
    "postal_code": "92110",
    "country": "United States",
    "longitude": -117.2117833,
    "latitude": 32.7580759,
    "phone": "6197274926",
    "website_url": "http://www.baycitybrewingco.com",
    "state": "California",
    "street": "3760 Hancock St"
  },
  {
    "id": "eb869777-2904-4e42-bff5-c3251b88735a",
    "name": "Bay State Beer Company",
    "brewery_type": "micro",
    "address_1": null,
    "address_2": null,
    "address_3": null,
    "city": "Sturbridge",
    "state_province": "Massachusetts",
    "postal_code": "01566-1568",
    "country": "United States",
    "longitude": null,
    "latitude": null,
    "phone": "6174130939",
    "website_url": "http://www.baystatebeer.com",
    "state": "Massachusetts",
    "street": null
  },
  {
    "id": "ee95babd-8312-4f94-8c5a-a411c1dbd999",
    "name": "Bayern Brewing Inc.",
    "brewery_type": "micro",
    "address_1": "1507 Montana St",
    "address_2": null,
    "address_3": null,
    "city": "Missoula",
    "state_province": "Montana",
    "postal_code": "59801-1409",
    "country": "United States",
    "longitude": -114.0202088,
    "latitude": 46.8725952,
    "phone": "4067211482",
    "website_url": "http://www.bayernbrewery.com",
    "state": "Montana",
    "street": "1507 Montana St"
  },
  {
    "id": "fa0b9910-a718-4a33-ace8-59e9def925f6",
    "name": "Bayonet Cider Company",
    "brewery_type": "planning",
    "address_1": null,
    "address_2": null,
    "address_3": null,
    "city": "Pittsburgh",
    "state_province": "Pennsylvania",
    "postal_code": "15206-5111",
    "country": "United States",
    "longitude": null,
    "latitude": null,
    "phone": "5134841943",
    "website_url": null,
    "state": "Pennsylvania",
    "street": null
  },
  {
    "id": "faabb5c6-fc44-4300-84cd-66f8af67e8fd",
    "name": "Bayou Teche Brewing",
    "brewery_type": "micro",
    "address_1": "1002 Noth Lane",
    "address_2": null,
    "address_3": null,
    "city": "Arnaudville",
    "state_province": "Louisiana",
    "postal_code": "70512",
    "country": "United States",
    "longitude": -91.925099,
    "latitude": 30.391754,
    "phone": "3377545122",
    "website_url": "http://www.bayoutechebrewing.com",
    "state": "Louisiana",
    "street": "1002 Noth Lane"
  },
  {
    "id": "b6a77bad-f595-40f7-9741-ed4c63d804e1",
    "name": "BBGB Brewery And Hop Farm",
    "brewery_type": "brewpub",
    "address_1": "2000 Orchard Rd",
    "address_2": null,
    "address_3": null,
    "city": "North Aurora",
    "state_province": "Illinois",
    "postal_code": "60542-1674",
    "country": "United States",
    "longitude": null,
    "latitude": null,
    "phone": "8479093072",
    "website_url": "http://www.eathardware.com/",
    "state": "Illinois",
    "street": "2000 Orchard Rd"
  },
  {
    "id": "a30cdbff-d7d7-48b2-8aa1-90a25758ad02",
    "name": "BDD Brewing Company",
    "brewery_type": "micro",
    "address_1": "1147 Falls Rd Ste 107",
    "address_2": null,
    "address_3": null,
    "city": "Rocky Mount",
    "state_province": "North Carolina",
    "postal_code": "27804",
    "country": "United States",
    "longitude": -77.80208267,
    "latitude": 35.958026,
    "phone": "9196327551",
    "website_url": null,
    "state": "North Carolina",
    "street": "1147 Falls Rd Ste 107"
  },
  {
    "id": "ad77c6d8-4801-47a3-b9a2-28cb708ba512",
    "name": "Beach Cat Brewing",
    "brewery_type": "micro",
    "address_1": "7876 Birch Bay Dr #101",
    "address_2": null,
    "address_3": null,
    "city": "Blaine",
    "state_province": "Washington",
    "postal_code": "98230",
    "country": "United States",
    "longitude": -122.7447863,
    "latitude": 48.92831088,
    "phone": "3603668065",
    "website_url": "https://beachcatbrewing.com",
    "state": "Washington",
    "street": "7876 Birch Bay Dr #101"
  },
  {
    "id": "0585bea4-0b4b-4933-9770-df4c124618c7",
    "name": "Beach Chalet Brewing Co",
    "brewery_type": "brewpub",
    "address_1": "1000 Great Hwy",
    "address_2": null,
    "address_3": null,
    "city": "San Francisco",
    "state_province": "California",
    "postal_code": "94121-3268",
    "country": "United States",
    "longitude": -122.502981,
    "latitude": 37.7252994,
    "phone": "4153868439",
    "website_url": "http://www.beachchalet.com",
    "state": "California",
    "street": "1000 Great Hwy"
  },
  {
    "id": "2ba06f5f-f88d-472c-a281-cea7f32c7d36",
    "name": "Beach Grease Beer Company",
    "brewery_type": "micro",
    "address_1": "1280 Activity Dr Ste B",
    "address_2": null,
    "address_3": null,
    "city": "Vista",
    "state_province": "California",
    "postal_code": "92081",
    "country": "United States",
    "longitude": -117.219665,
    "latitude": 33.14225042,
    "phone": null,
    "website_url": "http://www.beachgreasebeerco.com",
    "state": "California",
    "street": "1280 Activity Dr Ste B"
  },
  {
    "id": "864c6024-1ead-484f-9a4c-71572c000060",
    "name": "Beach Haus Brewery",
    "brewery_type": "micro",
    "address_1": "801 Main St",
    "address_2": null,
    "address_3": null,
    "city": "Belmar",
    "state_province": "New Jersey",
    "postal_code": "07719-2705",
    "country": "United States",
    "longitude": -74.0251959,
    "latitude": 40.1812131,
    "phone": "7322027782",
    "website_url": "http://Www.beachhausbeer.com",
    "state": "New Jersey",
    "street": "801 Main St"
  },
  {
    "id": "827042d6-0920-484e-94ae-6f8ef520cd74",
    "name": "BeachFly Brewing Company",
    "brewery_type": "planning",
    "address_1": null,
    "address_2": null,
    "address_3": null,
    "city": "Indian Harbour Beach",
    "state_province": "Florida",
    "postal_code": "32937",
    "country": "United States",
    "longitude": null,
    "latitude": null,
    "phone": "3214124900",
    "website_url": null,
    "state": "Florida",
    "street": null
  },
  {
    "id": "4f5f6278-99db-45cf-9ed3-72744cd475d4",
    "name": "Beachside Brew Pub",
    "brewery_type": "micro",
    "address_1": "1368 Ocean Shore Blvd",
    "address_2": null,
    "address_3": null,
    "city": "Ormond Beach",
    "state_province": "Florida",
    "postal_code": "32176-3630",
    "country": "United States",
    "longitude": -81.057048,
    "latitude": 29.326634,
    "phone": "3868465143",
    "website_url": "http://www.beachsidebrewpub.com",
    "state": "Florida",
    "street": "1368 Ocean Shore Blvd"
  },
  {
    "id": "dfefae25-ded6-4109-b6ed-e494a393dc07",
    "name": "Beachwood BBQ & Brewing",
    "brewery_type": "brewpub",
    "address_1": "210 E 3rd St Ste A",
    "address_2": null,
    "address_3": null,
    "city": "Long Beach",
    "state_province": "California",
    "postal_code": "90802-3197",
    "country": "United States",
    "longitude": -118.1909007,
    "latitude": 33.77017138,
    "phone": "5624364020",
    "website_url": "http://www.beachwoodbbq.com",
    "state": "California",
    "street": "210 E 3rd St Ste A"
  },
  {
    "id": "8a7df4b6-5ea6-4ca2-bb72-8b9813cb1e62",
    "name": "Beachwood Blendery",
    "brewery_type": "micro",
    "address_1": "247 Long Beach Blvd",
    "address_2": null,
    "address_3": null,
    "city": "Long Beach",
    "state_province": "California",
    "postal_code": "90802-3136",
    "country": "United States",
    "longitude": -118.1894715,
    "latitude": 33.77015096,
    "phone": null,
    "website_url": "http://beachwoodbbq.com/blendery.html",
    "state": "California",
    "street": "247 Long Beach Blvd"
  },
  {
    "id": "67b706ab-6f63-4178-a09c-fdd2119b6b32",
    "name": "Beachwood Brewing",
    "brewery_type": "micro",
    "address_1": "7631 Woodwind Dr Ste B",
    "address_2": null,
    "address_3": null,
    "city": "Huntington Beach",
    "state_province": "California",
    "postal_code": "92647-7117",
    "country": "United States",
    "longitude": -117.9953281,
    "latitude": 33.70446704,
    "phone": "5103269575",
    "website_url": "http://www.beachwoodbbq.com",
    "state": "California",
    "street": "7631 Woodwind Dr Ste B"
  },
  {
    "id": "8f3af559-423d-42c8-903e-fe45750307cb",
    "name": "Beale St Brewing Co",
    "brewery_type": "planning",
    "address_1": null,
    "address_2": null,
    "address_3": null,
    "city": "Memphis",
    "state_province": "Tennessee",
    "postal_code": "38104-6826",
    "country": "United States",
    "longitude": null,
    "latitude": null,
    "phone": "9014917197",
    "website_url": "http://www.bealestbrewing.com",
    "state": "Tennessee",
    "street": null
  },
  {
    "id": "797a05a9-52b7-4d53-b0fe-f89237eaffc5",
    "name": "Beale's",
    "brewery_type": "brewpub",
    "address_1": "510 Grove St",
    "address_2": null,
    "address_3": null,
    "city": "Bedford",
    "state_province": "Virginia",
    "postal_code": "24523",
    "country": "United States",
    "longitude": -79.51785,
    "latitude": 37.33585,
    "phone": null,
    "website_url": "http://www.bealesbeer.com",
    "state": "Virginia",
    "street": "510 Grove St"
  },
  {
    "id": "81a41e48-68a4-4835-bf31-1d41fd16880a",
    "name": "Beamish and Crawford (Heineken)",
    "brewery_type": "large",
    "address_1": "Leitrim Street",
    "address_2": null,
    "address_3": null,
    "city": "Cork",
    "state_province": "Cork",
    "postal_code": "T23 VF78",
    "country": "Ireland",
    "longitude": -8.4750739,
    "latitude": 51.9037117,
    "phone": "353214503371",
    "website_url": "http://beamish.ie/",
    "state": "Cork",
    "street": "Leitrim Street"
  },
  {
    "id": "5703ac6f-9a97-4529-b62e-7034433e0636",
    "name": "Bear and Bramble Brewing Company",
    "brewery_type": "micro",
    "address_1": "10 Payson Ave # 1",
    "address_2": null,
    "address_3": null,
    "city": "Easthampton",
    "state_province": "Massachusetts",
    "postal_code": "01027-2207",
    "country": "United States",
    "longitude": null,
    "latitude": null,
    "phone": null,
    "website_url": null,
    "state": "Massachusetts",
    "street": "10 Payson Ave # 1"
  },
  {
    "id": "70141f89-287c-496b-8379-bdef1a8f4d0d",
    "name": "Bear Bones Beer",
    "brewery_type": "micro",
    "address_1": "2 Cottage St Ste 1",
    "address_2": null,
    "address_3": null,
    "city": "Bridgton",
    "state_province": "Maine",
    "postal_code": "04009-1137",
    "country": "United States",
    "longitude": null,
    "latitude": null,
    "phone": "2076478000",
    "website_url": null,
    "state": "Maine",
    "street": "2 Cottage St Ste 1"
  }
]