[
  {
    "id": "cb1ffe91-e2d8-44fc-81e3-1e8a742a7843",
    "name": "Scratchtown Brewing Company",
    "brewery_type": "micro",
    "address_1": "141 S 16th St",
    "address_2": null,
    "address_3": null,
    "city": "Ord",
    "state_province": "Nebraska",
    "postal_code": "68862-1415",
    "country": "United States",
    "longitude": -98.92940309,
    "latitude": 41.60253006,
    "phone": "3087285050",
    "website_url": "http://www.scratchtownbrewingcompany.com",
    "state": "Nebraska",
    "street": "141 S 16th St"
  },
  {
    "id": "d5fb9c48-3b06-4de5-8074-cd11808cac23",
    "name": "Screamin Hill Brewery",
    "brewery_type": "micro",
    "address_1": "83 Emleys Hill Rd",
    "address_2": null,
    "address_3": null,
    "city": "Cream Ridge",
    "state_province": "New Jersey",
    "postal_code": "08514-1617",
    "country": "United States",
    "longitude": null,
    "latitude": null,
    "phone": null,
    "website_url": "http://www.screaminhill.com",
    "state": "New Jersey",
    "street": "83 Emleys Hill Rd"
  },
  {
    "id": "f0feae2a-8472-4d11-bceb-c29b4bbeffa4",
    "name": "Screech Owl Brewing",
    "brewery_type": "micro",
    "address_1": "2323 Ralph Livengood Rd",
    "address_2": null,
    "address_3": null,
    "city": "Bruceton Mills",
    "state_province": "West Virginia",
    "postal_code": "26525-5889",
    "country": "United States",
    "longitude": -79.5659678,
    "latitude": 39.5887952,
    "phone": "3043794777",
    "website_url": "http://www.screechowlbrewing.com",
    "state": "West Virginia",
    "street": "2323 Ralph Livengood Rd"
  },
  {
    "id": "30d98f8f-0014-4fd4-9b6e-fcac439bc151",
    "name": "Scriptown Brewing Company",
    "brewery_type": "micro",
    "address_1": "3922 Farnam St Blackstone District",
    "address_2": null,
    "address_3": null,
    "city": "Omaha",
    "state_province": "Nebraska",
    "postal_code": "68131-3014",
    "country": "United States",
    "longitude": -95.972931,
    "latitude": 41.257977,
    "phone": "4029910506",
    "website_url": "http://www.scriptownbrewing.com",
    "state": "Nebraska",
    "street": "3922 Farnam St Blackstone District"
  },
  {
    "id": "1ed447e0-fcb5-4026-bc88-2c70814b52f1",
    "name": "Scuttlebutt Brewing Co",
    "brewery_type": "micro",
    "address_1": "3314 Cedar St",
    "address_2": null,
    "address_3": null,
    "city": "Everett",
    "state_province": "Washington",
    "postal_code": "98201-4518",
    "country": "United States",
    "longitude": -122.1943218,
    "latitude": 47.9736304,
    "phone": "4252579316",
    "website_url": "http://www.scuttlebuttbrewing.com",
    "state": "Washington",
    "street": "3314 Cedar St"
  },
  {
    "id": "189df38b-d6a6-40c0-917e-5b172be8d859",
    "name": "Sea Dog Brewing",
    "brewery_type": "micro",
    "address_1": "1 Main St",
    "address_2": null,
    "address_3": null,
    "city": "Camden",
    "state_province": "Maine",
    "postal_code": "04843-1703",
    "country": "United States",
    "longitude": -69.064576,
    "latitude": 44.209809,
    "phone": null,
    "website_url": "http://www.seadogbrewing.com",
    "state": "Maine",
    "street": "1 Main St"
  },
  {
    "id": "a573715c-9468-4d3f-b90c-4c5754e87531",
    "name": "Sea Dog Brewing Co",
    "brewery_type": "brewpub",
    "address_1": "1976 White Mountain Hwy #9",
    "address_2": null,
    "address_3": null,
    "city": "Conway",
    "state_province": "New Hampshire",
    "postal_code": "03860",
    "country": "United States",
    "longitude": -71.1217669,
    "latitude": 44.0333227,
    "phone": "6033560590",
    "website_url": null,
    "state": "New Hampshire",
    "street": "1976 White Mountain Hwy #9"
  },
  {
    "id": "d6accc58-89f9-43fd-bb06-e87a48ed9f2c",
    "name": "Sea Dog Brewing Co - Bangor",
    "brewery_type": "brewpub",
    "address_1": "26 Front St",
    "address_2": null,
    "address_3": null,
    "city": "Bangor",
    "state_province": "Maine",
    "postal_code": "04401-6418",
    "country": "United States",
    "longitude": -68.770233,
    "latitude": 44.7966948,
    "phone": "2079478009",
    "website_url": "http://www.seadogbrewing.com",
    "state": "Maine",
    "street": "26 Front St"
  },
  {
    "id": "bf3c0dbf-53cf-40d9-906a-baf2a57bc0a6",
    "name": "Sea Dog Brewing Co - Clearwater",
    "brewery_type": "micro",
    "address_1": "26200 US Highway 19 N",
    "address_2": null,
    "address_3": null,
    "city": "Clearwater",
    "state_province": "Florida",
    "postal_code": "33761-3580",
    "country": "United States",
    "longitude": null,
    "latitude": null,
    "phone": "7274664916",
    "website_url": "http://www.seadogbrewing.com",
    "state": "Florida",
    "street": "26200 US Highway 19 N"
  },
  {
    "id": "85958926-717c-4fd4-a9b1-b57958058c21",
    "name": "Sea Dog Brewing Co - S. Portland",
    "brewery_type": "brewpub",
    "address_1": "125 Western Ave",
    "address_2": null,
    "address_3": null,
    "city": "S Portland",
    "state_province": "Maine",
    "postal_code": "04106-2413",
    "country": "United States",
    "longitude": -70.31903067,
    "latitude": 43.63519195,
    "phone": "2078717000",
    "website_url": "http://www.seadogbrewing.com",
    "state": "Maine",
    "street": "125 Western Ave"
  },
  {
    "id": "f7602a9d-bf7e-4e26-8c22-4aff954ad271",
    "name": "Sea Drift Ales and Lagers",
    "brewery_type": "micro",
    "address_1": "521 Commerce Dr",
    "address_2": null,
    "address_3": null,
    "city": "Largo",
    "state_province": "Florida",
    "postal_code": "33770-1834",
    "country": "United States",
    "longitude": null,
    "latitude": null,
    "phone": "7275847772",
    "website_url": "http://www.barleymowbrewingco.com",
    "state": "Florida",
    "street": "521 Commerce Dr"
  },
  {
    "id": "dde59fe8-b384-4d8e-aaae-9d839bfad135",
    "name": "Seabright Brewery",
    "brewery_type": "brewpub",
    "address_1": "519 Seabright Ave Ste 107",
    "address_2": null,
    "address_3": null,
    "city": "Santa Cruz",
    "state_province": "California",
    "postal_code": "95062-3482",
    "country": "United States",
    "longitude": -122.0083656,
    "latitude": 36.96771277,
    "phone": "8314262739",
    "website_url": "http://www.seabrightbrewery.com",
    "state": "California",
    "street": "519 Seabright Ave Ste 107"
  },
  {
    "id": "dd5d5286-addb-4b10-86fd-4cc994d05850",
    "name": "Sean Patrick's Pub",
    "brewery_type": "planning",
    "address_1": null,
    "address_2": null,
    "address_3": null,
    "city": "San Marcos",
    "state_province": "Texas",
    "postal_code": "78666-5590",
    "country": "United States",
    "longitude": null,
    "latitude": null,
    "phone": null,
    "website_url": null,
    "state": "Texas",
    "street": null
  },
  {
    "id": "cef54495-bcfb-4672-9335-78da5a59762c",
    "name": "Seapine Brewing Company",
    "brewery_type": "micro",
    "address_1": "2959 Utah Ave S",
    "address_2": null,
    "address_3": null,
    "city": "Seattle",
    "state_province": "Washington",
    "postal_code": "98134-1815",
    "country": "United States",
    "longitude": -122.3355003,
    "latitude": 47.5760786,
    "phone": "5309028110",
    "website_url": "http://www.seapinebrewing.com",
    "state": "Washington",
    "street": "2959 Utah Ave S"
  },
  {
    "id": "e42de666-0123-4bb0-a9bd-7fb4617eae11",
    "name": "Seaquake Brewing",
    "brewery_type": "brewpub",
    "address_1": "400 Front St",
    "address_2": null,
    "address_3": null,
    "city": "Crescent City",
    "state_province": "California",
    "postal_code": "95531-4369",
    "country": "United States",
    "longitude": -124.200063,
    "latitude": 41.749045,
    "phone": "7074654444",
    "website_url": "http://www.seaquakebrewing.com",
    "state": "California",
    "street": "400 Front St"
  },
  {
    "id": "0b81578c-acb4-4b15-b44d-3ea83bed8115",
    "name": "Seaside Brewery",
    "brewery_type": "brewpub",
    "address_1": "851 Broadway St",
    "address_2": null,
    "address_3": null,
    "city": "Seaside",
    "state_province": "Oregon",
    "postal_code": "97138-6823",
    "country": "United States",
    "longitude": -123.9223842,
    "latitude": 45.99299261,
    "phone": "5037175451",
    "website_url": "http://www.seasidebrewery.com",
    "state": "Oregon",
    "street": "851 Broadway St"
  },
  {
    "id": "693d0204-ed8c-4c03-a842-f385ca0c8a2b",
    "name": "Sebago Brewing Co",
    "brewery_type": "micro",
    "address_1": "48 Sanford Dr",
    "address_2": null,
    "address_3": null,
    "city": "Gorham",
    "state_province": "Maine",
    "postal_code": "04038-2646",
    "country": "United States",
    "longitude": null,
    "latitude": null,
    "phone": null,
    "website_url": null,
    "state": "Maine",
    "street": "48 Sanford Dr"
  },
  {
    "id": "7a5a1362-fd09-4b1d-a98d-766ba4c069bd",
    "name": "Sebago Brewing Co",
    "brewery_type": "micro",
    "address_1": "616 Main St",
    "address_2": null,
    "address_3": null,
    "city": "Gorham",
    "state_province": "Maine",
    "postal_code": "04038",
    "country": "United States",
    "longitude": -70.39706723,
    "latitude": 43.68956533,
    "phone": "2078562537",
    "website_url": "http://www.sebagobrewing.com",
    "state": "Maine",
    "street": "616 Main St"
  },
  {
    "id": "1337fe4b-0f7d-411f-9d19-05eba5370567",
    "name": "Secatogue Brewing Co.",
    "brewery_type": "micro",
    "address_1": "375 Union Blvd",
    "address_2": null,
    "address_3": null,
    "city": "West Islip",
    "state_province": "New York",
    "postal_code": "11795-3114",
    "country": "United States",
    "longitude": -73.30289019,
    "latitude": 40.70717835,
    "phone": "6318714270",
    "website_url": "http://www.secatoguebrewing.com",
    "state": "New York",
    "street": "375 Union Blvd"
  },
  {
    "id": "0abde004-c1ab-451f-9cb0-f7b3cce45477",
    "name": "Second Chance Beer Company",
    "brewery_type": "micro",
    "address_1": "15378 Ave of Science Ste 222",
    "address_2": null,
    "address_3": null,
    "city": "San Diego",
    "state_province": "California",
    "postal_code": "92128-3451",
    "country": "United States",
    "longitude": -117.082033,
    "latitude": 32.994888,
    "phone": "8587056250",
    "website_url": "http://www.secondchancebeer.com",
    "state": "California",
    "street": "15378 Ave of Science Ste 222"
  },
  {
    "id": "4d3e5abf-616d-49eb-87de-4a672d09511a",
    "name": "Second District Brewing Co.",
    "brewery_type": "brewpub",
    "address_1": "1939 S. Bancroft St.",
    "address_2": null,
    "address_3": null,
    "city": "Philadelphia",
    "state_province": "Pennsylvania",
    "postal_code": "19145",
    "country": "United States",
    "longitude": -75.17297324,
    "latitude": 39.92679584,
    "phone": "2155755900",
    "website_url": "http://seconddistrictbrewing.com",
    "state": "Pennsylvania",
    "street": "1939 S. Bancroft St."
  },
  {
    "id": "96a8eaad-4862-447e-a4ab-8a2a38bddc12",
    "name": "Second Line Brewing",
    "brewery_type": "micro",
    "address_1": "433 N Bernadotte St",
    "address_2": null,
    "address_3": null,
    "city": "New Orleans",
    "state_province": "Louisiana",
    "postal_code": "70119-4311",
    "country": "United States",
    "longitude": -90.1056073,
    "latitude": 29.9825676,
    "phone": "5042488979",
    "website_url": "http://www.secondlinebrewing.com",
    "state": "Louisiana",
    "street": "433 N Bernadotte St"
  },
  {
    "id": "4332bd29-a105-493e-807f-351ad41108b9",
    "name": "Second Profession Brewing Company",
    "brewery_type": "brewpub",
    "address_1": "5846 NE Sandy Blvd",
    "address_2": null,
    "address_3": null,
    "city": "Portland",
    "state_province": "Oregon",
    "postal_code": "97213-3436",
    "country": "United States",
    "longitude": -122.498321,
    "latitude": 45.5499485,
    "phone": "5032885882",
    "website_url": "http://www.secondprofessionbrewing.com",
    "state": "Oregon",
    "street": "5846 NE Sandy Blvd"
  },
  {
    "id": "5101fa06-b65a-453d-9d94-d1163065633b",
    "name": "Second Salem Brewing Company",
    "brewery_type": "brewpub",
    "address_1": "111 W Whitewater St",
    "address_2": null,
    "address_3": null,
    "city": "Whitewater",
    "state_province": "Wisconsin",
    "postal_code": "53190-1935",
    "country": "United States",
    "longitude": -88.73175257,
    "latitude": 42.8327499,
    "phone": "2624732920",
    "website_url": "http://www.secondsalem.com",
    "state": "Wisconsin",
    "street": "111 W Whitewater St"
  },
  {
    "id": "3441c0c8-b14d-4dea-8c3f-3034e2acc2b6",
    "name": "Second Self Brewing",
    "brewery_type": "micro",
    "address_1": "1311 Logan Cir NW",
    "address_2": null,
    "address_3": null,
    "city": "Atlanta",
    "state_province": "Georgia",
    "postal_code": "30318-2858",
    "country": "United States",
    "longitude": -84.43006194,
    "latitude": 33.8055922,
    "phone": "6789168035",
    "website_url": "http://secondselfbeer.com",
    "state": "Georgia",
    "street": "1311 Logan Cir NW"
  },
  {
    "id": "755ca0d8-9aa3-4626-8e94-09000e39a0b9",
    "name": "Second Son Brews",
    "brewery_type": "micro",
    "address_1": "12810 Road 38",
    "address_2": null,
    "address_3": null,
    "city": "Madera",
    "state_province": "California",
    "postal_code": "93636-8671",
    "country": "United States",
    "longitude": -119.8580965,
    "latitude": 36.93416059,
    "phone": null,
    "website_url": null,
    "state": "California",
    "street": "12810 Road 38"
  },
  {
    "id": "7607a45f-3839-41bf-9531-0af896826a2b",
    "name": "Second State Brewing Company",
    "brewery_type": "micro",
    "address_1": "203 State St",
    "address_2": null,
    "address_3": null,
    "city": "Cedar Falls",
    "state_province": "Iowa",
    "postal_code": "50613-3360",
    "country": "United States",
    "longitude": -92.4442681,
    "latitude": 42.53674424,
    "phone": "3192400692",
    "website_url": null,
    "state": "Iowa",
    "street": "203 State St"
  },
  {
    "id": "332bd2d1-af79-415e-827d-2b6d3d7cd0d4",
    "name": "Second Street Brewery",
    "brewery_type": "brewpub",
    "address_1": "1814 2nd St",
    "address_2": null,
    "address_3": null,
    "city": "Santa Fe",
    "state_province": "New Mexico",
    "postal_code": "87505-3848",
    "country": "United States",
    "longitude": -105.9656754,
    "latitude": 35.66300492,
    "phone": "5059823030",
    "website_url": "http://www.secondstreetbrewery.com",
    "state": "New Mexico",
    "street": "1814 2nd St"
  },
  {
    "id": "4b2a927f-b6ac-43ed-8bc5-42db70cc46ce",
    "name": "Second Street Brewery - Rufina",
    "brewery_type": "brewpub",
    "address_1": "2920 Rufina St",
    "address_2": null,
    "address_3": null,
    "city": "Santa Fe",
    "state_province": "New Mexico",
    "postal_code": "87507-2999",
    "country": "United States",
    "longitude": -105.9909993,
    "latitude": 35.65875738,
    "phone": "5059823030",
    "website_url": "http://www.secondstreetbreweryrufina.com",
    "state": "New Mexico",
    "street": "2920 Rufina St"
  },
  {
    "id": "881330a0-bd06-4d83-b003-ae429a44b761",
    "name": "Second Wind Brewing Company",
    "brewery_type": "micro",
    "address_1": "7 Howland St",
    "address_2": null,
    "address_3": null,
    "city": "Plymouth",
    "state_province": "Massachusetts",
    "postal_code": "02360-3810",
    "country": "United States",
    "longitude": -70.6665478,
    "latitude": 41.9585551,
    "phone": "5085915915",
    "website_url": "http://www.secondwindbrewing.com",
    "state": "Massachusetts",
    "street": "7 Howland St"
  },
  {
    "id": "53e129df-2d65-420c-94b4-0db516c97146",
    "name": "Secret Trail Brewing Company, LLC",
    "brewery_type": "micro",
    "address_1": "132 Meyers St Ste 120",
    "address_2": null,
    "address_3": null,
    "city": "Chico",
    "state_province": "California",
    "postal_code": "95928-8002",
    "country": "United States",
    "longitude": -121.817279,
    "latitude": 39.71460198,
    "phone": "9167094820",
    "website_url": "http://www.secrettrailbrewing.com",
    "state": "California",
    "street": "132 Meyers St Ste 120"
  },
  {
    "id": "09173c6a-63d6-435d-893a-d7fb2fff3f2d",
    "name": "Sedona Beer Company",
    "brewery_type": "planning",
    "address_1": null,
    "address_2": null,
    "address_3": null,
    "city": "Sedona",
    "state_province": "Arizona",
    "postal_code": "86336-4170",
    "country": "United States",
    "longitude": -111.7929891,
    "latitude": 34.8657757,
    "phone": null,
    "website_url": "http://www.sedonabeerco.com",
    "state": "Arizona",
    "street": null
  },
  {
    "id": "1df1b2b9-a0bd-40b2-8c24-72f365f5e901",
    "name": "Seedstock Brewery",
    "brewery_type": "micro",
    "address_1": "3610 W Colfax Ave",
    "address_2": null,
    "address_3": null,
    "city": "Denver",
    "state_province": "Colorado",
    "postal_code": "80204-1513",
    "country": "United States",
    "longitude": -105.0348519,
    "latitude": 39.74025203,
    "phone": "7204767831",
    "website_url": "http://www.seedstockbrewery.com",
    "state": "Colorado",
    "street": "3610 W Colfax Ave"
  },
  {
    "id": "dccc67cc-2dce-407a-b18c-2d73f4aa08a0",
    "name": "Seguin Brewing Company",
    "brewery_type": "micro",
    "address_1": "111 W Gonzales St",
    "address_2": null,
    "address_3": null,
    "city": "Seguin",
    "state_province": "Texas",
    "postal_code": "78155-5630",
    "country": "United States",
    "longitude": -97.96528378,
    "latitude": 29.56957082,
    "phone": "2107713913",
    "website_url": "http://www.seguinbrewing.com",
    "state": "Texas",
    "street": "111 W Gonzales St"
  },
  {
    "id": "f2b7097c-f5ee-48fd-ab4b-a554b17a21c0",
    "name": "Seismic Brewing Co",
    "brewery_type": "micro",
    "address_1": "2932 Dutton Ave",
    "address_2": null,
    "address_3": null,
    "city": "Santa Rosa",
    "state_province": "California",
    "postal_code": "95407-5711",
    "country": "United States",
    "longitude": -122.7236203,
    "latitude": 38.4042275,
    "phone": "7075445996",
    "website_url": "http://www.seismicbrewingco.com/",
    "state": "California",
    "street": "2932 Dutton Ave"
  },
  {
    "id": "6e69a117-bb47-44d3-b3ac-12b07e5e7e1f",
    "name": "Selins Grove Brewing Co",
    "brewery_type": "brewpub",
    "address_1": "119 N Market St",
    "address_2": null,
    "address_3": null,
    "city": "Selinsgrove",
    "state_province": "Pennsylvania",
    "postal_code": "17870-1905",
    "country": "United States",
    "longitude": -76.86152979,
    "latitude": 40.80056952,
    "phone": "5703747308",
    "website_url": "http://www.selinsgrovebrewing.com",
    "state": "Pennsylvania",
    "street": "119 N Market St"
  },
  {
    "id": "8555bc10-4f2e-4da7-b952-9adb87dae316",
    "name": "Selkirk Abbey Brewing",
    "brewery_type": "micro",
    "address_1": "6180 E Seltice Way Ste 102",
    "address_2": null,
    "address_3": null,
    "city": "Post Falls",
    "state_province": "Idaho",
    "postal_code": "83854-5052",
    "country": "United States",
    "longitude": -116.8684085,
    "latitude": 47.70484371,
    "phone": "2082924901",
    "website_url": "http://www.selkirkabbey.com",
    "state": "Idaho",
    "street": "6180 E Seltice Way Ste 102"
  },
  {
    "id": "ce82c6cb-f7ab-416a-882f-2ef0b20fb779",
    "name": "Seminar Brewing",
    "brewery_type": "brewpub",
    "address_1": "551 W Lucas St",
    "address_2": null,
    "address_3": null,
    "city": "Florence",
    "state_province": "South Carolina",
    "postal_code": "29501-2817",
    "country": "United States",
    "longitude": -79.78837666,
    "latitude": 34.2209957,
    "phone": "8436659200",
    "website_url": "http://seminarbrewing.com",
    "state": "South Carolina",
    "street": "551 W Lucas St"
  },
  {
    "id": "3c06c36d-4955-4728-9eba-a22c6bc5c83f",
    "name": "Seneca Lake Brewing Company",
    "brewery_type": "micro",
    "address_1": "5430 NY-14",
    "address_2": null,
    "address_3": null,
    "city": "Dundee",
    "state_province": "New York",
    "postal_code": "14837-8838",
    "country": "United States",
    "longitude": null,
    "latitude": null,
    "phone": "6072168369",
    "website_url": "http://www.senecalakebrewing.com",
    "state": "New York",
    "street": "5430 NY-14"
  },
  {
    "id": "10f41208-26ee-4d28-b3b1-978d3e8a2340",
    "name": "Seneca Lodge Craft Brewing At Seneca Lodge",
    "brewery_type": "brewpub",
    "address_1": "3600 Walnut Rd",
    "address_2": null,
    "address_3": null,
    "city": "Watkins Glen",
    "state_province": "New York",
    "postal_code": "14891-0272",
    "country": "United States",
    "longitude": -76.873392,
    "latitude": 42.369461,
    "phone": "6075352014",
    "website_url": "http://www.senecalodge.com",
    "state": "New York",
    "street": "3600 Walnut Rd"
  },
  {
    "id": "deec4c7a-9677-436c-ad1e-b54d6a413955",
    "name": "Seneca Street Brew Pub",
    "brewery_type": "brewpub",
    "address_1": "315 E Seneca St Ste 1",
    "address_2": null,
    "address_3": null,
    "city": "Manlius",
    "state_province": "New York",
    "postal_code": "13104-1860",
    "country": "United States",
    "longitude": null,
    "latitude": null,
    "phone": "3156826968",
    "website_url": "http://www.senecastreetbrewpub.com",
    "state": "New York",
    "street": "315 E Seneca St Ste 1"
  },
  {
    "id": "01360f98-4f2b-4893-bdb7-d44f75e152a6",
    "name": "Sentinel Peak Brewing Company",
    "brewery_type": "brewpub",
    "address_1": "4746 E Grant Rd",
    "address_2": null,
    "address_3": null,
    "city": "Tucson",
    "state_province": "Arizona",
    "postal_code": "85712-2703",
    "country": "United States",
    "longitude": -110.8552229,
    "latitude": 32.2505857,
    "phone": "5207779456",
    "website_url": "http://www.sentinelpeakbrewing.com",
    "state": "Arizona",
    "street": "4746 E Grant Rd"
  },
  {
    "id": "ce60ac64-f87c-4687-a362-36245e1fff8e",
    "name": "Separatist Beer Project",
    "brewery_type": "proprietor",
    "address_1": null,
    "address_2": null,
    "address_3": null,
    "city": "Emmaus",
    "state_province": "Pennsylvania",
    "postal_code": "18049",
    "country": "United States",
    "longitude": null,
    "latitude": null,
    "phone": "6103309114",
    "website_url": "http://www.soleales.com",
    "state": "Pennsylvania",
    "street": null
  },
  {
    "id": "7fe4eeb2-a179-4792-a8ba-e1bb7429a6fc",
    "name": "Sequoia Brewing Co - Tower District",
    "brewery_type": "brewpub",
    "address_1": "777 E Olive Ave",
    "address_2": null,
    "address_3": null,
    "city": "Fresno",
    "state_province": "California",
    "postal_code": "93728-3350",
    "country": "United States",
    "longitude": -119.8019622,
    "latitude": 36.75774408,
    "phone": "5592645521",
    "website_url": "http://www.sequoiabrewing.com",
    "state": "California",
    "street": "777 E Olive Ave"
  },
  {
    "id": "ba05f051-e0b9-4d33-94a8-a578652175b7",
    "name": "Serda Brewing Company",
    "brewery_type": "micro",
    "address_1": "600 Government St",
    "address_2": null,
    "address_3": null,
    "city": "Mobile",
    "state_province": "Alabama",
    "postal_code": "36602-1720",
    "country": "United States",
    "longitude": -88.04938713,
    "latitude": 30.6879563,
    "phone": "2519299349",
    "website_url": "http://www.serdabrewing.com",
    "state": "Alabama",
    "street": "600 Government St"
  },
  {
    "id": "b5cfc899-2612-496e-9f79-62915618b2c9",
    "name": "Serious Brewing Co.",
    "brewery_type": "micro",
    "address_1": "116 Caverns Rd",
    "address_2": null,
    "address_3": null,
    "city": "Howes Cave",
    "state_province": "New York",
    "postal_code": "12092",
    "country": "United States",
    "longitude": null,
    "latitude": null,
    "phone": "5188264050",
    "website_url": null,
    "state": "New York",
    "street": "116 Caverns Rd"
  },
  {
    "id": "4514373e-a5e0-4974-900e-f92e50d73ca0",
    "name": "Service Brewing Company",
    "brewery_type": "micro",
    "address_1": "574 Indian St",
    "address_2": null,
    "address_3": null,
    "city": "Savannah",
    "state_province": "Georgia",
    "postal_code": "31401-1121",
    "country": "United States",
    "longitude": -81.0982783,
    "latitude": 32.0839717,
    "phone": "8452425355",
    "website_url": "http://www.servicebrewing.com",
    "state": "Georgia",
    "street": "574 Indian St"
  },
  {
    "id": "7964c7f7-9a89-4360-867d-d6e828c67106",
    "name": "Seven Arrows Brewing Co.",
    "brewery_type": "micro",
    "address_1": "2508 Jefferson Hwy Ste 1",
    "address_2": null,
    "address_3": null,
    "city": "Waynesboro",
    "state_province": "Virginia",
    "postal_code": "22980-6500",
    "country": "United States",
    "longitude": null,
    "latitude": null,
    "phone": "5402216968",
    "website_url": "http://www.sevenarrowsbrewing.com",
    "state": "Virginia",
    "street": "2508 Jefferson Hwy Ste 1"
  },
  {
    "id": "4423eef2-22e4-43f8-945b-37dfe91ae63d",
    "name": "Seven Brides Brewery",
    "brewery_type": "closed",
    "address_1": "990 North First Street",
    "address_2": null,
    "address_3": null,
    "city": "Silverton",
    "state_province": "Oregon",
    "postal_code": "97381",
    "country": "United States",
    "longitude": -122.7845824,
    "latitude": 45.01410457,
    "phone": "5038744677",
    "website_url": "http://www.sevenbridesbrewing.com",
    "state": "Oregon",
    "street": "990 North First Street"
  },
  {
    "id": "8a7ac609-cceb-47f1-8221-8ac257e3caa1",
    "name": "Seven Bridges Grille and Brewery",
    "brewery_type": "brewpub",
    "address_1": "9735 Gate Pkwy N",
    "address_2": null,
    "address_3": null,
    "city": "Jacksonville",
    "state_province": "Florida",
    "postal_code": "32246-8221",
    "country": "United States",
    "longitude": -81.55312193,
    "latitude": 30.26129582,
    "phone": "9049971999",
    "website_url": "http://www.7bridgesgrille.com",
    "state": "Florida",
    "street": "9735 Gate Pkwy N"
  }
]