[
  {
    "id": "84ad716f-72a0-4b6d-8048-311baef17a25",
    "name": "Wide Awake Brewing Company",
    "brewery_type": "micro",
    "address_1": "101 Button Hall Ave",
    "address_2": null,
    "address_3": null,
    "city": "Goose Creek",
    "state_province": "South Carolina",
    "postal_code": "29445",
    "country": "United States",
    "longitude": null,
    "latitude": null,
    "phone": "8434592938",
    "website_url": "http://www.wideawakebrewing.com",
    "state": "South Carolina",
    "street": "101 Button Hall Ave"
  },
  {
    "id": "d1258a62-3169-4548-95d9-3c4e539bce4d",
    "name": "Widmer Brothers Brewing",
    "brewery_type": "regional",
    "address_1": "929 N Russell St",
    "address_2": null,
    "address_3": null,
    "city": "Portland",
    "state_province": "Oregon",
    "postal_code": "97227-1733",
    "country": "United States",
    "longitude": -122.6762983,
    "latitude": 45.54109529,
    "phone": "5032812437",
    "website_url": null,
    "state": "Oregon",
    "street": "929 N Russell St"
  },
  {
    "id": "ec93ee84-6dde-43c1-a4fc-c1b37b2fae61",
    "name": "Widowmaker Brewing",
    "brewery_type": "micro",
    "address_1": "220 Wood Rd",
    "address_2": null,
    "address_3": null,
    "city": "Braintree",
    "state_province": "Massachusetts",
    "postal_code": "02184-2408",
    "country": "United States",
    "longitude": null,
    "latitude": null,
    "phone": "7812549856",
    "website_url": "http://www.widowmakerbrew.wordpress.com",
    "state": "Massachusetts",
    "street": "220 Wood Rd"
  },
  {
    "id": "43ad77a1-454e-4e77-8f8a-8e7c2b542da6",
    "name": "Wiedemann Brewing Co, LLC",
    "brewery_type": "micro",
    "address_1": "4811 Vine St",
    "address_2": null,
    "address_3": null,
    "city": "Cincinnati",
    "state_province": "Ohio",
    "postal_code": "45217-1217",
    "country": "United States",
    "longitude": -84.4746169,
    "latitude": 39.2072785,
    "phone": "5138009560",
    "website_url": "http://www.wiedemannbeer.com",
    "state": "Ohio",
    "street": "4811 Vine St"
  },
  {
    "id": "ade8b2dc-ea30-4423-bcea-75dad5c5c4df",
    "name": "Wiens Brewing Co",
    "brewery_type": "closed",
    "address_1": "27941 Diaz Rd Ste A",
    "address_2": null,
    "address_3": null,
    "city": "Temecula",
    "state_province": "California",
    "postal_code": "92590-3484",
    "country": "United States",
    "longitude": -117.1600299,
    "latitude": 33.50551982,
    "phone": "9516949892",
    "website_url": "http://www.weinsbrewing.com",
    "state": "California",
    "street": "27941 Diaz Rd Ste A"
  },
  {
    "id": "0a366f8e-fd0d-4fe6-8ee5-054d8b725c8c",
    "name": "Wieselburger Brauerei (Heineken)",
    "brewery_type": "large",
    "address_1": "Dr.-Beurle-Stra\ufffde 1",
    "address_2": null,
    "address_3": null,
    "city": "Wieselburg",
    "state_province": "Nieder\ufffdsterreich",
    "postal_code": "3250",
    "country": "Austria",
    "longitude": 15.151875810785,
    "latitude": 48.137356983052,
    "phone": "+4374165010",
    "website_url": "http://www.wieselburger.at",
    "state": "Nieder\ufffdsterreich",
    "street": "Dr.-Beurle-Stra\ufffde 1"
  },
  {
    "id": "12f151b7-f74b-42cc-a748-76c4afbd5b17",
    "name": "Wild Acre Brewing Company",
    "brewery_type": "micro",
    "address_1": "1734 E El Paso St Ste 190",
    "address_2": null,
    "address_3": null,
    "city": "Fort Worth",
    "state_province": "Texas",
    "postal_code": "76102-6773",
    "country": "United States",
    "longitude": null,
    "latitude": null,
    "phone": "8178829453",
    "website_url": "http://www.wildacrebrewing.com",
    "state": "Texas",
    "street": "1734 E El Paso St Ste 190"
  },
  {
    "id": "1eee0d70-2945-4fe4-b626-10865107f347",
    "name": "Wild Barrel Brewing Company",
    "brewery_type": "micro",
    "address_1": "692 Rancheros Dr",
    "address_2": null,
    "address_3": null,
    "city": "San Marcos",
    "state_province": "California",
    "postal_code": "92069-3005",
    "country": "United States",
    "longitude": -117.145752,
    "latitude": 33.140152,
    "phone": "7605934785",
    "website_url": "http://www.wildbarrelbrewing.com",
    "state": "California",
    "street": "692 Rancheros Dr"
  },
  {
    "id": "2e3c6b2b-5c45-4e56-833c-1dffe101459b",
    "name": "Wild Blue Yonder Brewing",
    "brewery_type": "brewpub",
    "address_1": "519 S Wilcox St",
    "address_2": null,
    "address_3": null,
    "city": "Castle Rock",
    "state_province": "Colorado",
    "postal_code": "80104",
    "country": "United States",
    "longitude": -104.8601972,
    "latitude": 39.3751715,
    "phone": "3038143663",
    "website_url": "https://wildblueyonderbrewing.com/",
    "state": "Colorado",
    "street": "519 S Wilcox St"
  },
  {
    "id": "d400391b-6fe4-4cab-985a-193ca079f4d3",
    "name": "Wild Bunch Brewing Co, LLC",
    "brewery_type": "brewpub",
    "address_1": "110 E 7TH ST STE 301",
    "address_2": null,
    "address_3": null,
    "city": "Georgetown",
    "state_province": "Texas",
    "postal_code": "78626",
    "country": "United States",
    "longitude": null,
    "latitude": null,
    "phone": "5123983633",
    "website_url": "http://www.wildbunchbrewing.beer",
    "state": "Texas",
    "street": "110 E 7TH ST STE 301"
  },
  {
    "id": "729eb0a6-cc43-408e-9f9d-e35321d65261",
    "name": "Wild East Brewing Co.",
    "brewery_type": "planning",
    "address_1": null,
    "address_2": null,
    "address_3": null,
    "city": "Brooklyn",
    "state_province": "New York",
    "postal_code": "11215-5511",
    "country": "United States",
    "longitude": null,
    "latitude": null,
    "phone": null,
    "website_url": "http://www.wildeastbrewing.com",
    "state": "New York",
    "street": null
  },
  {
    "id": "c2dbd53b-c187-46d9-9776-90bdda134532",
    "name": "Wild Heaven Craft Beers",
    "brewery_type": "micro",
    "address_1": "135B Maple St",
    "address_2": null,
    "address_3": null,
    "city": "Decatur",
    "state_province": "Georgia",
    "postal_code": "30030-3953",
    "country": "United States",
    "longitude": null,
    "latitude": null,
    "phone": "4049978589",
    "website_url": "http://www.wildheavencraftbeers.com",
    "state": "Georgia",
    "street": "135B Maple St"
  },
  {
    "id": "8d18bc5f-91ae-48b4-8333-b2858f1649fb",
    "name": "Wild Hordeum Brewing Co.",
    "brewery_type": "planning",
    "address_1": null,
    "address_2": null,
    "address_3": null,
    "city": "Titusville",
    "state_province": "Florida",
    "postal_code": "32796-2357",
    "country": "United States",
    "longitude": null,
    "latitude": null,
    "phone": "7274886300",
    "website_url": null,
    "state": "Florida",
    "street": null
  },
  {
    "id": "f8094ea6-f13b-450b-a4c0-60ea5c899c06",
    "name": "Wild Leap Brewing Company",
    "brewery_type": "micro",
    "address_1": "308 Main St",
    "address_2": null,
    "address_3": null,
    "city": "Lagrange",
    "state_province": "Georgia",
    "postal_code": "30240-4504",
    "country": "United States",
    "longitude": -85.0311916,
    "latitude": 33.037368,
    "phone": "7062986400",
    "website_url": "http://www.wildleap.com",
    "state": "Georgia",
    "street": "308 Main St"
  },
  {
    "id": "4170f5a5-0bea-4a5f-8692-2053a62a941c",
    "name": "Wild Mind Artisan Ales",
    "brewery_type": "micro",
    "address_1": "6031 Pillsbury Ave S",
    "address_2": null,
    "address_3": null,
    "city": "Minneapolis",
    "state_province": "Minnesota",
    "postal_code": "55419-2328",
    "country": "United States",
    "longitude": -93.2813885,
    "latitude": 44.89304675,
    "phone": "6123454514",
    "website_url": "http://www.wildmindales.com",
    "state": "Minnesota",
    "street": "6031 Pillsbury Ave S"
  },
  {
    "id": "02efb5f9-5554-4288-a202-9812e96ddd47",
    "name": "Wild Oak Project",
    "brewery_type": "nano",
    "address_1": "5229 144th St SE",
    "address_2": null,
    "address_3": null,
    "city": "Everett",
    "state_province": "Washington",
    "postal_code": "98208-8972",
    "country": "United States",
    "longitude": -122.16036058658,
    "latitude": 47.867323017472,
    "phone": "2069724505",
    "website_url": "https://wildoakproject.com",
    "state": "Washington",
    "street": "5229 144th St SE"
  },
  {
    "id": "1ba59950-58ce-4834-9b4c-ef6e32fd7ef9",
    "name": "Wild Onion Brewing Co.",
    "brewery_type": "micro",
    "address_1": "22221 N Pepper Rd",
    "address_2": null,
    "address_3": null,
    "city": "Lake Barrington",
    "state_province": "Illinois",
    "postal_code": "60010-2473",
    "country": "United States",
    "longitude": null,
    "latitude": null,
    "phone": "8473817308",
    "website_url": "http://www.onionpub.com",
    "state": "Illinois",
    "street": "22221 N Pepper Rd"
  },
  {
    "id": "ff5c7ee4-b66a-4e37-920e-191eeb187eb0",
    "name": "Wild Parrot Brewing Company",
    "brewery_type": "micro",
    "address_1": "2302 E Colorado Blvd",
    "address_2": null,
    "address_3": null,
    "city": "Pasadena",
    "state_province": "California",
    "postal_code": "91107",
    "country": "United States",
    "longitude": -118.1030564,
    "latitude": 34.14610329,
    "phone": "6265293150",
    "website_url": "https://www.wildparrotbrewing.com/",
    "state": "California",
    "street": "2302 E Colorado Blvd"
  },
  {
    "id": "6fb1fdc2-e203-49c8-b325-c6013ab6dbf1",
    "name": "Wild Ride Brewing",
    "brewery_type": "micro",
    "address_1": "332 SW 5th St",
    "address_2": null,
    "address_3": null,
    "city": "Redmond",
    "state_province": "Oregon",
    "postal_code": "97756-2103",
    "country": "United States",
    "longitude": -121.1730764,
    "latitude": 44.27391294,
    "phone": "5415168544",
    "website_url": "http://www.wildridebrew.com",
    "state": "Oregon",
    "street": "332 SW 5th St"
  },
  {
    "id": "7a14b155-30bf-4f20-9856-831cfe8bbb7c",
    "name": "Wild River Brewing and Pizza Co",
    "brewery_type": "brewpub",
    "address_1": "249 N Redwood Hwy",
    "address_2": null,
    "address_3": null,
    "city": "Cave Junction",
    "state_province": "Oregon",
    "postal_code": "97523-9023",
    "country": "United States",
    "longitude": -123.6469844,
    "latitude": 42.1622503,
    "phone": "5414717487",
    "website_url": "http://www.wildriverbrewing.com",
    "state": "Oregon",
    "street": "249 N Redwood Hwy"
  },
  {
    "id": "2e8613b3-c83d-4efa-b8bd-a658f99fd780",
    "name": "Wild River Brewing and Pizza Co - Grants Pass",
    "brewery_type": "brewpub",
    "address_1": "595 NE E St",
    "address_2": null,
    "address_3": null,
    "city": "Grants Pass",
    "state_province": "Oregon",
    "postal_code": "97526-2356",
    "country": "United States",
    "longitude": -123.319,
    "latitude": 42.43927512,
    "phone": "5414717487",
    "website_url": "http://www.wildriverbrewing.com",
    "state": "Oregon",
    "street": "595 NE E St"
  },
  {
    "id": "bccbb662-6467-4d57-816e-9cb99adcfa30",
    "name": "Wild Side Brewing Company",
    "brewery_type": "micro",
    "address_1": "24194 Front St",
    "address_2": null,
    "address_3": null,
    "city": "Grand Rapids",
    "state_province": "Ohio",
    "postal_code": "43522",
    "country": "United States",
    "longitude": -83.86731385,
    "latitude": 41.41253259,
    "phone": "4193892776",
    "website_url": "http://www.wildsidebrewing.com",
    "state": "Ohio",
    "street": "24194 Front St"
  },
  {
    "id": "0751ebe6-8350-44ca-92c0-e06822ba72e4",
    "name": "Wild Water",
    "brewery_type": "closed",
    "address_1": "9995 Winghaven Blvd",
    "address_2": null,
    "address_3": null,
    "city": "O Fallon",
    "state_province": "Missouri",
    "postal_code": "63368-3623",
    "country": "United States",
    "longitude": null,
    "latitude": null,
    "phone": "6362650751",
    "website_url": null,
    "state": "Missouri",
    "street": "9995 Winghaven Blvd"
  },
  {
    "id": "0d94cee6-2b9f-47ec-8cdc-cf7e81113b04",
    "name": "Wild Wolf Brewing Co",
    "brewery_type": "micro",
    "address_1": "2461 Rockfish Valley Hwy",
    "address_2": null,
    "address_3": null,
    "city": "Nellysford",
    "state_province": "Virginia",
    "postal_code": "22958-2306",
    "country": "United States",
    "longitude": null,
    "latitude": null,
    "phone": "4343610088",
    "website_url": "http://www.wildwolfbeer.com",
    "state": "Virginia",
    "street": "2461 Rockfish Valley Hwy"
  },
  {
    "id": "ed289ab7-9588-429f-bc3d-5977c5120d9f",
    "name": "Wild Woods Brewery",
    "brewery_type": "micro",
    "address_1": "5460 Conestoga Ct",
    "address_2": null,
    "address_3": null,
    "city": "Boulder",
    "state_province": "Colorado",
    "postal_code": "80301-2724",
    "country": "United States",
    "longitude": -105.2258104,
    "latitude": 40.0162153,
    "phone": "3034841465",
    "website_url": "http://www.wildwoodsbrewery.com",
    "state": "Colorado",
    "street": "5460 Conestoga Ct"
  },
  {
    "id": "3c3e2e37-eb79-469b-8010-02189851c922",
    "name": "Wildbloom Beer",
    "brewery_type": "micro",
    "address_1": "42 Main St",
    "address_2": "2nd Floor",
    "address_3": null,
    "city": "Littleton",
    "state_province": "New Hampshire",
    "postal_code": "03561",
    "country": "United States",
    "longitude": null,
    "latitude": null,
    "phone": "6035755025",
    "website_url": "https://wildbloom-beer.foodjoyy.com/",
    "state": "New Hampshire",
    "street": "42 Main St"
  },
  {
    "id": "94bf785c-e76a-4a41-8720-e9fb53d72ed4",
    "name": "Wildcard Brewing Company",
    "brewery_type": "micro",
    "address_1": "9565 Crossroads Dr",
    "address_2": null,
    "address_3": null,
    "city": "Redding",
    "state_province": "California",
    "postal_code": "96003-6814",
    "country": "United States",
    "longitude": -122.298177,
    "latitude": 40.562008,
    "phone": "5307229239",
    "website_url": "http://www.wildcardbrewingco.com",
    "state": "California",
    "street": "9565 Crossroads Dr"
  },
  {
    "id": "7e77e499-968f-434c-a660-ebcfda4e1842",
    "name": "WildEdge Brewing Collective",
    "brewery_type": "brewpub",
    "address_1": "111 N Market St",
    "address_2": null,
    "address_3": null,
    "city": "Cortez",
    "state_province": "Colorado",
    "postal_code": "81321-3214",
    "country": "United States",
    "longitude": -108.5853117,
    "latitude": 37.34990058,
    "phone": "9705659445",
    "website_url": "http://www.wildedgebrewing.com",
    "state": "Colorado",
    "street": "111 N Market St"
  },
  {
    "id": "9169dd36-0e3b-4336-93dc-886850fd4bbc",
    "name": "Wildlife Brewing",
    "brewery_type": "brewpub",
    "address_1": "145 S. Main St.",
    "address_2": null,
    "address_3": null,
    "city": "Victor",
    "state_province": "Idaho",
    "postal_code": "83455-0869",
    "country": "United States",
    "longitude": -111.1112683,
    "latitude": 43.60200785,
    "phone": "2087872623",
    "website_url": "http://wildlifebrewing.com",
    "state": "Idaho",
    "street": "145 S. Main St."
  },
  {
    "id": "132c460c-3ab8-46db-9dc7-f8123d513ef3",
    "name": "Wildrose Brewing Company",
    "brewery_type": "brewpub",
    "address_1": "1104 E Main St",
    "address_2": null,
    "address_3": null,
    "city": "Griffith",
    "state_province": "Indiana",
    "postal_code": "46319-2826",
    "country": "United States",
    "longitude": -87.4155241,
    "latitude": 41.52275923,
    "phone": "2195955054",
    "website_url": "http://www.wildrosebrewing.com",
    "state": "Indiana",
    "street": "1104 E Main St"
  },
  {
    "id": "e2750719-4d6a-471e-a9df-be10d8fb71cf",
    "name": "Wildwood Brewing Co",
    "brewery_type": "micro",
    "address_1": "4018 US Highway 93 N",
    "address_2": null,
    "address_3": null,
    "city": "Stevensville",
    "state_province": "Montana",
    "postal_code": "59870-6443",
    "country": "United States",
    "longitude": null,
    "latitude": null,
    "phone": "4065296919",
    "website_url": "http://www.wildwoodbrewing.com",
    "state": "Montana",
    "street": "4018 US Highway 93 N"
  },
  {
    "id": "68be4717-aeb3-4539-b539-9d0168b2926c",
    "name": "Wiley Roots Brewing Co",
    "brewery_type": "micro",
    "address_1": "625 3rd St Unit D",
    "address_2": null,
    "address_3": null,
    "city": "Greeley",
    "state_province": "Colorado",
    "postal_code": "80631-9132",
    "country": "United States",
    "longitude": null,
    "latitude": null,
    "phone": "9706911641",
    "website_url": "http://www.wileyrootsbrewing.com",
    "state": "Colorado",
    "street": "625 3rd St Unit D"
  },
  {
    "id": "8f54e466-4f0c-4ecc-853f-02b4680853c9",
    "name": "Will County Brewing Company",
    "brewery_type": "micro",
    "address_1": "1142 W Jefferson St",
    "address_2": null,
    "address_3": null,
    "city": "Shorewood",
    "state_province": "Illinois",
    "postal_code": "60404-0703",
    "country": "United States",
    "longitude": -88.20870656,
    "latitude": 41.521524,
    "phone": "8155824157",
    "website_url": "http://www.willcountybrew.com",
    "state": "Illinois",
    "street": "1142 W Jefferson St"
  },
  {
    "id": "6b1c2bdf-2b49-4fdc-8440-532d57520c25",
    "name": "Willapa Brewing Co",
    "brewery_type": "nano",
    "address_1": "405 Minnesota Ave",
    "address_2": null,
    "address_3": null,
    "city": "South Bend",
    "state_province": "Washington",
    "postal_code": "98586",
    "country": "United States",
    "longitude": -123.79236657498,
    "latitude": 46.665474939717,
    "phone": "3608758398",
    "website_url": "https://www.willapabrewingco.com",
    "state": "Washington",
    "street": "405 Minnesota Ave"
  },
  {
    "id": "9fff553d-8ede-435a-ab11-01b8bbed9b18",
    "name": "Willcott Brewing Company",
    "brewery_type": "planning",
    "address_1": null,
    "address_2": null,
    "address_3": null,
    "city": "Holton",
    "state_province": "Kansas",
    "postal_code": "66436-1703",
    "country": "United States",
    "longitude": null,
    "latitude": null,
    "phone": "7853381611",
    "website_url": "http://www.willcottbrewing.com",
    "state": "Kansas",
    "street": null
  },
  {
    "id": "8fe80c7b-3dcc-4231-bd5c-e1a557480564",
    "name": "William K Busch Brewing Co.",
    "brewery_type": "closed",
    "address_1": "8047 Litzsinger Rd",
    "address_2": null,
    "address_3": null,
    "city": "Saint Louis",
    "state_province": "Missouri",
    "postal_code": "63144-2505",
    "country": "United States",
    "longitude": -90.33733442,
    "latitude": 38.61687711,
    "phone": "3149327911",
    "website_url": "http://www.enjoykraftig.com",
    "state": "Missouri",
    "street": "8047 Litzsinger Rd"
  },
  {
    "id": "2a0b0ae1-9c3b-4de7-91ca-7f2283cab082",
    "name": "Willimantic Brewing Co and Main Street Cafe",
    "brewery_type": "brewpub",
    "address_1": "967 Main St",
    "address_2": null,
    "address_3": null,
    "city": "Willimantic",
    "state_province": "Connecticut",
    "postal_code": "06226-2330",
    "country": "United States",
    "longitude": -72.21714938,
    "latitude": 41.7131866,
    "phone": "8604236777",
    "website_url": "http://www.willibrew.com",
    "state": "Connecticut",
    "street": "967 Main St"
  },
  {
    "id": "bedf2a5f-08b9-4db2-80d9-66bb6e6e5175",
    "name": "Willoughby Brewing Co",
    "brewery_type": "brewpub",
    "address_1": "4057 Erie St",
    "address_2": null,
    "address_3": null,
    "city": "Willoughby",
    "state_province": "Ohio",
    "postal_code": "44094-7804",
    "country": "United States",
    "longitude": -81.40548972,
    "latitude": 41.64152155,
    "phone": "4409750202",
    "website_url": "http://www.willoughbybrewing.com",
    "state": "Ohio",
    "street": "4057 Erie St"
  },
  {
    "id": "99610e23-42f0-4372-9a4e-46b290c721ff",
    "name": "Willow Rock Brewing Company",
    "brewery_type": "micro",
    "address_1": "115 Game Rd",
    "address_2": null,
    "address_3": null,
    "city": "Syracuse",
    "state_province": "New York",
    "postal_code": "13210-4216",
    "country": "United States",
    "longitude": -76.13147154,
    "latitude": 43.01155518,
    "phone": "3159286948",
    "website_url": "http://www.willowrockbrew.com",
    "state": "New York",
    "street": "115 Game Rd"
  },
  {
    "id": "14ddfbb5-9369-49d4-9ae2-6ce2d68b6155",
    "name": "Willows Family Ales",
    "brewery_type": "micro",
    "address_1": "418 S Peoria Ave",
    "address_2": null,
    "address_3": null,
    "city": "Tulsa",
    "state_province": "Oklahoma",
    "postal_code": "74120",
    "country": "United States",
    "longitude": -95.97591226,
    "latitude": 36.02201189,
    "phone": "9188956798",
    "website_url": null,
    "state": "Oklahoma",
    "street": "418 S Peoria Ave"
  },
  {
    "id": "b0b1336f-c352-46cb-9bc7-d1be23916f48",
    "name": "Wilmington Brew Works",
    "brewery_type": "planning",
    "address_1": null,
    "address_2": null,
    "address_3": null,
    "city": "Wilmington",
    "state_province": "Delaware",
    "postal_code": "19802-2542",
    "country": "United States",
    "longitude": null,
    "latitude": null,
    "phone": "3027574971",
    "website_url": "http://www.wilmingtonbrewworks.com",
    "state": "Delaware",
    "street": null
  },
  {
    "id": "bc28fab5-4e26-4e76-b294-64823949a61b",
    "name": "Wilmington Brewing Company",
    "brewery_type": "micro",
    "address_1": "824 S Kerr Ave",
    "address_2": null,
    "address_3": null,
    "city": "Wilmington",
    "state_province": "North Carolina",
    "postal_code": "28403-8426",
    "country": "United States",
    "longitude": -77.88680231,
    "latitude": 34.2213165,
    "phone": "9103923315",
    "website_url": "http://www.wilmingtonbeer.com",
    "state": "North Carolina",
    "street": "824 S Kerr Ave"
  },
  {
    "id": "54d22718-da66-4c00-9fba-00179644935b",
    "name": "Wiltse's Brew Pub and Family Restaurant",
    "brewery_type": "brewpub",
    "address_1": "5606 F 41",
    "address_2": null,
    "address_3": null,
    "city": "Oscoda",
    "state_province": "Michigan",
    "postal_code": "48750-8611",
    "country": "United States",
    "longitude": null,
    "latitude": null,
    "phone": "9897392231",
    "website_url": "http://www.wiltsebrewpub.com",
    "state": "Michigan",
    "street": "5606 F 41"
  },
  {
    "id": "a2176552-f292-415f-ba05-609e7e484897",
    "name": "Wimberley Brewing Co & Brewsters Pizza",
    "brewery_type": "brewpub",
    "address_1": "9595 Ranch Road 12 Ste 10",
    "address_2": null,
    "address_3": null,
    "city": "Wimberley",
    "state_province": "Texas",
    "postal_code": "78676-5248",
    "country": "United States",
    "longitude": null,
    "latitude": null,
    "phone": "5128473299",
    "website_url": "http://www.wimberlybrewingcompany.com",
    "state": "Texas",
    "street": "9595 Ranch Road 12 Ste 10"
  },
  {
    "id": "3fe1de22-c30c-446d-b2f2-913ca9f6378e",
    "name": "Wimitzbr\ufffdu",
    "brewery_type": "nano",
    "address_1": "L67 7",
    "address_2": null,
    "address_3": null,
    "city": "Wimitz",
    "state_province": "K\ufffdrnten",
    "postal_code": "9311",
    "country": "Austria",
    "longitude": 14.355971213256,
    "latitude": 46.83992642712,
    "phone": "+43421228074",
    "website_url": "http://www.wimitzbraeu.com",
    "state": "K\ufffdrnten",
    "street": "L67 7"
  },
  {
    "id": "5b040ced-a54e-40f3-959b-86f818ed4186",
    "name": "Winchester Brew Works LLC",
    "brewery_type": "micro",
    "address_1": "320 N Cameron St",
    "address_2": null,
    "address_3": null,
    "city": "Winchester",
    "state_province": "Virginia",
    "postal_code": "22601-6052",
    "country": "United States",
    "longitude": -78.16221305,
    "latitude": 39.18857712,
    "phone": "5406929242",
    "website_url": "http://winchesterbrewworks.com",
    "state": "Virginia",
    "street": "320 N Cameron St"
  },
  {
    "id": "0e22f154-5c03-4bee-9b37-657afaca8ecd",
    "name": "Wind River Brewing Co - WY",
    "brewery_type": "brewpub",
    "address_1": "402 Pine St",
    "address_2": null,
    "address_3": null,
    "city": "Pinedale",
    "state_province": "Wyoming",
    "postal_code": "82941",
    "country": "United States",
    "longitude": -109.86603873089,
    "latitude": 42.866433652661,
    "phone": "3073672337",
    "website_url": "http://www.windriverbrewingco.com",
    "state": "Wyoming",
    "street": "402 Pine St"
  },
  {
    "id": "17469498-8632-4e10-8076-cb9cb22e7978",
    "name": "Wind Shift Brewing",
    "brewery_type": "micro",
    "address_1": "3421B NW Jefferson St",
    "address_2": null,
    "address_3": null,
    "city": "Blue Springs",
    "state_province": "Missouri",
    "postal_code": "64015",
    "country": "United States",
    "longitude": -94.303423,
    "latitude": 39.073677,
    "phone": "8167862699",
    "website_url": "http://www.windshiftbrew.com",
    "state": "Missouri",
    "street": "3421B NW Jefferson St"
  },
  {
    "id": "ca8e0949-0067-4fb8-8aad-fa10a0e78fc2",
    "name": "Windmill Brewing",
    "brewery_type": "micro",
    "address_1": "2121 Gettler St",
    "address_2": null,
    "address_3": null,
    "city": "Dyer",
    "state_province": "Indiana",
    "postal_code": "46311-1859",
    "country": "United States",
    "longitude": -87.52262489,
    "latitude": 41.49333495,
    "phone": "2194402189",
    "website_url": "http://www.windmillbrew.com",
    "state": "Indiana",
    "street": "2121 Gettler St"
  },
  {
    "id": "e335f6c4-199e-445c-be2d-50a3984f8afd",
    "name": "Windy Brew",
    "brewery_type": "micro",
    "address_1": "733 Route 20a",
    "address_2": null,
    "address_3": null,
    "city": "Strykersville",
    "state_province": "New York",
    "postal_code": "14145-9584",
    "country": "United States",
    "longitude": null,
    "latitude": null,
    "phone": "5858054006",
    "website_url": "http://www.windybrews.com",
    "state": "New York",
    "street": "733 Route 20a"
  }
]