[
  {
    "id": "abe71cdf-8c92-4be2-adac-902d1a14e7bb",
    "name": "Alpenglow Beer Co",
    "brewery_type": "contract",
    "address_1": null,
    "address_2": null,
    "address_3": null,
    "city": "Lafayette",
    "state_province": "California",
    "postal_code": "94549-4621",
    "country": "United States",
    "longitude": -122.1180201,
    "latitude": 37.8857582,
    "phone": null,
    "website_url": "http://www.buckwildbrew.com",
    "state": "California",
    "street": null
  },
  {
    "id": "dc9fb80b-fb92-47c2-8b13-9a6f6990f99e",
    "name": "Alpha Acid Brewing Co",
    "brewery_type": "micro",
    "address_1": "121 Industrial Way Ste 12",
    "address_2": null,
    "address_3": null,
    "city": "Belmont",
    "state_province": "California",
    "postal_code": "94002-8208",
    "country": "United States",
    "longitude": -122.2655717,
    "latitude": 37.52125155,
    "phone": "6503944728",
    "website_url": null,
    "state": "California",
    "street": "121 Industrial Way Ste 12"
  },
  {
    "id": "0edb8050-2911-4a04-a99a-7927e05cd018",
    "name": "Alpha Brewing Co.",
    "brewery_type": "micro",
    "address_1": "4310 Fyler Ave",
    "address_2": null,
    "address_3": null,
    "city": "Saint Louis",
    "state_province": "Missouri",
    "postal_code": "63116",
    "country": "United States",
    "longitude": -90.26236838,
    "latitude": 38.59861817,
    "phone": "3146212337",
    "website_url": "http://www.alphabrewingcompany.com",
    "state": "Missouri",
    "street": "4310 Fyler Ave"
  },
  {
    "id": "810e0e7c-293a-4e3e-a557-13691d30d399",
    "name": "Alphabet City Brewing Co",
    "brewery_type": "contract",
    "address_1": "96 Avenue C Frnt 4",
    "address_2": null,
    "address_3": null,
    "city": "New York",
    "state_province": "New York",
    "postal_code": "10009-7055",
    "country": "United States",
    "longitude": null,
    "latitude": null,
    "phone": "9143566809",
    "website_url": "http://www.acbnyc.com",
    "state": "New York",
    "street": "96 Avenue C Frnt 4"
  },
  {
    "id": "1d7c2273-8031-40d2-bb50-7f518722e291",
    "name": "Alpine Beer Company",
    "brewery_type": "brewpub",
    "address_1": "6550 Mira Mesa Blvd",
    "address_2": null,
    "address_3": null,
    "city": "San Diego",
    "state_province": "California",
    "postal_code": "92121-4100",
    "country": "United States",
    "longitude": -117.113975,
    "latitude": 32.9167796,
    "phone": "6194452337",
    "website_url": "http://www.alpinebrewing.com",
    "state": "California",
    "street": "6550 Mira Mesa Blvd"
  },
  {
    "id": "d8dd6a64-c201-471f-a0a1-0fc8d04b5b49",
    "name": "Alpine Brewing Co",
    "brewery_type": "closed",
    "address_1": "821 14th Ave",
    "address_2": null,
    "address_3": null,
    "city": "Oroville",
    "state_province": "Washington",
    "postal_code": "98844",
    "country": "United States",
    "longitude": -119.4305306,
    "latitude": 48.9365877,
    "phone": "5094769662",
    "website_url": "http://www.alpine-brewing.com",
    "state": "Washington",
    "street": "821 14th Ave"
  },
  {
    "id": "9d64f11c-4f42-41c6-8ba7-768f7bf9ec13",
    "name": "Alpine Dog Brewing Co",
    "brewery_type": "micro",
    "address_1": "1505 N Ogden St",
    "address_2": null,
    "address_3": null,
    "city": "Denver",
    "state_province": "Colorado",
    "postal_code": "80218-1405",
    "country": "United States",
    "longitude": null,
    "latitude": null,
    "phone": "3038321245",
    "website_url": "http://www.alpinedogbrewery.com",
    "state": "Colorado",
    "street": "1505 N Ogden St"
  },
  {
    "id": "8e69dcd6-de4f-41b5-a9be-cc35844fb273",
    "name": "ALT Brew / Greenview Brewing LLC",
    "brewery_type": "brewpub",
    "address_1": "1808 Wright St",
    "address_2": null,
    "address_3": null,
    "city": "Madison",
    "state_province": "Wisconsin",
    "postal_code": "53704-2522",
    "country": "United States",
    "longitude": -89.33026,
    "latitude": 43.12576305,
    "phone": "6083523373",
    "website_url": "http://www.altbrew.com",
    "state": "Wisconsin",
    "street": "1808 Wright St"
  },
  {
    "id": "728f9750-1c56-48be-9f96-b26d04215958",
    "name": "Alta Brewing Company",
    "brewery_type": "micro",
    "address_1": "1983 Julian Avenue",
    "address_2": null,
    "address_3": null,
    "city": "San Diego",
    "state_province": "California",
    "postal_code": "92113-1125",
    "country": "United States",
    "longitude": -117.1414712,
    "latitude": 32.7018758,
    "phone": "6197957300",
    "website_url": "http://www.altabrewing.com",
    "state": "California",
    "street": "1983 Julian Avenue"
  },
  {
    "id": "ce487823-fb0a-4ad9-b3de-2f2ec4ce0631",
    "name": "Altamont Beer Works",
    "brewery_type": "micro",
    "address_1": "2402 Research Dr",
    "address_2": null,
    "address_3": null,
    "city": "Livermore",
    "state_province": "California",
    "postal_code": "94550-3850",
    "country": "United States",
    "longitude": -121.7210974,
    "latitude": 37.67839114,
    "phone": "9254432337",
    "website_url": "http://www.altamontbeerworks.com",
    "state": "California",
    "street": "2402 Research Dr"
  },
  {
    "id": "c7009224-b9ce-44d0-b426-cd0a1e95d6f9",
    "name": "Alter Brewing + Kitchen",
    "brewery_type": "micro",
    "address_1": "12 S 1st St",
    "address_2": null,
    "address_3": null,
    "city": "Saint Charles",
    "state_province": "Illinois",
    "postal_code": "60174-4591",
    "country": "United States",
    "longitude": -88.313937317989,
    "latitude": 41.913143276343,
    "phone": "3319015949",
    "website_url": "http://www.alterbrewing.com",
    "state": "Illinois",
    "street": "12 S 1st St"
  },
  {
    "id": "0026ad13-246b-4091-b344-641934ef7cc3",
    "name": "Alter Brewing Company",
    "brewery_type": "micro",
    "address_1": "2300 Wisconsin Ave Ste 213",
    "address_2": null,
    "address_3": null,
    "city": "Downers Grove",
    "state_province": "Illinois",
    "postal_code": "60515-2234",
    "country": "United States",
    "longitude": null,
    "latitude": null,
    "phone": "6305419558",
    "website_url": "http://www.alterbrewing.com",
    "state": "Illinois",
    "street": "2300 Wisconsin Ave Ste 213"
  },
  {
    "id": "6dcf0b1b-3933-4207-bf88-0a37ee98994a",
    "name": "Alternation Brewing Company",
    "brewery_type": "micro",
    "address_1": "1539 S Broadway",
    "address_2": null,
    "address_3": null,
    "city": "Denver",
    "state_province": "Colorado",
    "postal_code": "80210-2607",
    "country": "United States",
    "longitude": -104.9876117,
    "latitude": 39.68866374,
    "phone": "3038025340",
    "website_url": "http://www.alternationbrewing.com",
    "state": "Colorado",
    "street": "1539 S Broadway"
  },
  {
    "id": "b71c080f-8514-4100-bbb3-40d2582b8122",
    "name": "Altitude Chophouse and Brewery",
    "brewery_type": "brewpub",
    "address_1": "320 S 2nd St",
    "address_2": null,
    "address_3": null,
    "city": "Laramie",
    "state_province": "Wyoming",
    "postal_code": "82070-3612",
    "country": "United States",
    "longitude": -105.5953366,
    "latitude": 41.31038565,
    "phone": "3077214031",
    "website_url": "http://www.altitudechophouse.com",
    "state": "Wyoming",
    "street": "320 S 2nd St"
  },
  {
    "id": "be64e523-9c15-4348-87e5-c6747b87abcb",
    "name": "Altmeyer and Lewis Brewing Company",
    "brewery_type": "micro",
    "address_1": "15898 N Hwy 123",
    "address_2": null,
    "address_3": null,
    "city": "San Marcos",
    "state_province": "Texas",
    "postal_code": "78666-2418",
    "country": "United States",
    "longitude": null,
    "latitude": null,
    "phone": "5126679537",
    "website_url": "http://www.altmeyerlewisbrewing.com",
    "state": "Texas",
    "street": "15898 N Hwy 123"
  },
  {
    "id": "c1e6f260-1f52-4e38-bc14-ae58fdb7bb14",
    "name": "Altruist Brewing Company",
    "brewery_type": "brewpub",
    "address_1": "559 Main St Unit 105",
    "address_2": null,
    "address_3": null,
    "city": "Sturbridge",
    "state_province": "Massachusetts",
    "postal_code": "01518-1208",
    "country": "United States",
    "longitude": null,
    "latitude": null,
    "phone": "7742418022",
    "website_url": "http://www.altruistbrewing.com",
    "state": "Massachusetts",
    "street": "559 Main St Unit 105"
  },
  {
    "id": "68410dce-b145-4c0a-993f-08fc280cc9c8",
    "name": "Altstadt Brewery",
    "brewery_type": "micro",
    "address_1": "6120 E US Highway 290",
    "address_2": null,
    "address_3": null,
    "city": "Fredericksburg",
    "state_province": "Texas",
    "postal_code": "78624-2176",
    "country": "United States",
    "longitude": -98.8467263,
    "latitude": 30.2468574,
    "phone": "8303042337",
    "website_url": "http://www.altstadtbeer.com",
    "state": "Texas",
    "street": "6120 E US Highway 290"
  },
  {
    "id": "7d0a71c4-cec0-431b-be2f-d125a9b9a44b",
    "name": "Alvarado Street Brewery",
    "brewery_type": "micro",
    "address_1": "1315 Dayton St Ste E",
    "address_2": null,
    "address_3": null,
    "city": "Salinas",
    "state_province": "California",
    "postal_code": "93901-4400",
    "country": "United States",
    "longitude": -121.6305329,
    "latitude": 36.64880356,
    "phone": null,
    "website_url": null,
    "state": "California",
    "street": "1315 Dayton St Ste E"
  },
  {
    "id": "08bf17d8-5f8f-40bc-88cb-5661f0791b35",
    "name": "Alvarado Street Brewery & Grill",
    "brewery_type": "brewpub",
    "address_1": "426 Alvarado St",
    "address_2": null,
    "address_3": null,
    "city": "Monterey",
    "state_province": "California",
    "postal_code": "93940-2711",
    "country": "United States",
    "longitude": -121.8946096,
    "latitude": 36.59857755,
    "phone": "8316552337",
    "website_url": null,
    "state": "California",
    "street": "426 Alvarado St"
  },
  {
    "id": "15ccd19e-e5bc-4216-939f-3d3348fb6d5c",
    "name": "Alvarium Beer Company",
    "brewery_type": "micro",
    "address_1": "365 John Downey Dr Ste B",
    "address_2": null,
    "address_3": null,
    "city": "New Britain",
    "state_province": "Connecticut",
    "postal_code": "06051-2922",
    "country": "United States",
    "longitude": null,
    "latitude": null,
    "phone": "8603572039",
    "website_url": "http://www.alvariumbeer.com",
    "state": "Connecticut",
    "street": "365 John Downey Dr Ste B"
  },
  {
    "id": "a649a8d5-f59e-4007-bf75-e1609ef76467",
    "name": "Amador Brewing Company",
    "brewery_type": "micro",
    "address_1": "9659 Main St",
    "address_2": null,
    "address_3": null,
    "city": "Plymouth",
    "state_province": "California",
    "postal_code": "95669-9570",
    "country": "United States",
    "longitude": -120.849271,
    "latitude": 38.4808723,
    "phone": "2095071900",
    "website_url": "http://www.amadorbrewing.com",
    "state": "California",
    "street": "9659 Main St"
  },
  {
    "id": "1a6103ad-023a-4710-988f-17e47a6732c2",
    "name": "Amalgam Brewing",
    "brewery_type": "proprietor",
    "address_1": "6381 Beach St Unit A",
    "address_2": null,
    "address_3": null,
    "city": "Denver",
    "state_province": "Colorado",
    "postal_code": "80221-2036",
    "country": "United States",
    "longitude": null,
    "latitude": null,
    "phone": null,
    "website_url": "http://www.amalgambrewing.com",
    "state": "Colorado",
    "street": "6381 Beach St Unit A"
  },
  {
    "id": "97ea0a56-c25b-45ab-afaa-ff0b37d68de5",
    "name": "Amani Brewing",
    "brewery_type": "brewpub",
    "address_1": "654 Ropp Dr",
    "address_2": null,
    "address_3": null,
    "city": "Martinsburg",
    "state_province": "West Virginia",
    "postal_code": "25403-1533",
    "country": "United States",
    "longitude": -77.949602,
    "latitude": 39.5332966,
    "phone": "3042793861",
    "website_url": "https://amanibrewing.com",
    "state": "West Virginia",
    "street": "654 Ropp Dr"
  },
  {
    "id": "5306cc0f-35c0-4168-b49b-ea965437dc8e",
    "name": "Ambacht Brewing",
    "brewery_type": "micro",
    "address_1": "1060 NE 25th Ave Ste B",
    "address_2": null,
    "address_3": null,
    "city": "Hillsboro",
    "state_province": "Oregon",
    "postal_code": "97124-4903",
    "country": "United States",
    "longitude": -122.9564737,
    "latitude": 45.53275124,
    "phone": "5038281400",
    "website_url": "http://www.ambacht.us",
    "state": "Oregon",
    "street": "1060 NE 25th Ave Ste B"
  },
  {
    "id": "5fffcb8c-fbca-4633-8ef4-7bfd7dd6d473",
    "name": "Amber Lantern Brewing Company",
    "brewery_type": "brewpub",
    "address_1": "44 N Main St",
    "address_2": null,
    "address_3": null,
    "city": "Warsaw",
    "state_province": "New York",
    "postal_code": "14569-1326",
    "country": "United States",
    "longitude": -78.132363,
    "latitude": 42.7408423,
    "phone": "5857863559",
    "website_url": "http://www.amberlanternbrewingcompany.com",
    "state": "New York",
    "street": "44 N Main St"
  },
  {
    "id": "a580bbc1-343c-4213-968d-6f332755f739",
    "name": "Ambitious Ales",
    "brewery_type": "planning",
    "address_1": null,
    "address_2": null,
    "address_3": null,
    "city": "Long Beach",
    "state_province": "California",
    "postal_code": "90807-2907",
    "country": "United States",
    "longitude": -118.1580493,
    "latitude": 33.78538945,
    "phone": "7142962550",
    "website_url": "http://www.ambitiousales.com",
    "state": "California",
    "street": null
  },
  {
    "id": "f02ee574-d02d-486f-8d2e-851ad54b25ab",
    "name": "Amelia Island Brewing Company",
    "brewery_type": "brewpub",
    "address_1": "318 Centre St",
    "address_2": null,
    "address_3": null,
    "city": "Fernandina Beach",
    "state_province": "Florida",
    "postal_code": "32034-4241",
    "country": "United States",
    "longitude": -81.46236272,
    "latitude": 30.67106045,
    "phone": "9043106088",
    "website_url": "http://www.theameliatavern.com",
    "state": "Florida",
    "street": "318 Centre St"
  },
  {
    "id": "5e4e7f13-1e56-4715-b575-37522b595062",
    "name": "American Badass Beer",
    "brewery_type": "contract",
    "address_1": "1401 Abbott St Corktown",
    "address_2": null,
    "address_3": null,
    "city": "Detroit",
    "state_province": "Michigan",
    "postal_code": "48216-1946",
    "country": "United States",
    "longitude": null,
    "latitude": null,
    "phone": null,
    "website_url": "http://www.americanbadassbeer.com",
    "state": "Michigan",
    "street": "1401 Abbott St Corktown"
  },
  {
    "id": "2b3bdfe8-47fd-4105-939e-57c9864e83b4",
    "name": "American Brewers Inc",
    "brewery_type": "micro",
    "address_1": "3408 Miller Rd",
    "address_2": null,
    "address_3": null,
    "city": "Kalamazoo",
    "state_province": "Michigan",
    "postal_code": "49001-4111",
    "country": "United States",
    "longitude": -85.5378194,
    "latitude": 42.26671998,
    "phone": "2692171920",
    "website_url": "http://www.americanbrewers.us",
    "state": "Michigan",
    "street": "3408 Miller Rd"
  },
  {
    "id": "29c900c4-16b4-45ef-b688-061ed0fe8bd4",
    "name": "American Brewing Company",
    "brewery_type": "closed",
    "address_1": "180 W Dayton St Ste 102",
    "address_2": null,
    "address_3": null,
    "city": "Edmonds",
    "state_province": "Washington",
    "postal_code": "98020-4127",
    "country": "United States",
    "longitude": null,
    "latitude": null,
    "phone": "4257741717",
    "website_url": "http://www.americanbrewing.com",
    "state": "Washington",
    "street": "180 W Dayton St Ste 102"
  },
  {
    "id": "538f360a-f2b7-48fc-aa66-3ed35af0f62e",
    "name": "American Harvest Brewpub At Schoolcraft College",
    "brewery_type": "brewpub",
    "address_1": "18600 Haggerty Rd",
    "address_2": null,
    "address_3": null,
    "city": "Livonia",
    "state_province": "Michigan",
    "postal_code": "48152-3932",
    "country": "United States",
    "longitude": -83.42868497,
    "latitude": 42.419317,
    "phone": "7344627659",
    "website_url": "http://www.schoolcraft.edu",
    "state": "Michigan",
    "street": "18600 Haggerty Rd"
  },
  {
    "id": "4c92654b-a82a-4a9a-8c3f-fc03886a0be7",
    "name": "American Honor Beer Co",
    "brewery_type": "contract",
    "address_1": "700 N Pennsylvania Ave",
    "address_2": null,
    "address_3": null,
    "city": "Wilkes Barre",
    "state_province": "Pennsylvania",
    "postal_code": "18705-2451",
    "country": "United States",
    "longitude": -75.859363,
    "latitude": 41.254896,
    "phone": null,
    "website_url": "http://www.BoondoggleBeer.com",
    "state": "Pennsylvania",
    "street": "700 N Pennsylvania Ave"
  },
  {
    "id": "6ec8cb60-72f6-4c30-af4b-3e59e736b3fc",
    "name": "American Icon Brewery",
    "brewery_type": "brewpub",
    "address_1": "1133 19th Place",
    "address_2": null,
    "address_3": null,
    "city": "Vero Beach",
    "state_province": "Florida",
    "postal_code": "32960",
    "country": "United States",
    "longitude": -80.3955067,
    "latitude": 27.63674361,
    "phone": "7729344266",
    "website_url": "http://www.americaniconbrewery.com",
    "state": "Florida",
    "street": "1133 19th Place"
  },
  {
    "id": "f6350f89-c5df-4969-81b2-358b6e8e6ed0",
    "name": "American Solera",
    "brewery_type": "micro",
    "address_1": "1702 E 6th St",
    "address_2": null,
    "address_3": null,
    "city": "Tulsa",
    "state_province": "Oklahoma",
    "postal_code": "74104",
    "country": "United States",
    "longitude": -95.9667403,
    "latitude": 36.1518928,
    "phone": "9189494318",
    "website_url": "http://www.americansolera.com",
    "state": "Oklahoma",
    "street": "1702 E 6th St"
  },
  {
    "id": "045441f8-1882-4960-9e4d-0a32d24625e6",
    "name": "Americana Brewery",
    "brewery_type": "planning",
    "address_1": null,
    "address_2": null,
    "address_3": null,
    "city": "Fort Lauderdale",
    "state_province": "Florida",
    "postal_code": "33328-1606",
    "country": "United States",
    "longitude": null,
    "latitude": null,
    "phone": null,
    "website_url": null,
    "state": "Florida",
    "street": null
  },
  {
    "id": "32dd19c9-33b8-4ed5-b5f0-1fb5f5d8ad02",
    "name": "Amerisports Brew Pub",
    "brewery_type": "brewpub",
    "address_1": "3200 Ameristar Dr",
    "address_2": null,
    "address_3": null,
    "city": "Kansas City",
    "state_province": "Missouri",
    "postal_code": "64161",
    "country": "United States",
    "longitude": -94.484526,
    "latitude": 39.150682,
    "phone": "8164147435",
    "website_url": "http://www.ameristar.com",
    "state": "Missouri",
    "street": "3200 Ameristar Dr"
  },
  {
    "id": "9bd199ef-1796-410e-abaa-1a4c9da3a1ca",
    "name": "Amery Ale Works",
    "brewery_type": "micro",
    "address_1": "588 115th St",
    "address_2": null,
    "address_3": null,
    "city": "Amery",
    "state_province": "Wisconsin",
    "postal_code": "54001-7801",
    "country": "United States",
    "longitude": -92.396797834543,
    "latitude": 45.293806062122,
    "phone": "7152685226",
    "website_url": "http://www.ameryaleworks.com",
    "state": "Wisconsin",
    "street": "588 115th St"
  },
  {
    "id": "fb1c5883-f652-4375-b887-a424584d0d9d",
    "name": "Amherst Brewing Co / Hangar Pub and Grill",
    "brewery_type": "brewpub",
    "address_1": "10 University Dr",
    "address_2": null,
    "address_3": null,
    "city": "Amherst",
    "state_province": "Massachusetts",
    "postal_code": "01002-2243",
    "country": "United States",
    "longitude": -72.5318418,
    "latitude": 42.3728635,
    "phone": "4132534400",
    "website_url": "http://www.amherstbrewing.com",
    "state": "Massachusetts",
    "street": "10 University Dr"
  },
  {
    "id": "f4e14ed9-3db6-4829-a08f-3f964717e489",
    "name": "Ammo Brewing",
    "brewery_type": "micro",
    "address_1": "235 N Market St",
    "address_2": null,
    "address_3": null,
    "city": "Petersburg",
    "state_province": "Virginia",
    "postal_code": "23803-3207",
    "country": "United States",
    "longitude": -77.407177,
    "latitude": 37.230765,
    "phone": "8047221667",
    "website_url": "http://www.ammobrewing.com",
    "state": "Virginia",
    "street": "235 N Market St"
  },
  {
    "id": "f330bf2b-e342-4265-b41f-59d8ebf8bba7",
    "name": "Amorphic Beer",
    "brewery_type": "micro",
    "address_1": "3700 N Fratney St",
    "address_2": null,
    "address_3": null,
    "city": "Milwaukee",
    "state_province": "Wisconsin",
    "postal_code": "53212-2360",
    "country": "United States",
    "longitude": -87.900978500235,
    "latitude": 43.08422407407,
    "phone": "4144856705",
    "website_url": "http://www.amorphicbeer.com",
    "state": "Wisconsin",
    "street": "3700 N Fratney St"
  },
  {
    "id": "be80d6fe-27bc-4b12-a046-e7fc8fd947b6",
    "name": "Amorys Tomb Brewing Co",
    "brewery_type": "micro",
    "address_1": "76 Main St",
    "address_2": null,
    "address_3": null,
    "city": "Maynard",
    "state_province": "Massachusetts",
    "postal_code": "01754-2516",
    "country": "United States",
    "longitude": -71.45315644,
    "latitude": 42.43203845,
    "phone": "9782430875",
    "website_url": "http://amorystomb.com",
    "state": "Massachusetts",
    "street": "76 Main St"
  },
  {
    "id": "fd0d376e-1c1d-48ce-ba6f-897298c20b85",
    "name": "Amplified Ale Works",
    "brewery_type": "brewpub",
    "address_1": "4150 Mission Blvd Ste 208",
    "address_2": null,
    "address_3": null,
    "city": "San Diego",
    "state_province": "California",
    "postal_code": "92109-5054",
    "country": "United States",
    "longitude": -117.2511178,
    "latitude": 32.7719729,
    "phone": "6195871400",
    "website_url": "http://www.amplifiedales.com",
    "state": "California",
    "street": "4150 Mission Blvd Ste 208"
  },
  {
    "id": "c3f5bb6a-c7f4-45a9-829c-3978625f111e",
    "name": "Amplified Ale Works Miramar Studio",
    "brewery_type": "brewpub",
    "address_1": "9030 Kenamar Dr Ste 309",
    "address_2": null,
    "address_3": null,
    "city": "San Diego",
    "state_province": "California",
    "postal_code": "92121-2432",
    "country": "United States",
    "longitude": -117.1570695,
    "latitude": 32.88687598,
    "phone": "6503804220",
    "website_url": "https://amplifiedales.com/",
    "state": "California",
    "street": "9030 Kenamar Dr Ste 309"
  },
  {
    "id": "f99c834f-df7e-41e9-8236-ce0d25e43189",
    "name": "Anacapa Brewing Co",
    "brewery_type": "brewpub",
    "address_1": "472 E Main St",
    "address_2": null,
    "address_3": null,
    "city": "Ventura",
    "state_province": "California",
    "postal_code": "93001-2627",
    "country": "United States",
    "longitude": -119.2935874,
    "latitude": 34.28073347,
    "phone": "8056432337",
    "website_url": "http://www.anacapabrewing.com",
    "state": "California",
    "street": "472 E Main St"
  },
  {
    "id": "3447e49a-c978-471a-8c46-62244ca757b8",
    "name": "Anacortes Brewery/Rockfish Grill",
    "brewery_type": "brewpub",
    "address_1": "320 Commercial Ave",
    "address_2": null,
    "address_3": null,
    "city": "Anacortes",
    "state_province": "Washington",
    "postal_code": "98221-1517",
    "country": "United States",
    "longitude": -122.6126089,
    "latitude": 48.51933431,
    "phone": "3605881720",
    "website_url": "http://www.anacortesrockfish.com",
    "state": "Washington",
    "street": "320 Commercial Ave"
  },
  {
    "id": "e6663203-a997-403b-b130-63dd975b00c6",
    "name": "Anaheim Brewery",
    "brewery_type": "micro",
    "address_1": "336 S Anaheim Blvd",
    "address_2": null,
    "address_3": null,
    "city": "Anaheim",
    "state_province": "California",
    "postal_code": "92805-3830",
    "country": "United States",
    "longitude": -117.9125249,
    "latitude": 33.8328226,
    "phone": "7147801888",
    "website_url": "http://www.anaheimbrew.com",
    "state": "California",
    "street": "336 S Anaheim Blvd"
  },
  {
    "id": "bdc1beb9-2832-4c44-aa63-289726c3a13f",
    "name": "Anawan Brewing Company",
    "brewery_type": "planning",
    "address_1": null,
    "address_2": null,
    "address_3": null,
    "city": "Dighton",
    "state_province": "Massachusetts",
    "postal_code": "02764",
    "country": "United States",
    "longitude": null,
    "latitude": null,
    "phone": "7742296300",
    "website_url": "http://www.anawanbrewingco.com",
    "state": "Massachusetts",
    "street": null
  },
  {
    "id": "126392f8-8260-4619-a561-ec20153c6779",
    "name": "Ancestry Brewery",
    "brewery_type": "brewpub",
    "address_1": "20585 SW 115th Ave",
    "address_2": null,
    "address_3": null,
    "city": "Tualatin",
    "state_province": "Oregon",
    "postal_code": "97062-6857",
    "country": "United States",
    "longitude": -122.7967838,
    "latitude": 45.3711546,
    "phone": "5037060448",
    "website_url": "http://www.ancestrybrewing.com",
    "state": "Oregon",
    "street": "20585 SW 115th Ave"
  },
  {
    "id": "25809e1c-0c76-498b-8a57-d6b85ff24c3c",
    "name": "Anchor Brewing Co",
    "brewery_type": "large",
    "address_1": "1705 Mariposa St",
    "address_2": null,
    "address_3": null,
    "city": "San Francisco",
    "state_province": "California",
    "postal_code": "94107-2334",
    "country": "United States",
    "longitude": -122.4011065,
    "latitude": 37.7630772,
    "phone": "4158638350",
    "website_url": "http://www.anchorbrewing.com",
    "state": "California",
    "street": "1705 Mariposa St"
  },
  {
    "id": "ce8f55f6-ba10-4d74-94c3-e26cc131f473",
    "name": "Anchorage Brewing Co",
    "brewery_type": "micro",
    "address_1": "148 W 91st Ave",
    "address_2": null,
    "address_3": null,
    "city": "Anchorage",
    "state_province": "Alaska",
    "postal_code": "99515-1901",
    "country": "United States",
    "longitude": -149.8893581,
    "latitude": 61.1385311,
    "phone": "9073605104",
    "website_url": "http://www.anchoragebrewingcompany.com",
    "state": "Alaska",
    "street": "148 W 91st Ave"
  }
]