[
  {
    "id": "61858953-2b5c-4ec2-b8a1-e0eb3770bc1f",
    "name": "Great American Restaurants, Sweetwater Tavern",
    "brewery_type": "brewpub",
    "address_1": "3066 Gate House Plz",
    "address_2": null,
    "address_3": null,
    "city": "Falls Church",
    "state_province": "Virginia",
    "postal_code": "22042-1028",
    "country": "United States",
    "longitude": null,
    "latitude": null,
    "phone": "7036458100",
    "website_url": "http://www.greatamericanrestaurants.com",
    "state": "Virginia",
    "street": "3066 Gate House Plz"
  },
  {
    "id": "bd1e519b-ec63-49ca-954f-68394ee94d8a",
    "name": "Great American Restaurants, Sweetwater Tavern",
    "brewery_type": "brewpub",
    "address_1": "45980 Waterview Plz",
    "address_2": null,
    "address_3": null,
    "city": "Sterling",
    "state_province": "Virginia",
    "postal_code": "20166-6556",
    "country": "United States",
    "longitude": null,
    "latitude": null,
    "phone": "5714346500",
    "website_url": "http://www.greatamericanrestaurants.com",
    "state": "Virginia",
    "street": "45980 Waterview Plz"
  },
  {
    "id": "a92779ca-47e3-4b0b-ab0a-59050ebac620",
    "name": "Great Baraboo Brewing Co",
    "brewery_type": "brewpub",
    "address_1": "35905 Utica Rd",
    "address_2": null,
    "address_3": null,
    "city": "Clinton Township",
    "state_province": "Michigan",
    "postal_code": "48035-2155",
    "country": "United States",
    "longitude": -82.96514018,
    "latitude": 42.56028034,
    "phone": "5867927397",
    "website_url": "http://www.greatbaraboo.com",
    "state": "Michigan",
    "street": "35905 Utica Rd"
  },
  {
    "id": "09762409-cb4e-4a66-bed3-77788daf8a67",
    "name": "Great Barn Brewery",
    "brewery_type": "micro",
    "address_1": "12 W Mechanic St",
    "address_2": null,
    "address_3": null,
    "city": "New Hope",
    "state_province": "Pennsylvania",
    "postal_code": "18938",
    "country": "United States",
    "longitude": -74.95077675,
    "latitude": 40.36199585,
    "phone": null,
    "website_url": "http://www.greatbarnbrewery.com",
    "state": "Pennsylvania",
    "street": "12 W Mechanic St"
  },
  {
    "id": "285ea0ca-b7c9-4e81-b72c-ece23cb76946",
    "name": "Great Basin Brewing Co",
    "brewery_type": "brewpub",
    "address_1": "5525 S Virginia St",
    "address_2": null,
    "address_3": null,
    "city": "Reno",
    "state_province": "Nevada",
    "postal_code": "89502-6085",
    "country": "United States",
    "longitude": -119.789957,
    "latitude": 39.4762338,
    "phone": "7752847711",
    "website_url": "http://www.greatbasinbrewingco.com",
    "state": "Nevada",
    "street": "5525 S Virginia St"
  },
  {
    "id": "9220f96f-aeaa-48d9-b5b3-7a8e6e228730",
    "name": "Great Basin Brewing Co",
    "brewery_type": "brewpub",
    "address_1": "846 Victorian Ave",
    "address_2": null,
    "address_3": null,
    "city": "Sparks",
    "state_province": "Nevada",
    "postal_code": "89431-5275",
    "country": "United States",
    "longitude": -119.775003,
    "latitude": 39.53533,
    "phone": "7753557711",
    "website_url": "http://www.greatbasinbrewingco.com",
    "state": "Nevada",
    "street": "846 Victorian Ave"
  },
  {
    "id": "8fb7a6e3-f6ef-47a3-b8e2-46b280be97d6",
    "name": "Great Basin Brewing Co - Production Facility",
    "brewery_type": "micro",
    "address_1": "1155 S Rock Blvd Ste 490",
    "address_2": null,
    "address_3": null,
    "city": "Reno",
    "state_province": "Nevada",
    "postal_code": "89502-7174",
    "country": "United States",
    "longitude": null,
    "latitude": null,
    "phone": "7753557711",
    "website_url": "http://www.greatbasinbrewingco.com",
    "state": "Nevada",
    "street": "1155 S Rock Blvd Ste 490"
  },
  {
    "id": "fe4b240e-0ef8-477e-9c77-0819de38d3e6",
    "name": "Great Beer Co",
    "brewery_type": "contract",
    "address_1": "21119 Superior St",
    "address_2": null,
    "address_3": null,
    "city": "Chatsworth",
    "state_province": "California",
    "postal_code": "91311-4309",
    "country": "United States",
    "longitude": -118.5932845,
    "latitude": 34.24643282,
    "phone": "8187182739",
    "website_url": "http://www.greatbeerco.com",
    "state": "California",
    "street": "21119 Superior St"
  },
  {
    "id": "c4a394ea-a3df-4a0d-892b-92972acabf9a",
    "name": "Great Black Swamp Brewing Co",
    "brewery_type": "micro",
    "address_1": "3323 Monroe St",
    "address_2": null,
    "address_3": null,
    "city": "Toledo",
    "state_province": "Ohio",
    "postal_code": "43606-4553",
    "country": "United States",
    "longitude": -83.5462275,
    "latitude": 41.6530711,
    "phone": "4199731256",
    "website_url": "http://www.greatblackswampbrewing.com",
    "state": "Ohio",
    "street": "3323 Monroe St"
  },
  {
    "id": "85e12381-2a52-4710-9be4-0c4243976f28",
    "name": "Great Burn Brewing",
    "brewery_type": "micro",
    "address_1": "2230 McDonald Ave",
    "address_2": null,
    "address_3": null,
    "city": "Missoula",
    "state_province": "Montana",
    "postal_code": "59801-8802",
    "country": "United States",
    "longitude": -114.033997,
    "latitude": 46.83979192,
    "phone": "4063171557",
    "website_url": "http://www.greatburnbrewing.com",
    "state": "Montana",
    "street": "2230 McDonald Ave"
  },
  {
    "id": "dc1ca2e3-86c7-44b5-aaae-adad3420225f",
    "name": "Great Central Brewing Company",
    "brewery_type": "micro",
    "address_1": "221 N Wood St",
    "address_2": null,
    "address_3": null,
    "city": "Chicago",
    "state_province": "Illinois",
    "postal_code": "60612-2614",
    "country": "United States",
    "longitude": -87.6712098,
    "latitude": 41.8858315,
    "phone": "8554644222",
    "website_url": "http://www.greatcentralbrewing.com",
    "state": "Illinois",
    "street": "221 N Wood St"
  },
  {
    "id": "c5317022-24b2-4730-bca5-2c72d7f68e0b",
    "name": "Great Change Brewing",
    "brewery_type": "planning",
    "address_1": null,
    "address_2": null,
    "address_3": null,
    "city": "Bakersfield",
    "state_province": "California",
    "postal_code": "93313",
    "country": "United States",
    "longitude": -119.0194639,
    "latitude": 35.3738712,
    "phone": "6195170736",
    "website_url": "http://www.greatchangebrewing.com",
    "state": "California",
    "street": null
  },
  {
    "id": "dc3e008a-2387-4aea-addd-c05a1049ee89",
    "name": "Great Chicago Fire Brewery and Tap Room",
    "brewery_type": "brewpub",
    "address_1": "311 W Magnolia St",
    "address_2": null,
    "address_3": null,
    "city": "Leesburg",
    "state_province": "Florida",
    "postal_code": "34748-5894",
    "country": "United States",
    "longitude": -81.8767662,
    "latitude": 28.81023951,
    "phone": "3524742739",
    "website_url": "http://www.chifibrew.com",
    "state": "Florida",
    "street": "311 W Magnolia St"
  },
  {
    "id": "318e515a-fa20-42bb-a8f8-473485d2dbe1",
    "name": "Great Crescent Brewery",
    "brewery_type": "micro",
    "address_1": "315 Importing St",
    "address_2": null,
    "address_3": null,
    "city": "Aurora",
    "state_province": "Indiana",
    "postal_code": "47001-1415",
    "country": "United States",
    "longitude": -84.90051257,
    "latitude": 39.05760229,
    "phone": "8126559079",
    "website_url": "http://www.gcbeer.com",
    "state": "Indiana",
    "street": "315 Importing St"
  },
  {
    "id": "87921dc2-786e-412d-a560-399768f7cd7b",
    "name": "Great Dane Pub and Brewing Co - Downtown",
    "brewery_type": "brewpub",
    "address_1": "123 E Doty St Ste 1",
    "address_2": null,
    "address_3": null,
    "city": "Madison",
    "state_province": "Wisconsin",
    "postal_code": "53703-5134",
    "country": "United States",
    "longitude": null,
    "latitude": null,
    "phone": "6082840000",
    "website_url": "http://www.greatdanepub.com",
    "state": "Wisconsin",
    "street": "123 E Doty St Ste 1"
  },
  {
    "id": "7efb41b5-7e36-44e0-86a6-23ff349c0265",
    "name": "Great Dane Pub and Brewing Co - Fitchburg",
    "brewery_type": "brewpub",
    "address_1": "2980 Cahill Main",
    "address_2": null,
    "address_3": null,
    "city": "Fitchburg",
    "state_province": "Wisconsin",
    "postal_code": "53711-7146",
    "country": "United States",
    "longitude": -89.42370903,
    "latitude": 43.01816267,
    "phone": "6084429000",
    "website_url": "http://www.greatdanepub.com",
    "state": "Wisconsin",
    "street": "2980 Cahill Main"
  },
  {
    "id": "986c3bd0-6cf7-4949-83af-25c4b7439257",
    "name": "Great Dane Pub and Brewing Co -- Hilldale",
    "brewery_type": "brewpub",
    "address_1": "357 Price Pl",
    "address_2": null,
    "address_3": null,
    "city": "Madison",
    "state_province": "Wisconsin",
    "postal_code": "53705-3208",
    "country": "United States",
    "longitude": -89.45243818,
    "latitude": 43.07061375,
    "phone": "6086619400",
    "website_url": "http://www.greatdanepub.com",
    "state": "Wisconsin",
    "street": "357 Price Pl"
  },
  {
    "id": "d69ee73d-78ca-4d7f-b293-0a02f0df6e5f",
    "name": "Great Dane Pub and Brewing Co- Wausau",
    "brewery_type": "brewpub",
    "address_1": "2305 Sherman St",
    "address_2": null,
    "address_3": null,
    "city": "Wausau",
    "state_province": "Wisconsin",
    "postal_code": "54401-1708",
    "country": "United States",
    "longitude": -89.66482568,
    "latitude": 44.9511963,
    "phone": "7158453000",
    "website_url": "http://www.greatdanepub.com",
    "state": "Wisconsin",
    "street": "2305 Sherman St"
  },
  {
    "id": "f2734f1f-4106-4b74-84b6-16ee5d4e0f1c",
    "name": "Great Divide Brewery & Roadhouse - Castle Rock",
    "brewery_type": "brewpub",
    "address_1": "215 Wilcox St",
    "address_2": null,
    "address_3": null,
    "city": "Castle Rock",
    "state_province": "Colorado",
    "postal_code": "80104",
    "country": "United States",
    "longitude": -104.8604851,
    "latitude": 39.371586,
    "phone": "3039555788",
    "website_url": "https://www.greatdividebreweryandroadhouse.com/",
    "state": "Colorado",
    "street": "215 Wilcox St"
  },
  {
    "id": "6a8bae2f-396a-4349-90f5-f4dc6c4ea5e8",
    "name": "Great Divide Brewery & Roadhouse - Lone Tree",
    "brewery_type": "brewpub",
    "address_1": "9978 Sky Ridge Ave #240",
    "address_2": null,
    "address_3": null,
    "city": "Lone Tree",
    "state_province": "Colorado",
    "postal_code": "80124",
    "country": "United States",
    "longitude": -104.873104,
    "latitude": 39.5323743,
    "phone": "7205472533",
    "website_url": "https://www.greatdividebreweryandroadhouse.com/",
    "state": "Colorado",
    "street": "9978 Sky Ridge Ave #240"
  },
  {
    "id": "8d07cc1f-6941-4ee7-8fbe-6ce91eb7b098",
    "name": "Great Divide Brewing Co",
    "brewery_type": "regional",
    "address_1": "2201 Arapahoe St",
    "address_2": null,
    "address_3": null,
    "city": "Denver",
    "state_province": "Colorado",
    "postal_code": "80205-2512",
    "country": "United States",
    "longitude": -104.9885279,
    "latitude": 39.7539229,
    "phone": "3032969460",
    "website_url": "http://www.greatdivide.com",
    "state": "Colorado",
    "street": "2201 Arapahoe St"
  },
  {
    "id": "419be70a-a970-41f1-99cd-0b42875001e5",
    "name": "Great Divide Brewing Co - RiNo Barrel Bar",
    "brewery_type": "micro",
    "address_1": "1812 35th St",
    "address_2": null,
    "address_3": null,
    "city": "Denver",
    "state_province": "Colorado",
    "postal_code": "80216-3665",
    "country": "United States",
    "longitude": -104.979247,
    "latitude": 39.7703322,
    "phone": "3032969460",
    "website_url": "http://greatdivide.com/",
    "state": "Colorado",
    "street": "1812 35th St"
  },
  {
    "id": "9a89836a-5d4d-46f4-b51c-4150cc63fc72",
    "name": "Great Falls Brewing Company",
    "brewery_type": "planning",
    "address_1": null,
    "address_2": null,
    "address_3": null,
    "city": "Canaan",
    "state_province": "Connecticut",
    "postal_code": "06018",
    "country": "United States",
    "longitude": null,
    "latitude": null,
    "phone": "8609217843",
    "website_url": "http://GreatFallsBrews.com",
    "state": "Connecticut",
    "street": null
  },
  {
    "id": "cbf3ff33-da42-4d33-9a6e-8fe1aec55b7c",
    "name": "Great Flats Brewing",
    "brewery_type": "micro",
    "address_1": "151 Lafayette St",
    "address_2": null,
    "address_3": null,
    "city": "Schenectady",
    "state_province": "New York",
    "postal_code": "12305-2051",
    "country": "United States",
    "longitude": -73.93839638,
    "latitude": 42.81243538,
    "phone": "5182800232",
    "website_url": "http://www.greatflatsbrewing.com",
    "state": "New York",
    "street": "151 Lafayette St"
  },
  {
    "id": "461de6a5-8f4f-4422-a103-df77bd33e6af",
    "name": "Great Flood Brewing",
    "brewery_type": "micro",
    "address_1": "2120 Bardstown Rd",
    "address_2": null,
    "address_3": null,
    "city": "Louisville",
    "state_province": "Kentucky",
    "postal_code": "40205-1916",
    "country": "United States",
    "longitude": -85.6938076,
    "latitude": 38.2239974,
    "phone": "5024577711",
    "website_url": "http://www.greatfloodbrewing.com",
    "state": "Kentucky",
    "street": "2120 Bardstown Rd"
  },
  {
    "id": "cc9854cc-ed86-4336-8a59-4076b40248a5",
    "name": "Great Flood Brewing- Production Facility",
    "brewery_type": "micro",
    "address_1": "629 Bergman St",
    "address_2": null,
    "address_3": null,
    "city": "Louisville",
    "state_province": "Kentucky",
    "postal_code": "40203-2618",
    "country": "United States",
    "longitude": -85.74511415,
    "latitude": 38.2290463,
    "phone": "5024577711",
    "website_url": null,
    "state": "Kentucky",
    "street": "629 Bergman St"
  },
  {
    "id": "aa504ab3-d1c2-46b7-9070-c2b622275a93",
    "name": "Great Frontier Brewing Company",
    "brewery_type": "micro",
    "address_1": "2010 S Oak St",
    "address_2": null,
    "address_3": null,
    "city": "Lakewood",
    "state_province": "Colorado",
    "postal_code": "80227-2050",
    "country": "United States",
    "longitude": -105.1177216,
    "latitude": 39.6813614,
    "phone": "7203281758",
    "website_url": "http://www.greatfrontierbeer.com",
    "state": "Colorado",
    "street": "2010 S Oak St"
  },
  {
    "id": "fb5582cb-ab8e-4a54-b59e-ad6d5092a60b",
    "name": "Great Heights Brewing Company",
    "brewery_type": "micro",
    "address_1": "938 Wakefield Dr",
    "address_2": null,
    "address_3": null,
    "city": "Houston",
    "state_province": "Texas",
    "postal_code": "77018-6204",
    "country": "United States",
    "longitude": -95.4223629,
    "latitude": 29.8216738,
    "phone": "2812206900",
    "website_url": "http://www.greatheightsbrewing.com",
    "state": "Texas",
    "street": "938 Wakefield Dr"
  },
  {
    "id": "5c7ca72a-568e-4586-b3cb-10043ee53764",
    "name": "Great Lakes Brewing Co",
    "brewery_type": "regional",
    "address_1": "1947 W 28th St",
    "address_2": null,
    "address_3": null,
    "city": "Cleveland",
    "state_province": "Ohio",
    "postal_code": "44113-3422",
    "country": "United States",
    "longitude": -81.70571113,
    "latitude": 41.48405803,
    "phone": "2167714404",
    "website_url": "http://www.greatlakesbrewing.com",
    "state": "Ohio",
    "street": "1947 W 28th St"
  },
  {
    "id": "2517f2a6-d216-43be-be6e-e3bdace21d54",
    "name": "Great Lakes Brewing Co",
    "brewery_type": "brewpub",
    "address_1": "2516 Market Ave",
    "address_2": null,
    "address_3": null,
    "city": "Cleveland",
    "state_province": "Ohio",
    "postal_code": "44113-3434",
    "country": "United States",
    "longitude": -81.7044266,
    "latitude": 41.4844172,
    "phone": null,
    "website_url": "http://www.greatlakesbrewing.com",
    "state": "Ohio",
    "street": "2516 Market Ave"
  },
  {
    "id": "20230888-8096-4466-8d22-29d016781c9c",
    "name": "Great Legs Winery, Brewery, and Distillery",
    "brewery_type": "micro",
    "address_1": "332 E Lakewood Blvd",
    "address_2": null,
    "address_3": null,
    "city": "Holland",
    "state_province": "Michigan",
    "postal_code": "49424-3306",
    "country": "United States",
    "longitude": null,
    "latitude": null,
    "phone": "6169169729",
    "website_url": "http://www.greatlegswinery.com",
    "state": "Michigan",
    "street": "332 E Lakewood Blvd"
  },
  {
    "id": "7f6f03e1-2627-4805-b25e-0f2b21f3b8d5",
    "name": "Great Life Brewing",
    "brewery_type": "micro",
    "address_1": null,
    "address_2": null,
    "address_3": null,
    "city": "West Park",
    "state_province": "New York",
    "postal_code": "12493",
    "country": "United States",
    "longitude": null,
    "latitude": null,
    "phone": "8453313700",
    "website_url": "http://www.greatlifebrewing.com",
    "state": "New York",
    "street": null
  },
  {
    "id": "b10d422b-421d-4eab-9688-11783edace14",
    "name": "Great North Aleworks",
    "brewery_type": "micro",
    "address_1": "1050 Holt Ave Unit 14",
    "address_2": null,
    "address_3": null,
    "city": "Manchester",
    "state_province": "New Hampshire",
    "postal_code": "03109-5615",
    "country": "United States",
    "longitude": null,
    "latitude": null,
    "phone": "6034988152",
    "website_url": "http://greatnorthaleworks.com",
    "state": "New Hampshire",
    "street": "1050 Holt Ave Unit 14"
  },
  {
    "id": "67922a32-e4c3-4ef0-ae6e-6c3ef0c33286",
    "name": "Great Northern Brewing Co",
    "brewery_type": "micro",
    "address_1": "2 Central Ave",
    "address_2": null,
    "address_3": null,
    "city": "Whitefish",
    "state_province": "Montana",
    "postal_code": "59937-2547",
    "country": "United States",
    "longitude": -114.3370175,
    "latitude": 48.4123443,
    "phone": "4068631000",
    "website_url": "http://www.greatnorthernbrewing.com",
    "state": "Montana",
    "street": "2 Central Ave"
  },
  {
    "id": "241b680f-f114-440d-a662-67869a68e262",
    "name": "Great Notion Brewing",
    "brewery_type": "brewpub",
    "address_1": "2204 NE Alberta St Ste 101",
    "address_2": null,
    "address_3": null,
    "city": "Portland",
    "state_province": "Oregon",
    "postal_code": "97211-5885",
    "country": "United States",
    "longitude": -122.64249,
    "latitude": 45.55884,
    "phone": "5035484491",
    "website_url": "http://www.greatnotionpdx.com",
    "state": "Oregon",
    "street": "2204 NE Alberta St Ste 101"
  },
  {
    "id": "e7857396-5a4b-4d13-9280-5bc209512ee0",
    "name": "Great Notion Brewing NW",
    "brewery_type": "micro",
    "address_1": "2444 NW 28th Ave",
    "address_2": null,
    "address_3": null,
    "city": "Portland",
    "state_province": "Oregon",
    "postal_code": "97210",
    "country": "United States",
    "longitude": -122.7089599,
    "latitude": 45.54001975,
    "phone": "5035484491",
    "website_url": null,
    "state": "Oregon",
    "street": "2444 NW 28th Ave"
  },
  {
    "id": "457a1fd7-e41f-4229-9c47-0ad74fb4ed90",
    "name": "Great Raft Brewing",
    "brewery_type": "micro",
    "address_1": "1251 Dalzell St",
    "address_2": null,
    "address_3": null,
    "city": "Shreveport",
    "state_province": "Louisiana",
    "postal_code": "71103-3705",
    "country": "United States",
    "longitude": -93.75545669,
    "latitude": 32.48900686,
    "phone": "3187348101",
    "website_url": "http://www.greatraftbrewing.com",
    "state": "Louisiana",
    "street": "1251 Dalzell St"
  },
  {
    "id": "facf7af6-1103-42ef-9522-de783df81127",
    "name": "Great Rhythm Brewing Co.",
    "brewery_type": "micro",
    "address_1": "105 Bartlett St Ste 6",
    "address_2": null,
    "address_3": null,
    "city": "Portsmouth",
    "state_province": "New Hampshire",
    "postal_code": "03801-7608",
    "country": "United States",
    "longitude": null,
    "latitude": null,
    "phone": "6034309640",
    "website_url": "http://www.greatrhythmbrewing.com",
    "state": "New Hampshire",
    "street": "105 Bartlett St Ste 6"
  },
  {
    "id": "2934514c-a0f6-4810-8f4b-042fcb398a0c",
    "name": "Great River Brewery",
    "brewery_type": "micro",
    "address_1": "332 E 2nd St",
    "address_2": null,
    "address_3": null,
    "city": "Davenport",
    "state_province": "Iowa",
    "postal_code": "52801-1702",
    "country": "United States",
    "longitude": -90.57063937,
    "latitude": 41.52138805,
    "phone": "3195415160",
    "website_url": "http://www.greatriverbrewery.com",
    "state": "Iowa",
    "street": "332 E 2nd St"
  },
  {
    "id": "e681f620-b2fc-445a-afd9-a8777f87d738",
    "name": "Great South Bay Brewery",
    "brewery_type": "micro",
    "address_1": "25 Drexel Dr",
    "address_2": null,
    "address_3": null,
    "city": "Bay Shore",
    "state_province": "New York",
    "postal_code": "11706-2234",
    "country": "United States",
    "longitude": null,
    "latitude": null,
    "phone": "6313928472",
    "website_url": "http://www.greatsouthbaybrewery.com",
    "state": "New York",
    "street": "25 Drexel Dr"
  },
  {
    "id": "fdaa1da1-63fb-4a46-9ebc-4dd94bcc3a39",
    "name": "Great Valley Farm Brewery",
    "brewery_type": "micro",
    "address_1": "60 Great Valley Ln",
    "address_2": null,
    "address_3": null,
    "city": "Natural Bridge",
    "state_province": "Virginia",
    "postal_code": "24578-1100",
    "country": "United States",
    "longitude": null,
    "latitude": null,
    "phone": "5405216163",
    "website_url": "http://greatvalleyfarmbrewery.com",
    "state": "Virginia",
    "street": "60 Great Valley Ln"
  },
  {
    "id": "64c21730-f704-40c9-98b8-132b3dc1a37e",
    "name": "Great Waters Brewing Company",
    "brewery_type": "brewpub",
    "address_1": "426 Saint Peter St",
    "address_2": null,
    "address_3": null,
    "city": "Saint Paul",
    "state_province": "Minnesota",
    "postal_code": "55102-1105",
    "country": "United States",
    "longitude": -93.096926,
    "latitude": 44.94672,
    "phone": "6512242739",
    "website_url": "http://www.greatwatersbc.com",
    "state": "Minnesota",
    "street": "426 Saint Peter St"
  },
  {
    "id": "f54f3497-c3bd-406e-a185-c65382c8d7d6",
    "name": "Greater Good Imperial Brew Co",
    "brewery_type": "brewpub",
    "address_1": "55 Millbrook St",
    "address_2": null,
    "address_3": null,
    "city": "Worcester",
    "state_province": "Massachusetts",
    "postal_code": "01606",
    "country": "United States",
    "longitude": -71.80355503,
    "latitude": 42.2891295,
    "phone": null,
    "website_url": "http://www.greatergoodimperials.com",
    "state": "Massachusetts",
    "street": "55 Millbrook St"
  },
  {
    "id": "b77b713c-c91c-4c44-8dc2-13148b04edee",
    "name": "Green Bench Brewing Co",
    "brewery_type": "micro",
    "address_1": "1133 Baum Ave N",
    "address_2": null,
    "address_3": null,
    "city": "Saint Petersburg",
    "state_province": "Florida",
    "postal_code": "33705-1555",
    "country": "United States",
    "longitude": -82.65067185,
    "latitude": 27.7717121,
    "phone": "7278007836",
    "website_url": "http://www.greenbenchbrewing.com",
    "state": "Florida",
    "street": "1133 Baum Ave N"
  },
  {
    "id": "7eda7b52-0edb-46d1-ab98-6a6fb5a00855",
    "name": "Green Bird Cellars and Organic Farms",
    "brewery_type": "micro",
    "address_1": "9825 E Engles Rd",
    "address_2": null,
    "address_3": null,
    "city": "Northport",
    "state_province": "Michigan",
    "postal_code": "49670-9408",
    "country": "United States",
    "longitude": null,
    "latitude": null,
    "phone": "2313865636",
    "website_url": "http://www.greenbirdcellars.com",
    "state": "Michigan",
    "street": "9825 E Engles Rd"
  },
  {
    "id": "fad0bdb4-e128-4ff5-bd61-d32139d55f7b",
    "name": "Green Bus Brewing",
    "brewery_type": "brewpub",
    "address_1": "206 Eustis Ave SE",
    "address_2": null,
    "address_3": null,
    "city": "Huntsville",
    "state_province": "Alabama",
    "postal_code": "35801-4233",
    "country": "United States",
    "longitude": -86.58405136,
    "latitude": 34.73010503,
    "phone": "2569902477",
    "website_url": "http://www.greenbusbrewing.com",
    "state": "Alabama",
    "street": "206 Eustis Ave SE"
  },
  {
    "id": "c9cccb9d-9cba-4a52-a082-b44a4db1551a",
    "name": "Green Cheek Beer Company",
    "brewery_type": "micro",
    "address_1": "2957 Randolph Av unit B",
    "address_2": null,
    "address_3": null,
    "city": "Costa Mesa",
    "state_province": "California",
    "postal_code": "92626",
    "country": "United States",
    "longitude": -117.8882255,
    "latitude": 33.67893714,
    "phone": "7147604995",
    "website_url": null,
    "state": "California",
    "street": "2957 Randolph Av unit B"
  },
  {
    "id": "cb8cc1f7-2ec1-47a8-af72-66f44320b4ed",
    "name": "Green Cheek Beer Company",
    "brewery_type": "micro",
    "address_1": "2294 N Batavia St Ste C",
    "address_2": null,
    "address_3": null,
    "city": "Orange",
    "state_province": "California",
    "postal_code": "92865-3108",
    "country": "United States",
    "longitude": -117.8639647,
    "latitude": 33.82585285,
    "phone": "7149988172",
    "website_url": null,
    "state": "California",
    "street": "2294 N Batavia St Ste C"
  },
  {
    "id": "0bafd51b-5a8c-4aaf-999c-13065b7014ce",
    "name": "Green Earth Brewing Company",
    "brewery_type": "micro",
    "address_1": "725 10th St Unit A",
    "address_2": null,
    "address_3": null,
    "city": "Greeley",
    "state_province": "Colorado",
    "postal_code": "80631-1139",
    "country": "United States",
    "longitude": null,
    "latitude": null,
    "phone": "9707022332",
    "website_url": "http://www.greenearthbrewingco.com",
    "state": "Colorado",
    "street": "725 10th St Unit A"
  },
  {
    "id": "3fece130-900d-4f23-99cc-5b35402a403c",
    "name": "Green Feet Brewing",
    "brewery_type": "micro",
    "address_1": "3669 E 44th St",
    "address_2": null,
    "address_3": null,
    "city": "Tucson",
    "state_province": "Arizona",
    "postal_code": "85713-6814",
    "country": "United States",
    "longitude": -110.9232648,
    "latitude": 32.1843632,
    "phone": "5209771691",
    "website_url": "http://www.greenfeetbrewing.com",
    "state": "Arizona",
    "street": "3669 E 44th St"
  }
]