[
  {
    "id": "1b47f02a-b009-4856-8a94-1048e59ecc1e",
    "name": "Pismo Brewing Co",
    "brewery_type": "micro",
    "address_1": "500 Cypress St",
    "address_2": null,
    "address_3": null,
    "city": "Pismo Beach",
    "state_province": "California",
    "postal_code": "93449-2624",
    "country": "United States",
    "longitude": -120.6409192,
    "latitude": 35.13908295,
    "phone": "8052956200",
    "website_url": "http://www.pismobrew.com",
    "state": "California",
    "street": "500 Cypress St"
  },
  {
    "id": "1d26e5a5-2e88-45d7-94ef-0e10c85cecde",
    "name": "Pitchers Sports Restaurant and Brewery",
    "brewery_type": "brewpub",
    "address_1": "1100 W Drake Rd",
    "address_2": null,
    "address_3": null,
    "city": "Fort Collins",
    "state_province": "Colorado",
    "postal_code": "80526-6008",
    "country": "United States",
    "longitude": -105.0973959,
    "latitude": 40.55306785,
    "phone": "9704935374",
    "website_url": "http://www.pitchersbrewery.com",
    "state": "Colorado",
    "street": "1100 W Drake Rd"
  },
  {
    "id": "0c0c9b38-f4da-4862-8f13-838adfe16c7f",
    "name": "Pitchfork Brewing",
    "brewery_type": "micro",
    "address_1": "709 Rodeo Dr Ste 104",
    "address_2": null,
    "address_3": null,
    "city": "Hudson",
    "state_province": "Wisconsin",
    "postal_code": "54016-4700",
    "country": "United States",
    "longitude": -92.68354304,
    "latitude": 44.9654252,
    "phone": "7152453675",
    "website_url": "http://www.pitchforkbrewing.com",
    "state": "Wisconsin",
    "street": "709 Rodeo Dr Ste 104"
  },
  {
    "id": "5c29c1ec-f2dd-4b73-b9be-b89a91c94dae",
    "name": "Pitt Street Brewing Company",
    "brewery_type": "micro",
    "address_1": "630 S Pitt St",
    "address_2": null,
    "address_3": null,
    "city": "Greenville",
    "state_province": "North Carolina",
    "postal_code": "27834-3159",
    "country": "United States",
    "longitude": -77.37694822,
    "latitude": 35.6095883,
    "phone": "2522274151",
    "website_url": "http://www.pittstreetbrewing.com",
    "state": "North Carolina",
    "street": "630 S Pitt St"
  },
  {
    "id": "14e42687-7706-4eda-aec6-739577141d69",
    "name": "Pittsburgh Brewing Co",
    "brewery_type": "contract",
    "address_1": "3340 Liberty Ave",
    "address_2": null,
    "address_3": null,
    "city": "Pittsburgh",
    "state_province": "Pennsylvania",
    "postal_code": "15201-1394",
    "country": "United States",
    "longitude": -79.96570261,
    "latitude": 40.46161288,
    "phone": "4126827400",
    "website_url": "http://www.pittsburghbrewing.com",
    "state": "Pennsylvania",
    "street": "3340 Liberty Ave"
  },
  {
    "id": "f7860ee9-ed57-4b51-b919-5dd6a1e83b39",
    "name": "PIVO Brewery",
    "brewery_type": "micro",
    "address_1": "101 Huber Dr",
    "address_2": null,
    "address_3": null,
    "city": "Calmar",
    "state_province": "Iowa",
    "postal_code": "52132",
    "country": "United States",
    "longitude": -91.871483,
    "latitude": 43.190941,
    "phone": "5635621053",
    "website_url": "http://www.pivoblepta.com",
    "state": "Iowa",
    "street": "101 Huber Dr"
  },
  {
    "id": "cbc413e8-2e23-4d6e-8a3b-2540e40222e8",
    "name": "Pivot Brewing Company",
    "brewery_type": "micro",
    "address_1": "1400 Delaware Ave",
    "address_2": null,
    "address_3": null,
    "city": "Lexington",
    "state_province": "Kentucky",
    "postal_code": "40505",
    "country": "United States",
    "longitude": -84.470627,
    "latitude": 38.038574,
    "phone": "8592856778",
    "website_url": "http://www.pivotbrewingcompany.com",
    "state": "Kentucky",
    "street": "1400 Delaware Ave"
  },
  {
    "id": "190d46ba-0081-44f8-b7be-b08f374d44ff",
    "name": "Piwnica \u015awidnicka",
    "brewery_type": "brewpub",
    "address_1": "Rynek 50",
    "address_2": null,
    "address_3": null,
    "city": "Wroc\u0142aw",
    "state_province": "dolno\u015bl\u0105skie",
    "postal_code": "50-996",
    "country": "Poland",
    "longitude": 17.0320275,
    "latitude": 51.1095636,
    "phone": null,
    "website_url": null,
    "state": "dolno\u015bl\u0105skie",
    "street": "Rynek 50"
  },
  {
    "id": "cf7d04c2-de19-4843-8e23-d58fe9a99720",
    "name": "Pixeled Brewing Company",
    "brewery_type": "micro",
    "address_1": "1100 NP Ave #101",
    "address_2": null,
    "address_3": null,
    "city": "Fargo",
    "state_province": "North Dakota",
    "postal_code": "58102-4794",
    "country": "United States",
    "longitude": -96.79606487,
    "latitude": 46.87589876,
    "phone": "7015320915",
    "website_url": "http://pixeled.beer",
    "state": "North Dakota",
    "street": "1100 NP Ave #101"
  },
  {
    "id": "7293e7d3-7f88-4641-aec9-a23ba475a31d",
    "name": "Pizza Beer Company",
    "brewery_type": "contract",
    "address_1": "5N404 Harvest Ln",
    "address_2": null,
    "address_3": null,
    "city": "Saint Charles",
    "state_province": "Illinois",
    "postal_code": "60175-8242",
    "country": "United States",
    "longitude": null,
    "latitude": null,
    "phone": "6303776888",
    "website_url": "http://www.pizzabeer.net",
    "state": "Illinois",
    "street": "5N404 Harvest Ln"
  },
  {
    "id": "3b7c7089-8a91-4178-8e66-4438ff0d3e71",
    "name": "Pizza Boy Brewing Co",
    "brewery_type": "micro",
    "address_1": "2240 Millennium Way",
    "address_2": null,
    "address_3": null,
    "city": "Enola",
    "state_province": "Pennsylvania",
    "postal_code": "17025-1484",
    "country": "United States",
    "longitude": null,
    "latitude": null,
    "phone": "7177283840",
    "website_url": "http://www.pizzaboybrewing.com",
    "state": "Pennsylvania",
    "street": "2240 Millennium Way"
  },
  {
    "id": "40ce948c-ae39-44d4-b738-340a336484a5",
    "name": "Pizza By Elizabeths",
    "brewery_type": "brewpub",
    "address_1": "3801 Kennett Pike",
    "address_2": null,
    "address_3": null,
    "city": "Greenville",
    "state_province": "Delaware",
    "postal_code": "19807-2321",
    "country": "United States",
    "longitude": -75.59566848,
    "latitude": 39.77560249,
    "phone": "3026544478",
    "website_url": "http://www.pizzabyelizabeths.com",
    "state": "Delaware",
    "street": "3801 Kennett Pike"
  },
  {
    "id": "ad83acf3-671c-404e-8b55-785f230286d7",
    "name": "Pizza Port - Bressi Ranch",
    "brewery_type": "regional",
    "address_1": "2730 Gateway Rd",
    "address_2": null,
    "address_3": null,
    "city": "Carlsbad",
    "state_province": "California",
    "postal_code": "92009-1730",
    "country": "United States",
    "longitude": -117.2510773,
    "latitude": 33.12807761,
    "phone": "7607071655",
    "website_url": "http://www.pizzaport.com",
    "state": "California",
    "street": "2730 Gateway Rd"
  },
  {
    "id": "7de092fc-38a2-438d-8f0e-8bd0101bfad1",
    "name": "Pizza Port Carlsbad",
    "brewery_type": "regional",
    "address_1": "571 Carlsbad Village Dr",
    "address_2": null,
    "address_3": null,
    "city": "Carlsbad",
    "state_province": "California",
    "postal_code": "92008-2304",
    "country": "United States",
    "longitude": -117.3477152,
    "latitude": 33.1598703,
    "phone": "7607207007",
    "website_url": "http://www.pizzaport.com",
    "state": "California",
    "street": "571 Carlsbad Village Dr"
  },
  {
    "id": "0f0b7b5b-b5ae-48f1-9339-5b363249da79",
    "name": "Pizza Port Ocean Beach",
    "brewery_type": "brewpub",
    "address_1": "1956 Bacon St",
    "address_2": null,
    "address_3": null,
    "city": "San Diego",
    "state_province": "California",
    "postal_code": "92107-2844",
    "country": "United States",
    "longitude": -117.2503592,
    "latitude": 32.74799385,
    "phone": "6192244700",
    "website_url": "http://www.pizzaport.com",
    "state": "California",
    "street": "1956 Bacon St"
  },
  {
    "id": "f80ad04c-4af6-4773-8a2b-499f1c57d4b5",
    "name": "Pizza Port San Clemente",
    "brewery_type": "brewpub",
    "address_1": "301 N El Camino Real",
    "address_2": null,
    "address_3": null,
    "city": "San Clemente",
    "state_province": "California",
    "postal_code": "92672-4716",
    "country": "United States",
    "longitude": -117.613484,
    "latitude": 33.4288345,
    "phone": "9499400005",
    "website_url": "http://www.pizzaport.com",
    "state": "California",
    "street": "301 N El Camino Real"
  },
  {
    "id": "d2da8c9e-ad96-42c6-9876-88a10677a8c9",
    "name": "Pizza Port Solana Beach",
    "brewery_type": "brewpub",
    "address_1": "135 N Highway 101",
    "address_2": null,
    "address_3": null,
    "city": "Solana Beach",
    "state_province": "California",
    "postal_code": "92075-1128",
    "country": "United States",
    "longitude": -117.2737068,
    "latitude": 32.9977749,
    "phone": "8584817332",
    "website_url": "http://www.pizzaport.com",
    "state": "California",
    "street": "135 N Highway 101"
  },
  {
    "id": "72641386-78bd-4ab2-b961-ce314019f2b7",
    "name": "Placerville Brewing Co",
    "brewery_type": "brewpub",
    "address_1": "155 Placerville Dr",
    "address_2": null,
    "address_3": null,
    "city": "Placerville",
    "state_province": "California",
    "postal_code": "95667-3909",
    "country": "United States",
    "longitude": -120.8370686,
    "latitude": 38.7276787,
    "phone": "5302959166",
    "website_url": "http://www.placervillebrewing.com",
    "state": "California",
    "street": "155 Placerville Dr"
  },
  {
    "id": "1ab227f5-0399-4f11-9af9-e5d90794a752",
    "name": "Plan 9 Alehouse",
    "brewery_type": "brewpub",
    "address_1": "155 E Grand Ave",
    "address_2": null,
    "address_3": null,
    "city": "Escondido",
    "state_province": "California",
    "postal_code": "92025-2701",
    "country": "United States",
    "longitude": -117.0821707,
    "latitude": 33.12121471,
    "phone": "7604898817",
    "website_url": "http://www.plan9alehouse.com",
    "state": "California",
    "street": "155 E Grand Ave"
  },
  {
    "id": "1be396ef-bd51-4cbd-985c-4618decd6732",
    "name": "Plan Bee Farm Brewery",
    "brewery_type": "micro",
    "address_1": "115 Underhill Rd",
    "address_2": null,
    "address_3": null,
    "city": "Poughkeepsie",
    "state_province": "New York",
    "postal_code": "12603-1045",
    "country": "United States",
    "longitude": -73.88591274,
    "latitude": 41.71721405,
    "phone": "7653078589",
    "website_url": "http://www.planbeefarmbrewery.com",
    "state": "New York",
    "street": "115 Underhill Rd"
  },
  {
    "id": "2eb9c869-f6e1-4e5b-9876-86c96f2c49ef",
    "name": "Planetary Brewing Company",
    "brewery_type": "micro",
    "address_1": "500 Polk St Ste 22",
    "address_2": null,
    "address_3": null,
    "city": "Greenwood",
    "state_province": "Indiana",
    "postal_code": "46143-1638",
    "country": "United States",
    "longitude": null,
    "latitude": null,
    "phone": "3172154941",
    "website_url": "http://www.planetarybrewing.com",
    "state": "Indiana",
    "street": "500 Polk St Ste 22"
  },
  {
    "id": "0b10c02c-d787-402e-80b9-18c53977f62b",
    "name": "Plank Town Brewing",
    "brewery_type": "micro",
    "address_1": "346 Main St",
    "address_2": null,
    "address_3": null,
    "city": "Springfield",
    "state_province": "Oregon",
    "postal_code": "97477-5362",
    "country": "United States",
    "longitude": -123.0214468,
    "latitude": 44.04627308,
    "phone": "4582017039",
    "website_url": "http://planktownbrewing.com",
    "state": "Oregon",
    "street": "346 Main St"
  },
  {
    "id": "2cbfe2ea-677a-4c4d-95b1-349556953fa2",
    "name": "Platform Beer Co",
    "brewery_type": "regional",
    "address_1": "4125 Lorain Ave",
    "address_2": null,
    "address_3": null,
    "city": "Cleveland",
    "state_province": "Ohio",
    "postal_code": "44113-3718",
    "country": "United States",
    "longitude": -81.7140045,
    "latitude": 41.4799605,
    "phone": "2162021386",
    "website_url": "http://platformbeer.co",
    "state": "Ohio",
    "street": "4125 Lorain Ave"
  },
  {
    "id": "309b3fd3-b726-48a2-a141-5d1f3a71f493",
    "name": "Platform Beer Co - Production Facility",
    "brewery_type": "micro",
    "address_1": "3506 Vega Ave",
    "address_2": null,
    "address_3": null,
    "city": "Cleveland",
    "state_province": "Ohio",
    "postal_code": "44113-4900",
    "country": "United States",
    "longitude": -81.70785488,
    "latitude": 41.47449194,
    "phone": null,
    "website_url": "http://www.platformbeer.co",
    "state": "Ohio",
    "street": "3506 Vega Ave"
  },
  {
    "id": "442750a7-de36-4035-969e-e73915939443",
    "name": "Platform Beer Co Taproom",
    "brewery_type": "micro",
    "address_1": "408 N 6th St",
    "address_2": null,
    "address_3": null,
    "city": "Columbus",
    "state_province": "Ohio",
    "postal_code": "43215-2137",
    "country": "United States",
    "longitude": -82.9949497,
    "latitude": 39.97173,
    "phone": "6148262285",
    "website_url": "http://www.platformbeer.co",
    "state": "Ohio",
    "street": "408 N 6th St"
  },
  {
    "id": "3230d289-2e6c-456c-b9c4-256dc17f44f1",
    "name": "Platform Cincinnati",
    "brewery_type": "micro",
    "address_1": "916 Dalton Ave",
    "address_2": null,
    "address_3": null,
    "city": "Cincinnati",
    "state_province": "Ohio",
    "postal_code": "45203",
    "country": "United States",
    "longitude": -84.5362431,
    "latitude": 39.10592991,
    "phone": "2162021386",
    "website_url": null,
    "state": "Ohio",
    "street": "916 Dalton Ave"
  },
  {
    "id": "6225d756-4684-46ba-8ef4-de19e6fb0d8c",
    "name": "Platt Park Brewing Co.",
    "brewery_type": "micro",
    "address_1": "1875 S Pearl St",
    "address_2": null,
    "address_3": null,
    "city": "Denver",
    "state_province": "Colorado",
    "postal_code": "80210-3136",
    "country": "United States",
    "longitude": -104.9805967,
    "latitude": 39.68267416,
    "phone": "3039686674",
    "website_url": "http://www.plattparkbrewing.com",
    "state": "Colorado",
    "street": "1875 S Pearl St"
  },
  {
    "id": "9248a7e6-08a5-41c0-bdba-e1bc9066a2e6",
    "name": "Platte Creek Brewing Company",
    "brewery_type": "micro",
    "address_1": "311 Main St",
    "address_2": null,
    "address_3": null,
    "city": "Geddes",
    "state_province": "South Dakota",
    "postal_code": "57342-7706",
    "country": "United States",
    "longitude": -98.68955885,
    "latitude": 43.26576978,
    "phone": "6053372994",
    "website_url": "http://www.plattecreekbrewingcompany.com",
    "state": "South Dakota",
    "street": "311 Main St"
  },
  {
    "id": "bd03f69a-609b-4909-b616-2d1c4e3253ca",
    "name": "Plattsburgh Brewing Co",
    "brewery_type": "brewpub",
    "address_1": "411 Route 3",
    "address_2": null,
    "address_3": null,
    "city": "Plattsburgh",
    "state_province": "New York",
    "postal_code": "12901-6520",
    "country": "United States",
    "longitude": null,
    "latitude": null,
    "phone": "5183246680",
    "website_url": "http://www.plattsburghbrewingco.com",
    "state": "New York",
    "street": "411 Route 3"
  },
  {
    "id": "4d2fe5ef-0674-47fc-9c31-f88b75f2056a",
    "name": "Platypus",
    "brewery_type": "bar",
    "address_1": "1 Raffles Link",
    "address_2": "Citylink Mall",
    "address_3": "#B1-23",
    "city": "Singapore",
    "state_province": "Singapore",
    "postal_code": "039393",
    "country": "Singapore",
    "longitude": 1.2930832027367,
    "latitude": 103.85587808466,
    "phone": "+65 6908 1773",
    "website_url": "https://platypuscantina.net/",
    "state": "Singapore",
    "street": "1 Raffles Link"
  },
  {
    "id": "5b10f972-8107-42f7-8023-85845934982d",
    "name": "Platypus",
    "brewery_type": "bar",
    "address_1": "693 East Coast Road",
    "address_2": null,
    "address_3": null,
    "city": "Singapore",
    "state_province": "Singapore",
    "postal_code": "459058",
    "country": "Singapore",
    "longitude": 1.3119000040122,
    "latitude": 103.921908,
    "phone": "+65 6320 3601",
    "website_url": "https://platypuscantina.net/",
    "state": "Singapore",
    "street": "693 East Coast Road"
  },
  {
    "id": "e4d21ea4-1561-47b0-bb15-876ab5defcfd",
    "name": "Platypus Brewing",
    "brewery_type": "brewpub",
    "address_1": "1902 Washington Ave Ste E",
    "address_2": null,
    "address_3": null,
    "city": "Houston",
    "state_province": "Texas",
    "postal_code": "77007-6414",
    "country": "United States",
    "longitude": null,
    "latitude": null,
    "phone": "8329858007",
    "website_url": "http://www.platypusbrewing.com",
    "state": "Texas",
    "street": "1902 Washington Ave Ste E"
  },
  {
    "id": "73d3ba34-6019-4f55-ac56-068d10796b70",
    "name": "Playalinda Brewing Company",
    "brewery_type": "micro",
    "address_1": "305 S Washington Ave",
    "address_2": null,
    "address_3": null,
    "city": "Titusville",
    "state_province": "Florida",
    "postal_code": "32796-3539",
    "country": "United States",
    "longitude": null,
    "latitude": null,
    "phone": "3212258978",
    "website_url": "http://www.playalindabrewingcompany.com",
    "state": "Florida",
    "street": "305 S Washington Ave"
  },
  {
    "id": "c66dae41-8336-4879-af3a-190e804e6268",
    "name": "Playalinda Brewing Company -  Brix Project",
    "brewery_type": "brewpub",
    "address_1": "5220 S Washington Ave",
    "address_2": null,
    "address_3": null,
    "city": "Titusville",
    "state_province": "Florida",
    "postal_code": "32780-7316",
    "country": "United States",
    "longitude": null,
    "latitude": null,
    "phone": null,
    "website_url": "http://www.playalindabrewingcompany.com",
    "state": "Florida",
    "street": "5220 S Washington Ave"
  },
  {
    "id": "1adb74d8-a66e-48f7-9bfa-7fdd76d4dcaa",
    "name": "Pleasure House Brewing",
    "brewery_type": "micro",
    "address_1": "3025 Shore Dr",
    "address_2": null,
    "address_3": null,
    "city": "Virginia Beach",
    "state_province": "Virginia",
    "postal_code": "23451-1247",
    "country": "United States",
    "longitude": -76.079164,
    "latitude": 36.909938,
    "phone": "7574960916",
    "website_url": "http://www.pleasurehousebrewing.com",
    "state": "Virginia",
    "street": "3025 Shore Dr"
  },
  {
    "id": "13a3a187-393c-4c75-b0ad-2d112106e627",
    "name": "Plow Brewing Company",
    "brewery_type": "micro",
    "address_1": "3334 Industrial Dr",
    "address_2": null,
    "address_3": null,
    "city": "Santa Rosa",
    "state_province": "California",
    "postal_code": "95403-2011",
    "country": "United States",
    "longitude": -122.740072,
    "latitude": 38.47455222,
    "phone": "7078434583",
    "website_url": "http://www.sonomacounty.com/brewery/plow-brewing-company",
    "state": "California",
    "street": "3334 Industrial Dr"
  },
  {
    "id": "0d206bbe-547d-4180-b0d4-2cdf05676971",
    "name": "Plymouth Beer Company / Dirty Water Distillery",
    "brewery_type": "micro",
    "address_1": "10 Water St",
    "address_2": null,
    "address_3": null,
    "city": "Plymouth",
    "state_province": "Massachusetts",
    "postal_code": "02360-3349",
    "country": "United States",
    "longitude": -70.6620267,
    "latitude": 41.9549491,
    "phone": "5085910589",
    "website_url": "http://www.plymouthbeer.rocks",
    "state": "Massachusetts",
    "street": "10 Water St"
  },
  {
    "id": "67291cf6-893e-4bcd-bb05-3900373b6aea",
    "name": "Plymouth Brewing Co",
    "brewery_type": "micro",
    "address_1": "222 E Mill St",
    "address_2": null,
    "address_3": null,
    "city": "Plymouth",
    "state_province": "Wisconsin",
    "postal_code": "53073-1706",
    "country": "United States",
    "longitude": -87.9776737,
    "latitude": 43.7477014,
    "phone": "9208576083",
    "website_url": "http://www.plymouthbrewingcompany.com",
    "state": "Wisconsin",
    "street": "222 E Mill St"
  },
  {
    "id": "ed20ba54-aead-449e-8a1f-1f3dc9a6a787",
    "name": "Po'Boy Brewing",
    "brewery_type": "micro",
    "address_1": "200 Wilson St Unit E3",
    "address_2": null,
    "address_3": null,
    "city": "Port Jefferson Station",
    "state_province": "New York",
    "postal_code": "11776-1145",
    "country": "United States",
    "longitude": null,
    "latitude": null,
    "phone": "6318281131",
    "website_url": "http://www.poboybrewery.com",
    "state": "New York",
    "street": "200 Wilson St Unit E3"
  },
  {
    "id": "10803076-d2d0-45c1-8fbf-2b4158a08a7c",
    "name": "Pocock Brewing Company",
    "brewery_type": "micro",
    "address_1": "24907 Avenue Tibbitts Ste B",
    "address_2": null,
    "address_3": null,
    "city": "Santa Clarita",
    "state_province": "California",
    "postal_code": "91355-3487",
    "country": "United States",
    "longitude": -118.571182,
    "latitude": 34.43079435,
    "phone": "6617754899",
    "website_url": "http://www.pocockbrewing.com",
    "state": "California",
    "street": "24907 Avenue Tibbitts Ste B"
  },
  {
    "id": "1910b8fc-28c0-491b-a7fa-abf2973d9ce5",
    "name": "Pocono Brewery Company",
    "brewery_type": "brewpub",
    "address_1": "2092 Route 611",
    "address_2": null,
    "address_3": null,
    "city": "Swiftwater",
    "state_province": "Pennsylvania",
    "postal_code": "18370-7773",
    "country": "United States",
    "longitude": null,
    "latitude": null,
    "phone": "5708391500",
    "website_url": null,
    "state": "Pennsylvania",
    "street": "2092 Route 611"
  },
  {
    "id": "8b639b0e-6598-469e-871f-940b1143a3ba",
    "name": "POG Brewing Company",
    "brewery_type": "brewpub",
    "address_1": "24524 S State State Rte D",
    "address_2": null,
    "address_3": null,
    "city": "Cleveland",
    "state_province": "Missouri",
    "postal_code": "64734",
    "country": "United States",
    "longitude": -94.582691,
    "latitude": 38.701465,
    "phone": "8164064179",
    "website_url": "http://www.pogbrewing.com",
    "state": "Missouri",
    "street": "24524 S State State Rte D"
  },
  {
    "id": "0342dc02-62b5-4f51-8667-46d98847bde8",
    "name": "Point Blank Brewing Company",
    "brewery_type": "brewpub",
    "address_1": "105 E Beaver St",
    "address_2": null,
    "address_3": null,
    "city": "Corydon",
    "state_province": "Indiana",
    "postal_code": "47112-1146",
    "country": "United States",
    "longitude": -86.12616408,
    "latitude": 38.21111448,
    "phone": "8122255141",
    "website_url": "http://www.pointblankbrewing.com",
    "state": "Indiana",
    "street": "105 E Beaver St"
  },
  {
    "id": "cdf91a93-80df-4940-af33-6a5562b7eef8",
    "name": "Point Breeze Brewing",
    "brewery_type": "micro",
    "address_1": "1225 S 28th St",
    "address_2": null,
    "address_3": null,
    "city": "Philadelphia",
    "state_province": "Pennsylvania",
    "postal_code": "19146-",
    "country": "United States",
    "longitude": -75.1900898,
    "latitude": 39.9382866,
    "phone": null,
    "website_url": "http://www.pointbreezebrewing.com",
    "state": "Pennsylvania",
    "street": "1225 S 28th St"
  },
  {
    "id": "d454edbb-ddb4-4aaa-a922-e6c7ad84c73b",
    "name": "Point Labaddie Brewery",
    "brewery_type": "micro",
    "address_1": "1029 Thiebes Rd",
    "address_2": null,
    "address_3": null,
    "city": "Labadie",
    "state_province": "Missouri",
    "postal_code": "63055-1712",
    "country": "United States",
    "longitude": -90.80569,
    "latitude": 38.500563,
    "phone": "6367422861",
    "website_url": "http://www.pointlabaddiebrewery.com",
    "state": "Missouri",
    "street": "1029 Thiebes Rd"
  },
  {
    "id": "db32cfd6-bffb-4f0e-9ed3-f71ab574c505",
    "name": "Point Ybel Brewing Company",
    "brewery_type": "micro",
    "address_1": "16120 San Carlos Blvd Ste 4",
    "address_2": null,
    "address_3": null,
    "city": "Fort Myers",
    "state_province": "Florida",
    "postal_code": "33908-3294",
    "country": "United States",
    "longitude": null,
    "latitude": null,
    "phone": "2396036535",
    "website_url": "http://www.pointybelbrew.com",
    "state": "Florida",
    "street": "16120 San Carlos Blvd Ste 4"
  },
  {
    "id": "e0a4a050-03c1-422b-91e1-d0bb315d9752",
    "name": "Pointless Brewery",
    "brewery_type": "micro",
    "address_1": "3014 Packard St",
    "address_2": null,
    "address_3": null,
    "city": "Ann Arbor",
    "state_province": "Michigan",
    "postal_code": "48108-1935",
    "country": "United States",
    "longitude": -83.7297662,
    "latitude": 42.260633,
    "phone": "9894554484",
    "website_url": "http://www.pointlessbrew.com",
    "state": "Michigan",
    "street": "3014 Packard St"
  },
  {
    "id": "c6447b87-5325-42ff-9406-46484ce38d67",
    "name": "Poison Frog Brewing Company",
    "brewery_type": "brewpub",
    "address_1": "1908 Horton Rd",
    "address_2": null,
    "address_3": null,
    "city": "Jackson",
    "state_province": "Michigan",
    "postal_code": "49203-5520",
    "country": "United States",
    "longitude": -84.4374522,
    "latitude": 42.20141178,
    "phone": "5177485997",
    "website_url": null,
    "state": "Michigan",
    "street": "1908 Horton Rd"
  },
  {
    "id": "71adfacc-e332-40de-8fde-3a36caabd5ff",
    "name": "Pokro Brewing Company, The",
    "brewery_type": "micro",
    "address_1": "311 N Broad St",
    "address_2": null,
    "address_3": null,
    "city": "Griffith",
    "state_province": "Indiana",
    "postal_code": "46319-2222",
    "country": "United States",
    "longitude": -87.42755733,
    "latitude": 41.5266943,
    "phone": "2199247950",
    "website_url": "http://www.pokrobrewing.com",
    "state": "Indiana",
    "street": "311 N Broad St"
  },
  {
    "id": "f84fe98f-6767-4f6a-94cf-315a70d35dbf",
    "name": "Polarity Brewing Ltd",
    "brewery_type": "micro",
    "address_1": "Abbotts Close",
    "address_2": null,
    "address_3": null,
    "city": "Worthing",
    "state_province": "West Sussex",
    "postal_code": "BN11 1JB",
    "country": "England",
    "longitude": -0.375446,
    "latitude": 50.814845,
    "phone": "7872105300",
    "website_url": "http://www.polaritybrewing.co.uk/",
    "state": "West Sussex",
    "street": "Abbotts Close"
  }
]