[
  {
    "id": "e92070f8-b06f-42c0-9d6f-d20870fdfe3a",
    "name": "Krauski's Brewskis / The Hoppy Brewer",
    "brewery_type": "micro",
    "address_1": "328 N Main Ave",
    "address_2": null,
    "address_3": null,
    "city": "Gresham",
    "state_province": "Oregon",
    "postal_code": "97030-7210",
    "country": "United States",
    "longitude": -122.430839,
    "latitude": 45.49992243,
    "phone": "5033288474",
    "website_url": "http://www.oregonshoppyplace.com",
    "state": "Oregon",
    "street": "328 N Main Ave"
  },
  {
    "id": "703642bf-e271-404d-9da3-7f753a0e7fb4",
    "name": "Kretschmann Brewing Company",
    "brewery_type": "micro",
    "address_1": "9 Frederick St",
    "address_2": null,
    "address_3": null,
    "city": "Webster",
    "state_province": "Massachusetts",
    "postal_code": "01570-2286",
    "country": "United States",
    "longitude": -71.8807961,
    "latitude": 42.05004191,
    "phone": "5086717711",
    "website_url": "http://kbcbrewery.com",
    "state": "Massachusetts",
    "street": "9 Frederick St"
  },
  {
    "id": "b02f6b59-3f96-4f2b-a415-78047088d7f1",
    "name": "Krikelkay Brewing Company",
    "brewery_type": "planning",
    "address_1": null,
    "address_2": null,
    "address_3": null,
    "city": "Appomattox",
    "state_province": "Virginia",
    "postal_code": "24522-4034",
    "country": "United States",
    "longitude": null,
    "latitude": null,
    "phone": "4344263419",
    "website_url": "http://www.krikelkaybrewing.com",
    "state": "Virginia",
    "street": null
  },
  {
    "id": "f5d6d218-1a4e-4c29-a0d9-76f79cbbf5a7",
    "name": "Krogh's Brewing, LLC",
    "brewery_type": "planning",
    "address_1": null,
    "address_2": null,
    "address_3": null,
    "city": "Newton",
    "state_province": "New Jersey",
    "postal_code": "07860-2349",
    "country": "United States",
    "longitude": null,
    "latitude": null,
    "phone": "9732415391",
    "website_url": "http://www.kroghs.com",
    "state": "New Jersey",
    "street": null
  },
  {
    "id": "f64ab9e1-5d96-4c97-9e58-c176108d5d1c",
    "name": "Krogh's Restaurant and Brewpub",
    "brewery_type": "brewpub",
    "address_1": "23 White Deer Plz",
    "address_2": null,
    "address_3": null,
    "city": "Sparta",
    "state_province": "New Jersey",
    "postal_code": "07871-1823",
    "country": "United States",
    "longitude": -74.6395694,
    "latitude": 41.03263072,
    "phone": "9737298428",
    "website_url": "http://www.kroghs.com",
    "state": "New Jersey",
    "street": "23 White Deer Plz"
  },
  {
    "id": "950ef73e-0766-4f4b-81f6-a5acc694d1f6",
    "name": "Kros Strain Brewing Company",
    "brewery_type": "micro",
    "address_1": "10411 Portal Rd",
    "address_2": null,
    "address_3": null,
    "city": "LaVista",
    "state_province": "Nebraska",
    "postal_code": "68128-5527",
    "country": "United States",
    "longitude": -96.075783,
    "latitude": 41.171749,
    "phone": "4027797990",
    "website_url": "http://www.krosstrainbrewing.com",
    "state": "Nebraska",
    "street": "10411 Portal Rd"
  },
  {
    "id": "7266a350-71d2-4127-b1a4-9ab430d2bc16",
    "name": "Kuhnhenn Brewing Co",
    "brewery_type": "micro",
    "address_1": "5919 Chicago Rd",
    "address_2": null,
    "address_3": null,
    "city": "Warren",
    "state_province": "Michigan",
    "postal_code": "48092-1606",
    "country": "United States",
    "longitude": -83.023691,
    "latitude": 42.523306,
    "phone": "5869798361",
    "website_url": "http://www.kuhnhenn.beer",
    "state": "Michigan",
    "street": "5919 Chicago Rd"
  },
  {
    "id": "1f1ed563-c408-4140-a284-fb41c5fbbe1a",
    "name": "Kuhnhenn Clinton Township",
    "brewery_type": "micro",
    "address_1": "36000 Groesbeck Hwy",
    "address_2": null,
    "address_3": null,
    "city": "Clinton Township",
    "state_province": "Michigan",
    "postal_code": "48035-1541",
    "country": "United States",
    "longitude": -82.91782739,
    "latitude": 42.56179646,
    "phone": "5862310249",
    "website_url": null,
    "state": "Michigan",
    "street": "36000 Groesbeck Hwy"
  },
  {
    "id": "b0739f36-9c8a-47d3-b9cf-04873f11ea1d",
    "name": "Kul Brewing",
    "brewery_type": "contract",
    "address_1": "1106 3rd St S",
    "address_2": null,
    "address_3": null,
    "city": "La Crosse",
    "state_province": "Wisconsin",
    "postal_code": "54601",
    "country": "United States",
    "longitude": -91.25359353,
    "latitude": 43.80249029,
    "phone": null,
    "website_url": "http://www.kulbrewing.com",
    "state": "Wisconsin",
    "street": "1106 3rd St S"
  },
  {
    "id": "72ceee38-898f-40c2-a1ae-a7cbc3b53aea",
    "name": "Kulshan Brewing Co - K2",
    "brewery_type": "micro",
    "address_1": "1538 Kentucky St",
    "address_2": null,
    "address_3": null,
    "city": "Bellingham",
    "state_province": "Washington",
    "postal_code": "98229-4720",
    "country": "United States",
    "longitude": -122.4539281,
    "latitude": 48.75767348,
    "phone": "3603895348",
    "website_url": "http://www.kulshanbrewing.com",
    "state": "Washington",
    "street": "1538 Kentucky St"
  },
  {
    "id": "e0643011-6445-4f77-bdde-052910e1d1ba",
    "name": "Kulshan Brewing Co - Sunnyland",
    "brewery_type": "micro",
    "address_1": "2238 James St",
    "address_2": null,
    "address_3": null,
    "city": "Bellingham",
    "state_province": "Washington",
    "postal_code": "98225-4142",
    "country": "United States",
    "longitude": -122.4645645,
    "latitude": 48.7601273,
    "phone": "3603895348",
    "website_url": "http://www.kulshanbrewing.com",
    "state": "Washington",
    "street": "2238 James St"
  },
  {
    "id": "b82ee348-f390-4de1-a996-87fcb2b76382",
    "name": "Kulshan Brewing Co - Trackside",
    "brewery_type": "location",
    "address_1": "298 W Laurel St",
    "address_2": null,
    "address_3": null,
    "city": "Bellingham",
    "state_province": "Washington",
    "postal_code": "98225",
    "country": "United States",
    "longitude": -122.485461,
    "latitude": 48.748621,
    "phone": "3603895348",
    "website_url": "https://kulshanbrewing.com/trackside",
    "state": "Washington",
    "street": "298 W Laurel St"
  },
  {
    "id": "0e2acbb1-c2b9-41ae-9fae-fda8487bf92f",
    "name": "Kuracali Inc",
    "brewery_type": "proprietor",
    "address_1": "821 Caminito del Reposo",
    "address_2": null,
    "address_3": null,
    "city": "Carlsbad",
    "state_province": "California",
    "postal_code": "92011-2404",
    "country": "United States",
    "longitude": -117.315852,
    "latitude": 33.11493,
    "phone": "8587756502",
    "website_url": "http://www.kuracali.com",
    "state": "California",
    "street": "821 Caminito del Reposo"
  },
  {
    "id": "a8506d30-21bf-4a06-929e-e12ca46e7a2c",
    "name": "LA Bodega Brewing Co",
    "brewery_type": "planning",
    "address_1": null,
    "address_2": null,
    "address_3": null,
    "city": "Whittier",
    "state_province": "California",
    "postal_code": "90603-1207",
    "country": "United States",
    "longitude": -118.0336975,
    "latitude": 33.9748932,
    "phone": null,
    "website_url": "http://LABODEGABREWINGCO.COM",
    "state": "California",
    "street": null
  },
  {
    "id": "2b1c6d10-8c88-4dbd-ac42-91b79373b6fb",
    "name": "La Cabra Brewing",
    "brewery_type": "brewpub",
    "address_1": "642 Lancaster Ave",
    "address_2": null,
    "address_3": null,
    "city": "Berwyn",
    "state_province": "Pennsylvania",
    "postal_code": "19312-1663",
    "country": "United States",
    "longitude": null,
    "latitude": null,
    "phone": "6102407908",
    "website_url": "http://www.lacabrabrewing.com",
    "state": "Pennsylvania",
    "street": "642 Lancaster Ave"
  },
  {
    "id": "839534f7-965a-4316-a719-3eded9e41b69",
    "name": "La Conner Brewing Co",
    "brewery_type": "brewpub",
    "address_1": "117 S 1st St",
    "address_2": null,
    "address_3": null,
    "city": "La Conner",
    "state_province": "Washington",
    "postal_code": "98257",
    "country": "United States",
    "longitude": -122.495792,
    "latitude": 48.392231,
    "phone": "3604661415",
    "website_url": "https://www.laconnerbrewery.com",
    "state": "Washington",
    "street": "117 S 1st St"
  },
  {
    "id": "e8b5db64-dfbd-41b0-beff-0c4fd4c9be96",
    "name": "La Cumbre Brewing Co",
    "brewery_type": "micro",
    "address_1": "3313 Girard Blvd NE",
    "address_2": null,
    "address_3": null,
    "city": "Albuquerque",
    "state_province": "New Mexico",
    "postal_code": "87107-1930",
    "country": "United States",
    "longitude": -106.6138649,
    "latitude": 35.11789781,
    "phone": "5058720225",
    "website_url": "http://www.lacumbrebrewing.com",
    "state": "New Mexico",
    "street": "3313 Girard Blvd NE"
  },
  {
    "id": "5770e017-bc96-414f-9b13-58f94246266c",
    "name": "La Dona Cerveceria",
    "brewery_type": "planning",
    "address_1": null,
    "address_2": null,
    "address_3": null,
    "city": "Minneapolis",
    "state_province": "Minnesota",
    "postal_code": "55405",
    "country": "United States",
    "longitude": null,
    "latitude": null,
    "phone": null,
    "website_url": "http://www.dameladona.com",
    "state": "Minnesota",
    "street": null
  },
  {
    "id": "9b2e8e78-6823-416c-8c7d-6a4dfd12ac0a",
    "name": "La Funke Brewing",
    "brewery_type": "planning",
    "address_1": null,
    "address_2": null,
    "address_3": null,
    "city": "Bulverde",
    "state_province": "Texas",
    "postal_code": "78163-4156",
    "country": "United States",
    "longitude": null,
    "latitude": null,
    "phone": "2104602083",
    "website_url": "http://www.lafunke.com",
    "state": "Texas",
    "street": null
  },
  {
    "id": "ac41870a-13d1-446c-80e4-6cb4570f5fbb",
    "name": "La Minotte",
    "brewery_type": "micro",
    "address_1": "14 Blvd de l'Europe",
    "address_2": null,
    "address_3": null,
    "city": "Vitrolles",
    "state_province": "Bouche du Rh\u00f4ne",
    "postal_code": "13127",
    "country": "France",
    "longitude": 5.24158474,
    "latitude": 43.43965026,
    "phone": "465948644",
    "website_url": "https://www.minot-brasserie.fr/",
    "state": "Bouche du Rh\u00f4ne",
    "street": "14 Blvd de l'Europe"
  },
  {
    "id": "57d6ec78-32cd-40c4-a480-4b7f987e3e55",
    "name": "La Quinta Brewing Co",
    "brewery_type": "micro",
    "address_1": "74714 Technology Dr",
    "address_2": null,
    "address_3": null,
    "city": "Palm Desert",
    "state_province": "California",
    "postal_code": "92211",
    "country": "United States",
    "longitude": -116.3572573,
    "latitude": 33.78572864,
    "phone": "7602002597",
    "website_url": "http://www.laquintabrewing.com",
    "state": "California",
    "street": "74714 Technology Dr"
  },
  {
    "id": "dbe5aae8-47bc-4f8f-a9f4-8e0f328cb2bf",
    "name": "La Verne Brewing",
    "brewery_type": "micro",
    "address_1": "2125 Wright Ave Ste C15",
    "address_2": null,
    "address_3": null,
    "city": "La Verne",
    "state_province": "California",
    "postal_code": "91750-5816",
    "country": "United States",
    "longitude": -117.7717666,
    "latitude": 34.09572437,
    "phone": "9095965804",
    "website_url": "http://www.lavernebrewingco.com",
    "state": "California",
    "street": "2125 Wright Ave Ste C15"
  },
  {
    "id": "55c1eb54-704c-4d7b-a4d7-7fa9804cc3bc",
    "name": "LAB Brewing Co / Twisted Oak Tavern",
    "brewery_type": "brewpub",
    "address_1": "30105 Agoura Rd",
    "address_2": null,
    "address_3": null,
    "city": "Agoura Hills",
    "state_province": "California",
    "postal_code": "91301-2003",
    "country": "United States",
    "longitude": -118.7799133,
    "latitude": 34.14511931,
    "phone": "8187350091",
    "website_url": "http://www.twistedoaktavern.pub",
    "state": "California",
    "street": "30105 Agoura Rd"
  },
  {
    "id": "c881a3b1-c830-4feb-a50e-77f12da07592",
    "name": "LABrewatory",
    "brewery_type": "micro",
    "address_1": "670 N Russell St",
    "address_2": null,
    "address_3": null,
    "city": "Portland",
    "state_province": "Oregon",
    "postal_code": "97227-1728",
    "country": "United States",
    "longitude": -122.6730826,
    "latitude": 45.54092271,
    "phone": "9712718151",
    "website_url": "http://www.thelabrewatory.com",
    "state": "Oregon",
    "street": "670 N Russell St"
  },
  {
    "id": "1eb023fa-2183-4dbb-84a8-bfbc70a8abf2",
    "name": "Labyrinth Brewing Company",
    "brewery_type": "closed",
    "address_1": null,
    "address_2": null,
    "address_3": null,
    "city": "Manchester",
    "state_province": "Connecticut",
    "postal_code": "06040-5906",
    "country": "United States",
    "longitude": null,
    "latitude": null,
    "phone": null,
    "website_url": "http://www.LBC.Beer",
    "state": "Connecticut",
    "street": null
  },
  {
    "id": "09e6cf26-a3e1-40b1-8af2-72532439fdb2",
    "name": "Ladd & Lass Brewing",
    "brewery_type": "planning",
    "address_1": "722 NE 45th St",
    "address_2": null,
    "address_3": null,
    "city": "Seattle",
    "state_province": "Washington",
    "postal_code": "98105",
    "country": "United States",
    "longitude": -122.3197369,
    "latitude": 47.66164527,
    "phone": null,
    "website_url": "http://www.laddandlassbrewing.com",
    "state": "Washington",
    "street": "722 NE 45th St"
  },
  {
    "id": "2f852b07-f68a-4bef-a0b9-9c5bd05d5413",
    "name": "Lady Justice Brewing Company",
    "brewery_type": "micro",
    "address_1": "4375 Eaton St",
    "address_2": null,
    "address_3": null,
    "city": "Denver",
    "state_province": "Colorado",
    "postal_code": "80212-7308",
    "country": "United States",
    "longitude": -105.0593393,
    "latitude": 39.7909855,
    "phone": null,
    "website_url": "http://www.ladyjusticebrewing.com",
    "state": "Colorado",
    "street": "4375 Eaton St"
  },
  {
    "id": "e9f9632d-21de-4422-b8c0-29be7dee33a6",
    "name": "Ladyface Ale Companie",
    "brewery_type": "brewpub",
    "address_1": "29281 Agoura Rd",
    "address_2": null,
    "address_3": null,
    "city": "Agoura Hills",
    "state_province": "California",
    "postal_code": "91301-2597",
    "country": "United States",
    "longitude": -118.7661536,
    "latitude": 34.14404216,
    "phone": "8184774566",
    "website_url": "http://www.ladyfaceale.com",
    "state": "California",
    "street": "29281 Agoura Rd"
  },
  {
    "id": "df201565-95ea-4d32-839e-857acf881c98",
    "name": "Lafayette Brewing Co",
    "brewery_type": "brewpub",
    "address_1": "391 Washington St",
    "address_2": null,
    "address_3": null,
    "city": "Buffalo",
    "state_province": "New York",
    "postal_code": "14203-2108",
    "country": "United States",
    "longitude": -78.8734526,
    "latitude": 42.8847967,
    "phone": "7168560062",
    "website_url": "http://www.panamericangrill.com",
    "state": "New York",
    "street": "391 Washington St"
  },
  {
    "id": "f6ee7fb1-b7d4-4bd2-99a3-e466b2f72bf7",
    "name": "Lafayette Brewing Co",
    "brewery_type": "brewpub",
    "address_1": "622 Main St",
    "address_2": null,
    "address_3": null,
    "city": "Lafayette",
    "state_province": "Indiana",
    "postal_code": "47901-1451",
    "country": "United States",
    "longitude": -86.88994924,
    "latitude": 40.41921732,
    "phone": "7657422591",
    "website_url": "http://www.lafayettebrewingco.com",
    "state": "Indiana",
    "street": "622 Main St"
  },
  {
    "id": "30c84a6c-3fc8-4025-a025-22cdc5e3165a",
    "name": "Lager Heads Brewing Co.",
    "brewery_type": "micro",
    "address_1": "325 W Smith Rd",
    "address_2": null,
    "address_3": null,
    "city": "Medina",
    "state_province": "Ohio",
    "postal_code": "44256-2352",
    "country": "United States",
    "longitude": -81.86844379,
    "latitude": 41.13633377,
    "phone": "3307212337",
    "website_url": "http://www.lagerheads.us",
    "state": "Ohio",
    "street": "325 W Smith Rd"
  },
  {
    "id": "85cd6388-ee30-4325-8fd3-6ac7018eabda",
    "name": "Lager Heads Smokehouse",
    "brewery_type": "brewpub",
    "address_1": "2832 Abbeyville Rd",
    "address_2": null,
    "address_3": null,
    "city": "Medina",
    "state_province": "Ohio",
    "postal_code": "44256",
    "country": "United States",
    "longitude": -81.88755054,
    "latitude": 41.19980605,
    "phone": "3307251947",
    "website_url": null,
    "state": "Ohio",
    "street": "2832 Abbeyville Rd"
  },
  {
    "id": "52953326-4295-42ce-b0aa-44b398ab9dc7",
    "name": "Lagerhaus Brewery & Grill",
    "brewery_type": "brewpub",
    "address_1": "3438 E Lake Rd",
    "address_2": null,
    "address_3": null,
    "city": "Palm Harbor",
    "state_province": "Florida",
    "postal_code": "34685-2400",
    "country": "United States",
    "longitude": null,
    "latitude": null,
    "phone": "7272169682",
    "website_url": "http://www.lagerhausbrewery.com",
    "state": "Florida",
    "street": "3438 E Lake Rd"
  },
  {
    "id": "709b32f8-b1ae-4288-b953-acd373f24e53",
    "name": "Laguna Beach Beer Co",
    "brewery_type": "micro",
    "address_1": "29851 Aventura",
    "address_2": null,
    "address_3": null,
    "city": "Rancho Santa Margarita",
    "state_province": "California",
    "postal_code": "92688-2014",
    "country": "United States",
    "longitude": -117.6108194,
    "latitude": 33.63603528,
    "phone": "9492646821",
    "website_url": "http://www.lagunabeer.com",
    "state": "California",
    "street": "29851 Aventura"
  },
  {
    "id": "9f90e54e-0e87-415e-b01b-12f9c1261a3a",
    "name": "Laguna Beach Brewery and Grille",
    "brewery_type": "brewpub",
    "address_1": "237 Ocean Ave",
    "address_2": null,
    "address_3": null,
    "city": "Laguna Beach",
    "state_province": "California",
    "postal_code": "92651-2106",
    "country": "United States",
    "longitude": -117.7835382,
    "latitude": 33.5427913,
    "phone": "9494973381",
    "website_url": "http://www.lagunabeachbrewery.net",
    "state": "California",
    "street": "237 Ocean Ave"
  },
  {
    "id": "f9f49460-31c1-4237-b59a-69cf2285e694",
    "name": "Lagunitas Brewing Co",
    "brewery_type": "large",
    "address_1": "2607 W 17th St",
    "address_2": null,
    "address_3": null,
    "city": "Chicago",
    "state_province": "Illinois",
    "postal_code": "60608-1823",
    "country": "United States",
    "longitude": -87.6932373,
    "latitude": 41.8583603,
    "phone": "7735222503",
    "website_url": "http://www.lagunitas.com",
    "state": "Illinois",
    "street": "2607 W 17th St"
  },
  {
    "id": "0ede1ab1-f8fe-4d92-8d21-b5491a5591f7",
    "name": "Lagunitas Brewing Co",
    "brewery_type": "large",
    "address_1": "1280 N McDowell Blvd",
    "address_2": null,
    "address_3": null,
    "city": "Petaluma",
    "state_province": "California",
    "postal_code": "94954-1113",
    "country": "United States",
    "longitude": -122.6619198,
    "latitude": 38.27264795,
    "phone": "7077694495",
    "website_url": "http://www.lagunitas.com",
    "state": "California",
    "street": "1280 N McDowell Blvd"
  },
  {
    "id": "d4e5d8fc-646b-4ff7-8f5a-3310971684b8",
    "name": "Lagunitas Seattle Taproom and Beer Sanctuary",
    "brewery_type": "brewpub",
    "address_1": "1550 NW 49th St",
    "address_2": null,
    "address_3": null,
    "city": "Seattle",
    "state_province": "Washington",
    "postal_code": "98107-4731",
    "country": "United States",
    "longitude": -122.3784629,
    "latitude": 47.6645881,
    "phone": "2067842230",
    "website_url": "https://lagunitas.com",
    "state": "Washington",
    "street": "1550 NW 49th St"
  },
  {
    "id": "2a6af192-e363-4432-ab79-bb32bcc0eaa5",
    "name": "Laht Neppur Brewing",
    "brewery_type": "brewpub",
    "address_1": "444 Preston Ave",
    "address_2": null,
    "address_3": null,
    "city": "Waitsburg",
    "state_province": "Washington",
    "postal_code": "99361-0738",
    "country": "United States",
    "longitude": -118.148767,
    "latitude": 46.270046,
    "phone": "5093376261",
    "website_url": "http://lahtneppur.com",
    "state": "Washington",
    "street": "444 Preston Ave"
  },
  {
    "id": "f8cc3f9d-2d0f-4063-b6a8-f79cc4f4ced7",
    "name": "Laines Brew Hub",
    "brewery_type": "micro",
    "address_1": "Stane Street",
    "address_2": null,
    "address_3": null,
    "city": "Pulborough",
    "state_province": "West Sussex",
    "postal_code": "RH20 1DJ",
    "country": "England",
    "longitude": -0.478064,
    "latitude": 50.989042,
    "phone": "1273550000",
    "website_url": "http://laine.beer/",
    "state": "West Sussex",
    "street": "Stane Street"
  },
  {
    "id": "8a240e31-0084-4199-9c3b-ae9b40785cfa",
    "name": "Lake Ann Brewing Co",
    "brewery_type": "micro",
    "address_1": "6535 First St",
    "address_2": null,
    "address_3": null,
    "city": "Lake Ann",
    "state_province": "Michigan",
    "postal_code": "49650-9549",
    "country": "United States",
    "longitude": null,
    "latitude": null,
    "phone": "2316402327",
    "website_url": "http://www.lakeannbrewing.com",
    "state": "Michigan",
    "street": "6535 First St"
  },
  {
    "id": "a0a910d5-9aa9-43e2-8416-b684624c393e",
    "name": "Lake Anne Brew House",
    "brewery_type": "micro",
    "address_1": "11424 Washington Plz W",
    "address_2": null,
    "address_3": null,
    "city": "Reston",
    "state_province": "Virginia",
    "postal_code": "20190-4310",
    "country": "United States",
    "longitude": -77.3411707,
    "latitude": 38.9682812,
    "phone": "5717582739",
    "website_url": "http://www.lakeannebrewhouse.com",
    "state": "Virginia",
    "street": "11424 Washington Plz W"
  },
  {
    "id": "29654ba8-8b59-4704-8723-83e5769bc4ea",
    "name": "Lake Austin Ales",
    "brewery_type": "micro",
    "address_1": "3200 Woodall Dr STE C-1",
    "address_2": null,
    "address_3": null,
    "city": "Cedar Park",
    "state_province": "Texas",
    "postal_code": "78613",
    "country": "United States",
    "longitude": null,
    "latitude": null,
    "phone": "5129644630",
    "website_url": "http://lakeaustinales.com",
    "state": "Texas",
    "street": "3200 Woodall Dr STE C-1"
  },
  {
    "id": "3e64338a-ce72-4ccf-b234-bf01bb9c9788",
    "name": "Lake Bluff Brewing Company",
    "brewery_type": "micro",
    "address_1": "16 E Scranton Ave",
    "address_2": null,
    "address_3": null,
    "city": "Lake Bluff",
    "state_province": "Illinois",
    "postal_code": "60044-2543",
    "country": "United States",
    "longitude": -87.8453204,
    "latitude": 42.2798322,
    "phone": "2245445179",
    "website_url": "http://www.lbbrew.com",
    "state": "Illinois",
    "street": "16 E Scranton Ave"
  },
  {
    "id": "bc2b5412-d16a-4bd9-9764-1dfd992737f8",
    "name": "Lake Brothers Beer Company",
    "brewery_type": "contract",
    "address_1": "25W275 Woodstock Ct",
    "address_2": null,
    "address_3": null,
    "city": "Naperville",
    "state_province": "Illinois",
    "postal_code": "60540-3427",
    "country": "United States",
    "longitude": null,
    "latitude": null,
    "phone": "6302583938",
    "website_url": "http://www.lakebrothersbeer.com",
    "state": "Illinois",
    "street": "25W275 Woodstock Ct"
  },
  {
    "id": "af6716b1-35fe-4511-9c87-05d9d9d408af",
    "name": "Lake Bums BrewCo, LLC.",
    "brewery_type": "micro",
    "address_1": "112 Parrothead Ln",
    "address_2": null,
    "address_3": null,
    "city": "Pontiac",
    "state_province": "Missouri",
    "postal_code": "65729-7134",
    "country": "United States",
    "longitude": -92.602321,
    "latitude": 36.509057,
    "phone": "4172936684",
    "website_url": "http://www.lakebumsbrewco.com",
    "state": "Missouri",
    "street": "112 Parrothead Ln"
  },
  {
    "id": "dce821fa-491a-41a5-b8c3-0ae142f7e382",
    "name": "Lake Charlevoix Brewing Company",
    "brewery_type": "brewpub",
    "address_1": "111 Bridge Park Dr",
    "address_2": null,
    "address_3": null,
    "city": "Charlevoix",
    "state_province": "Michigan",
    "postal_code": "49720-1397",
    "country": "United States",
    "longitude": -85.25800112,
    "latitude": 45.31728307,
    "phone": "2314373220",
    "website_url": "http://www.lakecharlevoixbrewing.com",
    "state": "Michigan",
    "street": "111 Bridge Park Dr"
  },
  {
    "id": "aed97693-3a01-4bca-834d-8669462fc3f9",
    "name": "Lake Chelan Brewing Co",
    "brewery_type": "micro",
    "address_1": "50 Wapato Way",
    "address_2": null,
    "address_3": null,
    "city": "Manson",
    "state_province": "Washington",
    "postal_code": "98831",
    "country": "United States",
    "longitude": -120.15943,
    "latitude": 47.885978,
    "phone": "5096874444",
    "website_url": "https://lakechelanbrewery.com",
    "state": "Washington",
    "street": "50 Wapato Way"
  },
  {
    "id": "183ff86e-721b-4763-93ca-beb410b15ea8",
    "name": "Lake City Brewing Company",
    "brewery_type": "brewpub",
    "address_1": "130 Bluff St",
    "address_2": null,
    "address_3": null,
    "city": "Lake City",
    "state_province": "Colorado",
    "postal_code": "81235",
    "country": "United States",
    "longitude": -107.3191335,
    "latitude": 38.02729486,
    "phone": "9709445222",
    "website_url": "http://www.lcbrewco.com",
    "state": "Colorado",
    "street": "130 Bluff St"
  },
  {
    "id": "95a2d108-4cdc-4a82-acf4-60bc4d1dd0de",
    "name": "Lake Drum Brewing",
    "brewery_type": "micro",
    "address_1": "16 E Castle St",
    "address_2": null,
    "address_3": null,
    "city": "Geneva",
    "state_province": "New York",
    "postal_code": "14456-2400",
    "country": "United States",
    "longitude": -76.98094035,
    "latitude": 42.8677738,
    "phone": "3157891200",
    "website_url": "http://www.lakedrumbrewing.com",
    "state": "New York",
    "street": "16 E Castle St"
  }
]