[
  {
    "id": "7d6e56b6-1b6b-497e-b4fc-6e19dbf099bb",
    "name": "Elk Head Brewing Co",
    "brewery_type": "micro",
    "address_1": "28120 State Route 410 E",
    "address_2": null,
    "address_3": null,
    "city": "Buckley",
    "state_province": "Washington",
    "postal_code": "98321-8721",
    "country": "United States",
    "longitude": -122.0529573,
    "latitude": 47.15968788,
    "phone": "3608292739",
    "website_url": null,
    "state": "Washington",
    "street": "28120 State Route 410 E"
  },
  {
    "id": "1f6f2780-aea7-4d70-ae11-73f99ff0f760",
    "name": "Elk Horn Brewery",
    "brewery_type": "brewpub",
    "address_1": "686 E Broadway",
    "address_2": null,
    "address_3": null,
    "city": "Eugene",
    "state_province": "Oregon",
    "postal_code": "97401-3340",
    "country": "United States",
    "longitude": -123.0824349,
    "latitude": 44.04979409,
    "phone": "5415058356",
    "website_url": "http://www.elkhornbrewery.com",
    "state": "Oregon",
    "street": "686 E Broadway"
  },
  {
    "id": "f3c553fd-04bc-4fd9-82f5-72e4647fcc83",
    "name": "Elk Ridge Brewing Company",
    "brewery_type": "micro",
    "address_1": "320 Main St",
    "address_2": null,
    "address_3": null,
    "city": "Deer Lodge",
    "state_province": "Montana",
    "postal_code": "59722-1057",
    "country": "United States",
    "longitude": -112.9535547,
    "latitude": 46.12805905,
    "phone": "4068464650",
    "website_url": "http://www.elkridgebrewingcompany.com",
    "state": "Montana",
    "street": "320 Main St"
  },
  {
    "id": "33420b64-b564-4d19-b134-364a4721e50f",
    "name": "Elk Street Brewery",
    "brewery_type": "brewpub",
    "address_1": "3 S Elk St",
    "address_2": null,
    "address_3": null,
    "city": "Sandusky",
    "state_province": "Michigan",
    "postal_code": "48471-1353",
    "country": "United States",
    "longitude": -82.82977088,
    "latitude": 43.42036406,
    "phone": "8103008049",
    "website_url": "http://www.elkstreetbrewery.com",
    "state": "Michigan",
    "street": "3 S Elk St"
  },
  {
    "id": "42536ff0-a7a8-4e41-8706-3411f1590482",
    "name": "Elk Valley Brewing",
    "brewery_type": "contract",
    "address_1": "1210 N Hudson Ave",
    "address_2": null,
    "address_3": null,
    "city": "Oklahoma City",
    "state_province": "Oklahoma",
    "postal_code": "73103",
    "country": "United States",
    "longitude": -97.5189497,
    "latitude": 35.4804596,
    "phone": "4056006438",
    "website_url": "http://elkvalleybrew.com",
    "state": "Oklahoma",
    "street": "1210 N Hudson Ave"
  },
  {
    "id": "18af371f-35b2-4398-a1b7-aa8cceeb021f",
    "name": "Elkhorn Slough Brewing Company",
    "brewery_type": "micro",
    "address_1": "65 Hangar Way Unit D",
    "address_2": null,
    "address_3": null,
    "city": "Watsonville",
    "state_province": "California",
    "postal_code": "95076-2476",
    "country": "United States",
    "longitude": -121.7903344,
    "latitude": 36.92762275,
    "phone": "8312883152",
    "website_url": "http://www.elkhornsloughbrew.com",
    "state": "California",
    "street": "65 Hangar Way Unit D"
  },
  {
    "id": "68a034ef-a640-4950-be85-deb482c883ce",
    "name": "Elkins Brewing Company",
    "brewery_type": "micro",
    "address_1": "1901 E Santa Fe Ave",
    "address_2": null,
    "address_3": null,
    "city": "Grants",
    "state_province": "New Mexico",
    "postal_code": "87020",
    "country": "United States",
    "longitude": null,
    "latitude": null,
    "phone": "5052878665",
    "website_url": "http://www.elkinsbrewing.com",
    "state": "New Mexico",
    "street": "1901 E Santa Fe Ave"
  },
  {
    "id": "1b2d5858-07ec-4980-9d92-e64b2f726d04",
    "name": "Elkmont Exchange Brewery and Eating House",
    "brewery_type": "brewpub",
    "address_1": "745 N Broadway St",
    "address_2": null,
    "address_3": null,
    "city": "Knoxville",
    "state_province": "Tennessee",
    "postal_code": "37917-7202",
    "country": "United States",
    "longitude": null,
    "latitude": null,
    "phone": "8653600602",
    "website_url": "http://elkmontexchange.com",
    "state": "Tennessee",
    "street": "745 N Broadway St"
  },
  {
    "id": "92d0b2ac-85a6-4f1a-a11e-4a05e1bf0767",
    "name": "Ellersick Brewing / Big E Ales",
    "brewery_type": "closed",
    "address_1": "5030 208th St SW Ste A",
    "address_2": null,
    "address_3": null,
    "city": "Lynnwood",
    "state_province": "Washington",
    "postal_code": "98036-7642",
    "country": "United States",
    "longitude": -122.301844,
    "latitude": 47.810408,
    "phone": "4256727051",
    "website_url": "http://www.bigeales.com",
    "state": "Washington",
    "street": "5030 208th St SW Ste A"
  },
  {
    "id": "cffb4a0f-1336-4544-b7f4-eb19b7087045",
    "name": "Ellicott Mills Brewing Co",
    "brewery_type": "brewpub",
    "address_1": "8308 Main St",
    "address_2": null,
    "address_3": null,
    "city": "Ellicott City",
    "state_province": "Maryland",
    "postal_code": "21043-4601",
    "country": "United States",
    "longitude": -76.79944314,
    "latitude": 39.2681041,
    "phone": "4103138141",
    "website_url": "http://www.ellicottmillsbrewing.com",
    "state": "Maryland",
    "street": "8308 Main St"
  },
  {
    "id": "3263ac26-78d6-47f7-970c-416ecea45ccc",
    "name": "Ellicottville Brewing Co",
    "brewery_type": "micro",
    "address_1": "28 Monroe St",
    "address_2": null,
    "address_3": null,
    "city": "Ellicottville",
    "state_province": "New York",
    "postal_code": "14731",
    "country": "United States",
    "longitude": -78.67049701,
    "latitude": 42.27511725,
    "phone": "7166992537",
    "website_url": "http://www.ellicottvillebrewing.com",
    "state": "New York",
    "street": "28 Monroe St"
  },
  {
    "id": "76772c7e-f116-416d-8646-0f824d12dec3",
    "name": "Elliott Bay Brewery and Pub - West Seattle",
    "brewery_type": "brewpub",
    "address_1": "4720 California Ave SW",
    "address_2": null,
    "address_3": null,
    "city": "Seattle",
    "state_province": "Washington",
    "postal_code": "98116-4413",
    "country": "United States",
    "longitude": -122.3865765,
    "latitude": 47.5604072,
    "phone": "2069328695",
    "website_url": "http://www.elliottbaybrewing.com",
    "state": "Washington",
    "street": "4720 California Ave SW"
  },
  {
    "id": "9f309558-6675-475c-bfac-bef4aee4858d",
    "name": "Elliott Bay Brewhouse & Pub - Burien",
    "brewery_type": "brewpub",
    "address_1": "255 SW 152nd St",
    "address_2": null,
    "address_3": null,
    "city": "Burien",
    "state_province": "Washington",
    "postal_code": "98166-2307",
    "country": "United States",
    "longitude": -122.3373381,
    "latitude": 47.466775,
    "phone": "2062464211",
    "website_url": "http://www.elliottbaybrewing.com",
    "state": "Washington",
    "street": "255 SW 152nd St"
  },
  {
    "id": "7d48f746-567e-43ab-8df2-a6a87db503dd",
    "name": "Elliott Bay Public House & Brewery - Lake City",
    "brewery_type": "brewpub",
    "address_1": "12537 Lake City Way NE",
    "address_2": null,
    "address_3": null,
    "city": "Seattle",
    "state_province": "Washington",
    "postal_code": "98125-4424",
    "country": "United States",
    "longitude": -122.2948936,
    "latitude": 47.7203026,
    "phone": "2063652337",
    "website_url": "http://www.elliottbaybrewing.com",
    "state": "Washington",
    "street": "12537 Lake City Way NE"
  },
  {
    "id": "c136997e-054a-4163-a60f-00aaaa91633a",
    "name": "Ellipsis Brewing",
    "brewery_type": "micro",
    "address_1": "7500 Tpc Blvd Ste 8",
    "address_2": null,
    "address_3": null,
    "city": "Orlando",
    "state_province": "Florida",
    "postal_code": "32822-5181",
    "country": "United States",
    "longitude": null,
    "latitude": null,
    "phone": "4072505848",
    "website_url": null,
    "state": "Florida",
    "street": "7500 Tpc Blvd Ste 8"
  },
  {
    "id": "d7a5c7a9-e7b8-4b71-8b2f-fd9cbd0d0d06",
    "name": "Ellis Island Casino and Brewery",
    "brewery_type": "brewpub",
    "address_1": "4178 Koval Ln",
    "address_2": null,
    "address_3": null,
    "city": "Las Vegas",
    "state_province": "Nevada",
    "postal_code": "89109-4568",
    "country": "United States",
    "longitude": null,
    "latitude": null,
    "phone": null,
    "website_url": null,
    "state": "Nevada",
    "street": "4178 Koval Ln"
  },
  {
    "id": "818be285-2a92-49d5-8164-6ab9c058d1ec",
    "name": "Ellison Brewery & Spirits",
    "brewery_type": "micro",
    "address_1": "4903 Dawn Ave",
    "address_2": null,
    "address_3": null,
    "city": "East Lansing",
    "state_province": "Michigan",
    "postal_code": "48823-5610",
    "country": "United States",
    "longitude": null,
    "latitude": null,
    "phone": "5172035498",
    "website_url": "http://www.ellisonbrewing.com",
    "state": "Michigan",
    "street": "4903 Dawn Ave"
  },
  {
    "id": "c6211a84-875e-491b-8ba3-051fd0f6e0ea",
    "name": "Elm City Brewing Company",
    "brewery_type": "brewpub",
    "address_1": "222 West St Ste 46",
    "address_2": null,
    "address_3": null,
    "city": "Keene",
    "state_province": "New Hampshire",
    "postal_code": "03431-2459",
    "country": "United States",
    "longitude": -72.28642285,
    "latitude": 42.93326464,
    "phone": "6033553335",
    "website_url": "http://www.elmcitybrewing.com",
    "state": "New Hampshire",
    "street": "222 West St Ste 46"
  },
  {
    "id": "f9db90cc-435a-4b8e-b390-4800da326bb0",
    "name": "Elmhurst Brewing Company",
    "brewery_type": "brewpub",
    "address_1": "171 N Addison Ave",
    "address_2": null,
    "address_3": null,
    "city": "Elmhurst",
    "state_province": "Illinois",
    "postal_code": "60126-2720",
    "country": "United States",
    "longitude": -87.94146327,
    "latitude": 41.90285936,
    "phone": "6308342739",
    "website_url": "http://www.elmhurstbrewing.com",
    "state": "Illinois",
    "street": "171 N Addison Ave"
  },
  {
    "id": "d94af8d2-575b-4a3d-859f-725985d59a36",
    "name": "Elst Brewing Company",
    "brewery_type": "planning",
    "address_1": null,
    "address_2": null,
    "address_3": null,
    "city": "Knoxville",
    "state_province": "Tennessee",
    "postal_code": "37921-5188",
    "country": "United States",
    "longitude": null,
    "latitude": null,
    "phone": "8658099618",
    "website_url": "http://www.elst.beer",
    "state": "Tennessee",
    "street": null
  },
  {
    "id": "78ab1ee9-b1b7-437a-8175-4cd608de8451",
    "name": "Eluvium Brewing Co.",
    "brewery_type": "micro",
    "address_1": "11 Florida Ave",
    "address_2": null,
    "address_3": null,
    "city": "Weaverville",
    "state_province": "North Carolina",
    "postal_code": "28787",
    "country": "United States",
    "longitude": -82.5615737,
    "latitude": 35.69741414,
    "phone": "8284841799",
    "website_url": "http://www.eluviumbrewing.com",
    "state": "North Carolina",
    "street": "11 Florida Ave"
  },
  {
    "id": "06ba0b55-f5b4-490c-a10f-82ce08d8acca",
    "name": "Elysian Brewing Co",
    "brewery_type": "large",
    "address_1": "5510 Airport Way S",
    "address_2": null,
    "address_3": null,
    "city": "Seattle",
    "state_province": "Washington",
    "postal_code": "98108-2255",
    "country": "United States",
    "longitude": -122.3205871,
    "latitude": 47.5533243,
    "phone": "2068601920",
    "website_url": "http://www.elysianbrewing.com",
    "state": "Washington",
    "street": "5510 Airport Way S"
  },
  {
    "id": "261afb12-b46b-473e-9782-ec6447440e29",
    "name": "Elysian Brewing Co",
    "brewery_type": "large",
    "address_1": "1221 E Pike St",
    "address_2": null,
    "address_3": null,
    "city": "Seattle",
    "state_province": "Washington",
    "postal_code": "98122-3910",
    "country": "United States",
    "longitude": -122.3157647,
    "latitude": 47.6139598,
    "phone": "2068601920",
    "website_url": "http://www.elysianbrewing.com",
    "state": "Washington",
    "street": "1221 E Pike St"
  },
  {
    "id": "17bddc6f-706d-439a-80b7-602e814b529e",
    "name": "Elysian Brewing Co - Elysian Fields",
    "brewery_type": "large",
    "address_1": "542 1st Ave S Ste B",
    "address_2": null,
    "address_3": null,
    "city": "Seattle",
    "state_province": "Washington",
    "postal_code": "98104-2882",
    "country": "United States",
    "longitude": -122.3335142512,
    "latitude": 47.596704338262,
    "phone": "2063824498",
    "website_url": "http://www.elysianbrewing.com",
    "state": "Washington",
    "street": "542 1st Ave S Ste B"
  },
  {
    "id": "2e09ce9b-c3ef-4bfd-a0ef-f64e283d7369",
    "name": "Elysian Brewing Co -Tangletown",
    "brewery_type": "closed",
    "address_1": "2106 N 55th St",
    "address_2": null,
    "address_3": null,
    "city": "Seattle",
    "state_province": "Washington",
    "postal_code": "98103-6202",
    "country": "United States",
    "longitude": -122.333474,
    "latitude": 47.6687837,
    "phone": "2065475929",
    "website_url": null,
    "state": "Washington",
    "street": "2106 N 55th St"
  },
  {
    "id": "f369e864-9712-40dc-8030-ffc76435069b",
    "name": "Emmett's Brewing Co - Downers Grove",
    "brewery_type": "brewpub",
    "address_1": "5200 Main St",
    "address_2": null,
    "address_3": null,
    "city": "Downers Grove",
    "state_province": "Illinois",
    "postal_code": "60515-4688",
    "country": "United States",
    "longitude": -88.01051205,
    "latitude": 41.7925884,
    "phone": "6304348500",
    "website_url": "http://www.emmettsbrewingco.com",
    "state": "Illinois",
    "street": "5200 Main St"
  },
  {
    "id": "4987fe4b-7bd7-4d18-857b-3e3c0cb3dafd",
    "name": "Emmett's Brewing Co - Palatine",
    "brewery_type": "brewpub",
    "address_1": "110 N Brockway St",
    "address_2": null,
    "address_3": null,
    "city": "Palatine",
    "state_province": "Illinois",
    "postal_code": "60067-5063",
    "country": "United States",
    "longitude": -88.046297,
    "latitude": 42.11332289,
    "phone": "8473591533",
    "website_url": "http://www.emmettsbrewingco.com",
    "state": "Illinois",
    "street": "110 N Brockway St"
  },
  {
    "id": "e1422bf2-0baf-41f8-a91a-50ae379acc8f",
    "name": "Emmett's Brewing Co - West Dundee",
    "brewery_type": "brewpub",
    "address_1": "128 W Main St",
    "address_2": null,
    "address_3": null,
    "city": "West Dundee",
    "state_province": "Illinois",
    "postal_code": "60118-2017",
    "country": "United States",
    "longitude": -88.2784177,
    "latitude": 42.0984146,
    "phone": "8474284500",
    "website_url": "http://www.emmettsbrewingco.com",
    "state": "Illinois",
    "street": "128 W Main St"
  },
  {
    "id": "8c207722-6895-4bbb-bb8a-eb0989c476ef",
    "name": "Emmett's Brewing Co - Wheaton",
    "brewery_type": "brewpub",
    "address_1": "121 W Front St",
    "address_2": null,
    "address_3": null,
    "city": "Wheaton",
    "state_province": "Illinois",
    "postal_code": "60187-5108",
    "country": "United States",
    "longitude": -88.10705232,
    "latitude": 41.86494217,
    "phone": "6303832020",
    "website_url": "http://www.emmettsbrewingco.com",
    "state": "Illinois",
    "street": "121 W Front St"
  },
  {
    "id": "3ebef1a3-b680-4911-a442-07f042521c8c",
    "name": "Empire Brewing Co",
    "brewery_type": "brewpub",
    "address_1": "120 Walton St",
    "address_2": null,
    "address_3": null,
    "city": "Syracuse",
    "state_province": "New York",
    "postal_code": "13202-1571",
    "country": "United States",
    "longitude": -76.15406625,
    "latitude": 43.04804637,
    "phone": "3156552337",
    "website_url": "http://www.empirebrew.com",
    "state": "New York",
    "street": "120 Walton St"
  },
  {
    "id": "e4e51dc8-6d71-4ccd-85e4-4cad72d1b5df",
    "name": "Empire City Beer Company",
    "brewery_type": "planning",
    "address_1": null,
    "address_2": null,
    "address_3": null,
    "city": "New York",
    "state_province": "New York",
    "postal_code": "10012",
    "country": "United States",
    "longitude": null,
    "latitude": null,
    "phone": "9178040571",
    "website_url": "http://www.hitemhard.com",
    "state": "New York",
    "street": null
  },
  {
    "id": "79908f3b-0e14-4e3b-81e7-8e0de0954688",
    "name": "Empire Farm Brewery",
    "brewery_type": "micro",
    "address_1": "33 Rippleton Rd",
    "address_2": null,
    "address_3": null,
    "city": "Cazenovia",
    "state_province": "New York",
    "postal_code": "13035-9601",
    "country": "United States",
    "longitude": -75.8664345,
    "latitude": 42.9197307,
    "phone": "3156552337",
    "website_url": "http://www.empirebrew.com",
    "state": "New York",
    "street": "33 Rippleton Rd"
  },
  {
    "id": "e40c10b9-391e-457d-b734-5c79bf4a5480",
    "name": "Empirical Brewery",
    "brewery_type": "micro",
    "address_1": "1801 W Foster Ave",
    "address_2": null,
    "address_3": null,
    "city": "Chicago",
    "state_province": "Illinois",
    "postal_code": "60640-1023",
    "country": "United States",
    "longitude": -87.6749395,
    "latitude": 41.9762555,
    "phone": null,
    "website_url": "http://www.empiricalbrewery.com",
    "state": "Illinois",
    "street": "1801 W Foster Ave"
  },
  {
    "id": "c589ab3d-f739-4226-89f7-b84266f8b039",
    "name": "Emprize Brew Mill",
    "brewery_type": "brewpub",
    "address_1": "200 Main St",
    "address_2": null,
    "address_3": null,
    "city": "Menasha",
    "state_province": "Wisconsin",
    "postal_code": "54952",
    "country": "United States",
    "longitude": -88.4504129,
    "latitude": 44.2013644,
    "phone": "9204861539",
    "website_url": "https://www.emprizebrewing.com",
    "state": "Wisconsin",
    "street": "200 Main St"
  },
  {
    "id": "72cbb196-7356-45c7-a060-3437a5022f2b",
    "name": "Empty Pint Brewing Company",
    "brewery_type": "micro",
    "address_1": "17 2nd St",
    "address_2": null,
    "address_3": null,
    "city": "Dover",
    "state_province": "New Hampshire",
    "postal_code": "03820",
    "country": "United States",
    "longitude": null,
    "latitude": null,
    "phone": null,
    "website_url": "https://www.emptypintbrewing.com/",
    "state": "New Hampshire",
    "street": "17 2nd St"
  },
  {
    "id": "b9675043-285f-4bc2-bb74-2d14bbd4840f",
    "name": "Empyrean Brewing Co",
    "brewery_type": "micro",
    "address_1": "729 Q St",
    "address_2": null,
    "address_3": null,
    "city": "Lincoln",
    "state_province": "Nebraska",
    "postal_code": "68508-1536",
    "country": "United States",
    "longitude": -96.7105429,
    "latitude": 40.8155873,
    "phone": "4024345970",
    "website_url": "http://www.empyreanbrewingco.com",
    "state": "Nebraska",
    "street": "729 Q St"
  },
  {
    "id": "cc77b466-cfd0-4906-a0ea-fbfa768e7a6b",
    "name": "Enchanted Circle Brewing Company",
    "brewery_type": "brewpub",
    "address_1": "20 Sage Ln.",
    "address_2": null,
    "address_3": null,
    "city": "Angel Fire",
    "state_province": "New Mexico",
    "postal_code": "87710",
    "country": "United States",
    "longitude": -105.2882775,
    "latitude": 36.396276,
    "phone": "5055078687",
    "website_url": null,
    "state": "New Mexico",
    "street": "20 Sage Ln."
  },
  {
    "id": "ce9e3633-3660-4da7-9ceb-5f4f99d9d3a5",
    "name": "Endeavor Brewing Company",
    "brewery_type": "micro",
    "address_1": "909 W 5th Ave",
    "address_2": null,
    "address_3": null,
    "city": "Columbus",
    "state_province": "Ohio",
    "postal_code": "43212",
    "country": "United States",
    "longitude": -83.030429,
    "latitude": 39.988002,
    "phone": "6144567074",
    "website_url": "http://www.endeavorbrewingco.com",
    "state": "Ohio",
    "street": "909 W 5th Ave"
  },
  {
    "id": "bd66ac70-2685-4cfc-91f1-ec349c35c9ed",
    "name": "Endless Brewing",
    "brewery_type": "micro",
    "address_1": "20610 Pa-29",
    "address_2": null,
    "address_3": null,
    "city": "Montrose",
    "state_province": "Pennsylvania",
    "postal_code": "18801",
    "country": "United States",
    "longitude": null,
    "latitude": null,
    "phone": "5709670985",
    "website_url": "http://www.endlessbrewing.com",
    "state": "Pennsylvania",
    "street": "20610 Pa-29"
  },
  {
    "id": "a9090cf0-65c9-4c4b-985b-0d8692dae5ac",
    "name": "Endless Pint Brewing",
    "brewery_type": "planning",
    "address_1": null,
    "address_2": null,
    "address_3": null,
    "city": "Versailles",
    "state_province": "Ohio",
    "postal_code": "45380",
    "country": "United States",
    "longitude": null,
    "latitude": null,
    "phone": "4197338806",
    "website_url": "http://www.endlesspintbrewing.com",
    "state": "Ohio",
    "street": null
  },
  {
    "id": "0a06eb5a-b9f4-4078-8fc7-65a213197d00",
    "name": "Endo Brewing Company",
    "brewery_type": "micro",
    "address_1": "2755 Dagny Way Ste 101",
    "address_2": null,
    "address_3": null,
    "city": "Lafayette",
    "state_province": "Colorado",
    "postal_code": "80026-8023",
    "country": "United States",
    "longitude": -105.1341065,
    "latitude": 40.0144311,
    "phone": "7204428052",
    "website_url": "http://endobrewing.com",
    "state": "Colorado",
    "street": "2755 Dagny Way Ste 101"
  },
  {
    "id": "b8214502-7df8-43aa-9d22-a4d55c175dac",
    "name": "Enegren Brewing Co",
    "brewery_type": "micro",
    "address_1": "444 Zachary St Unit 120",
    "address_2": null,
    "address_3": null,
    "city": "Moorpark",
    "state_province": "California",
    "postal_code": "93021-2073",
    "country": "United States",
    "longitude": -118.8706594,
    "latitude": 34.28324302,
    "phone": "8055520602",
    "website_url": "http://www.enegrenbrewing.com",
    "state": "California",
    "street": "444 Zachary St Unit 120"
  },
  {
    "id": "f5b03217-9e4c-4cb2-9b10-5d983f8bd811",
    "name": "Engine 15 Brewing Company",
    "brewery_type": "micro",
    "address_1": "633 N Myrtle Ave",
    "address_2": null,
    "address_3": null,
    "city": "Jacksonville",
    "state_province": "Florida",
    "postal_code": "32204-1319",
    "country": "United States",
    "longitude": null,
    "latitude": null,
    "phone": "9045519429",
    "website_url": "http://www.engine15.com",
    "state": "Florida",
    "street": "633 N Myrtle Ave"
  },
  {
    "id": "6e65e1de-6602-4580-a801-140ca2430354",
    "name": "Engine 15 Brewing Company",
    "brewery_type": "brewpub",
    "address_1": "1500 Beach Blvd Ste 217",
    "address_2": null,
    "address_3": null,
    "city": "Jacksonville Beach",
    "state_province": "Florida",
    "postal_code": "32250-2624",
    "country": "United States",
    "longitude": -81.3923194,
    "latitude": 30.2882669,
    "phone": "9042492337",
    "website_url": "http://www.engine15.com",
    "state": "Florida",
    "street": "1500 Beach Blvd Ste 217"
  },
  {
    "id": "d4c69915-a54d-4525-a84b-14de75196904",
    "name": "English Ales Brewery",
    "brewery_type": "micro",
    "address_1": "223 Reindollar Ave Ste A",
    "address_2": null,
    "address_3": null,
    "city": "Marina",
    "state_province": "California",
    "postal_code": "93933-3851",
    "country": "United States",
    "longitude": -121.8038356,
    "latitude": 36.68038392,
    "phone": "8318833000",
    "website_url": "http://www.englishalesbrewery.com",
    "state": "California",
    "street": "223 Reindollar Ave Ste A"
  },
  {
    "id": "1a244e49-1067-49cf-b1ec-5006c1c1158c",
    "name": "English Setter Brewing Company",
    "brewery_type": "closed",
    "address_1": "15310 E Marietta Ave Ste 4",
    "address_2": null,
    "address_3": null,
    "city": "Spokane",
    "state_province": "Washington",
    "postal_code": "99216-1876",
    "country": "United States",
    "longitude": -117.1983425,
    "latitude": 47.68121756,
    "phone": "5094133663",
    "website_url": "http://www.englishsetterbrewing.com",
    "state": "Washington",
    "street": "15310 E Marietta Ave Ste 4"
  },
  {
    "id": "e6018041-dbb0-492f-9a2d-73f1e3a27874",
    "name": "Engrained Brewing Co",
    "brewery_type": "brewpub",
    "address_1": "1120 W Lincolnshire Blvd",
    "address_2": null,
    "address_3": null,
    "city": "Springfield",
    "state_province": "Illinois",
    "postal_code": "62711-6445",
    "country": "United States",
    "longitude": -89.6914854,
    "latitude": 39.7481952,
    "phone": "2175463054",
    "website_url": "http://www.engrainedbrewing.com",
    "state": "Illinois",
    "street": "1120 W Lincolnshire Blvd"
  },
  {
    "id": "561a5198-be7f-447a-991c-516dcbc7dbae",
    "name": "Enki Brewing",
    "brewery_type": "micro",
    "address_1": "1495 Steiger Lake Ln",
    "address_2": null,
    "address_3": null,
    "city": "Victoria",
    "state_province": "Minnesota",
    "postal_code": "55386-9537",
    "country": "United States",
    "longitude": -93.65723977,
    "latitude": 44.86169699,
    "phone": "9523008408",
    "website_url": "http://www.enkibrewing.com",
    "state": "Minnesota",
    "street": "1495 Steiger Lake Ln"
  },
  {
    "id": "8c79b15d-77ca-452d-8527-b38cabf2a40a",
    "name": "Enlightened Brewing Company",
    "brewery_type": "micro",
    "address_1": "2020 S Allis St",
    "address_2": null,
    "address_3": null,
    "city": "Milwaukee",
    "state_province": "Wisconsin",
    "postal_code": "53207-1212",
    "country": "United States",
    "longitude": -87.903853300237,
    "latitude": 43.007189601638,
    "phone": "4142398950",
    "website_url": "http://www.enlightenedbeer.com",
    "state": "Wisconsin",
    "street": "2020 S Allis St"
  },
  {
    "id": "f58c9bc0-34ca-4673-99f3-c124e0a41ee1",
    "name": "Enso Brewing Company",
    "brewery_type": "micro",
    "address_1": null,
    "address_2": null,
    "address_3": null,
    "city": "Vashon",
    "state_province": "Washington",
    "postal_code": "98070",
    "country": "United States",
    "longitude": null,
    "latitude": null,
    "phone": "2067072437",
    "website_url": null,
    "state": "Washington",
    "street": null
  }
]