[
  {
    "id": "5e10fcfc-9724-4622-a95d-da266c8628ee",
    "name": "Barley Johns Brewpub",
    "brewery_type": "closed",
    "address_1": "1280 Madison Ave",
    "address_2": null,
    "address_3": null,
    "city": "New Richmond",
    "state_province": "Wisconsin",
    "postal_code": "54017-2236",
    "country": "United States",
    "longitude": null,
    "latitude": null,
    "phone": "7152464677",
    "website_url": "http://www.barleyjohnsbrewery.com",
    "state": "Wisconsin",
    "street": "1280 Madison Ave"
  },
  {
    "id": "050945b3-143d-4c19-976d-be130c5b9628",
    "name": "Barley Johns Brewpub",
    "brewery_type": "brewpub",
    "address_1": "781 Old Highway 8 SW",
    "address_2": null,
    "address_3": null,
    "city": "New Brighton",
    "state_province": "Minnesota",
    "postal_code": "55112-7735",
    "country": "United States",
    "longitude": -93.1984831,
    "latitude": 45.0366982,
    "phone": "6516364670",
    "website_url": "http://www.barleyjohns.com",
    "state": "Minnesota",
    "street": "781 Old Highway 8 SW"
  },
  {
    "id": "ddc78de1-9059-45e3-9c38-65e714a96062",
    "name": "Barley Naked Brewing Company",
    "brewery_type": "planning",
    "address_1": null,
    "address_2": null,
    "address_3": null,
    "city": "Stafford",
    "state_province": "Virginia",
    "postal_code": "22554",
    "country": "United States",
    "longitude": null,
    "latitude": null,
    "phone": "5406234475",
    "website_url": "http://www.barleynaked.com",
    "state": "Virginia",
    "street": null
  },
  {
    "id": "332c432f-b52b-4d3d-a5c9-8b3d4a31976f",
    "name": "Barley POP! Brewing",
    "brewery_type": "nano",
    "address_1": "1208 10th St Ste C",
    "address_2": null,
    "address_3": null,
    "city": "Snohomish",
    "state_province": "Washington",
    "postal_code": "98290-2099",
    "country": "United States",
    "longitude": -122.096741,
    "latitude": 47.924313,
    "phone": "3606106843",
    "website_url": "https://www.barleypopbeer.com",
    "state": "Washington",
    "street": "1208 10th St Ste C"
  },
  {
    "id": "947934b7-b0e7-4eee-81cc-8efabbfe32f7",
    "name": "Barley Sprouts Brewery",
    "brewery_type": "brewpub",
    "address_1": "639 SE 223rd Ave",
    "address_2": null,
    "address_3": null,
    "city": "Gresham",
    "state_province": "Oregon",
    "postal_code": "97030-2509",
    "country": "United States",
    "longitude": -122.4339039,
    "latitude": 45.51805087,
    "phone": "5037586464",
    "website_url": "http://www.capturedbyporches.com",
    "state": "Oregon",
    "street": "639 SE 223rd Ave"
  },
  {
    "id": "80683fda-c79f-4dc1-941a-a2b4165487fe",
    "name": "Barley's Brewing Company (Ale House No. 1)",
    "brewery_type": "brewpub",
    "address_1": "467 N High St",
    "address_2": null,
    "address_3": null,
    "city": "Columbus",
    "state_province": "Ohio",
    "postal_code": "43215-2007",
    "country": "United States",
    "longitude": -83.0027669,
    "latitude": 39.9719408,
    "phone": "6142282537",
    "website_url": "http://www.barleysbrewing.com",
    "state": "Ohio",
    "street": "467 N High St"
  },
  {
    "id": "10b2fbe8-9fc3-46f8-aaa9-d61bc19dffa8",
    "name": "Barley's Casino and Brewing Co",
    "brewery_type": "brewpub",
    "address_1": "4500 E Sunset Rd Ste 30",
    "address_2": null,
    "address_3": null,
    "city": "Henderson",
    "state_province": "Nevada",
    "postal_code": "89014-2253",
    "country": "United States",
    "longitude": null,
    "latitude": null,
    "phone": "7024582739",
    "website_url": "http://www.wildfire.sclv.com/barleys",
    "state": "Nevada",
    "street": "4500 E Sunset Rd Ste 30"
  },
  {
    "id": "c4ed1b9c-3e81-4419-bc5b-789c3f4f53e8",
    "name": "Barlows Brewery",
    "brewery_type": "closed",
    "address_1": "705 SE Park Crest Ave Suite D430",
    "address_2": null,
    "address_3": null,
    "city": "Vancouver",
    "state_province": "Washington",
    "postal_code": "98683",
    "country": "United States",
    "longitude": -122.5216242,
    "latitude": 45.6177956,
    "phone": "3608593795",
    "website_url": "https://www.barlowsbrewery.com",
    "state": "Washington",
    "street": "705 SE Park Crest Ave Suite D430"
  },
  {
    "id": "9e1dfd14-4289-47ec-9362-362b7f8ed000",
    "name": "BarmHaus Brewing Co",
    "brewery_type": "closed",
    "address_1": "3782 Winding Creek Ln",
    "address_2": null,
    "address_3": null,
    "city": "Garden Valley",
    "state_province": "California",
    "postal_code": "95633-9773",
    "country": "United States",
    "longitude": -120.8784951,
    "latitude": 38.8402775,
    "phone": "5304440478",
    "website_url": "http://barmhausco.com",
    "state": "California",
    "street": "3782 Winding Creek Ln"
  },
  {
    "id": "545b51b8-caf4-4c63-aea4-48910ddef4c7",
    "name": "Barn Brewers",
    "brewery_type": "brewpub",
    "address_1": "114 N Main St",
    "address_2": null,
    "address_3": null,
    "city": "Lawton",
    "state_province": "Michigan",
    "postal_code": "49065-8634",
    "country": "United States",
    "longitude": -85.84966443,
    "latitude": 42.16834814,
    "phone": "2692990482",
    "website_url": "http://www.barnbrewersbrewery.com",
    "state": "Michigan",
    "street": "114 N Main St"
  },
  {
    "id": "bfb84336-c1e4-48e9-9d05-4a412b60e967",
    "name": "Barn Brewery",
    "brewery_type": "micro",
    "address_1": "2850 El Cajon Blvd Ste 3",
    "address_2": null,
    "address_3": null,
    "city": "San Diego",
    "state_province": "California",
    "postal_code": "92104-1389",
    "country": "United States",
    "longitude": -117.1324165,
    "latitude": 32.75568723,
    "phone": "6199558228",
    "website_url": "http://www.thebarnbrew.com",
    "state": "California",
    "street": "2850 El Cajon Blvd Ste 3"
  },
  {
    "id": "e468fc97-eef9-4067-9f20-2df846d8ca5b",
    "name": "Barn Door Brewing",
    "brewery_type": "micro",
    "address_1": "1174 SW Highway 99W",
    "address_2": null,
    "address_3": null,
    "city": "Dundee",
    "state_province": "Oregon",
    "postal_code": "97115",
    "country": "United States",
    "longitude": -123.0146104,
    "latitude": 45.27424538,
    "phone": "9718328054",
    "website_url": "http://www.barndoorbrewing.com",
    "state": "Oregon",
    "street": "1174 SW Highway 99W"
  },
  {
    "id": "976cb1b1-2e1d-4b63-b8cc-003104c9af21",
    "name": "Barn Town Brewing Co.",
    "brewery_type": "brewpub",
    "address_1": "9500 SE University Ave #1110",
    "address_2": null,
    "address_3": null,
    "city": "West Des Moines",
    "state_province": "Iowa",
    "postal_code": "50266-1888",
    "country": "United States",
    "longitude": -93.8385143,
    "latitude": 41.5996472,
    "phone": "5159786767",
    "website_url": null,
    "state": "Iowa",
    "street": "9500 SE University Ave #1110"
  },
  {
    "id": "5edc486d-03b2-4fe1-a794-e0a972e21bf6",
    "name": "Barnaby Brewing Company",
    "brewery_type": "micro",
    "address_1": "165 Shattuck Way",
    "address_2": null,
    "address_3": null,
    "city": "Juneau",
    "state_province": "Alaska",
    "postal_code": "99801",
    "country": "United States",
    "longitude": -134.405962,
    "latitude": 58.300314,
    "phone": "9074190916",
    "website_url": "http://www.barnabybrew.com",
    "state": "Alaska",
    "street": "165 Shattuck Way"
  },
  {
    "id": "57cf86a1-3d0e-4ac7-8f50-b0bae8e34d9c",
    "name": "Barnett and Son Brewing Company",
    "brewery_type": "micro",
    "address_1": "18425 Pony Express Dr Unit 125",
    "address_2": null,
    "address_3": null,
    "city": "Parker",
    "state_province": "Colorado",
    "postal_code": "80134-9605",
    "country": "United States",
    "longitude": null,
    "latitude": null,
    "phone": "7204200462",
    "website_url": null,
    "state": "Colorado",
    "street": "18425 Pony Express Dr Unit 125"
  },
  {
    "id": "23ff0148-df41-45fd-9f11-feaf313ef149",
    "name": "Barnhouse Brewery",
    "brewery_type": "brewpub",
    "address_1": "43271 Spinks Ferry Rd",
    "address_2": null,
    "address_3": null,
    "city": "Leesburg",
    "state_province": "Virginia",
    "postal_code": "20176-5629",
    "country": "United States",
    "longitude": null,
    "latitude": null,
    "phone": "7036758480",
    "website_url": "http://www.barnhousebrewery.com",
    "state": "Virginia",
    "street": "43271 Spinks Ferry Rd"
  },
  {
    "id": "f2b298d8-a498-41bc-9321-770e03376866",
    "name": "Barnshed Brewing",
    "brewery_type": "micro",
    "address_1": "100 Lauman Ln",
    "address_2": null,
    "address_3": null,
    "city": "Hicksville",
    "state_province": "New York",
    "postal_code": "11801-6574",
    "country": "United States",
    "longitude": -73.50094256,
    "latitude": 40.74420335,
    "phone": "5163766514",
    "website_url": "http://www.barnshedbrewing.com",
    "state": "New York",
    "street": "100 Lauman Ln"
  },
  {
    "id": "c6c6e790-345d-4f46-90e3-6264d4962e1d",
    "name": "Barnstable Brewing",
    "brewery_type": "micro",
    "address_1": "485 W Main St",
    "address_2": null,
    "address_3": null,
    "city": "Hyannis",
    "state_province": "Massachusetts",
    "postal_code": "02601-3644",
    "country": "United States",
    "longitude": -70.31159594,
    "latitude": 41.64913517,
    "phone": "7744706989",
    "website_url": "http://www.barnstablebrewing.com",
    "state": "Massachusetts",
    "street": "485 W Main St"
  },
  {
    "id": "54222b6c-3be1-4bf2-95b7-5085f07a6461",
    "name": "Barnstar Brewing",
    "brewery_type": "micro",
    "address_1": "4050 North Tonto Road (Forest Service Rd.102)",
    "address_2": null,
    "address_3": null,
    "city": "Skull Valley",
    "state_province": "Arizona",
    "postal_code": "86338",
    "country": "United States",
    "longitude": null,
    "latitude": null,
    "phone": "9284422337",
    "website_url": "http://www.barnstarbrew.com",
    "state": "Arizona",
    "street": "4050 North Tonto Road (Forest Service Rd.102)"
  },
  {
    "id": "11903890-96c3-4019-b526-6bb0eea6c08c",
    "name": "Barona Brewing Company",
    "brewery_type": "micro",
    "address_1": "EM1036-1 2",
    "address_2": null,
    "address_3": null,
    "city": "Santo Ant\u00f3nio das Areias",
    "state_province": "Portalegre",
    "postal_code": "7330-215",
    "country": "Portugal",
    "longitude": -7.3376936047272,
    "latitude": 39.437678925612,
    "phone": "+351 21 468 2661",
    "website_url": "https://www.cervejabarona.pt/",
    "state": "Portalegre",
    "street": "EM1036-1 2"
  },
  {
    "id": "3a2f762e-be48-4caf-ba77-d9253f50182a",
    "name": "Barrage Brewing Co",
    "brewery_type": "micro",
    "address_1": "32 Allen Blvd Ste E",
    "address_2": null,
    "address_3": null,
    "city": "Farmingdale",
    "state_province": "New York",
    "postal_code": "11735-5625",
    "country": "United States",
    "longitude": null,
    "latitude": null,
    "phone": "6313357941",
    "website_url": "http://www.barragebrewing.com",
    "state": "New York",
    "street": "32 Allen Blvd Ste E"
  },
  {
    "id": "225795a5-5470-4864-99f9-6310f40bb4bb",
    "name": "Barrel 41 Brewing Co",
    "brewery_type": "brewpub",
    "address_1": "1132 S. Commercial St.",
    "address_2": null,
    "address_3": null,
    "city": "Neenah",
    "state_province": "Wisconsin",
    "postal_code": "54956",
    "country": "United States",
    "longitude": -88.4642861,
    "latitude": 44.16805,
    "phone": "9205584021",
    "website_url": "https://www.barrel41.com/",
    "state": "Wisconsin",
    "street": "1132 S. Commercial St."
  },
  {
    "id": "4fc60749-c0d0-4f94-ab92-e5bf566d455e",
    "name": "Barrel and Beam",
    "brewery_type": "micro",
    "address_1": "260 Northwoods RD",
    "address_2": null,
    "address_3": null,
    "city": "Marquette",
    "state_province": "Michigan",
    "postal_code": "49855",
    "country": "United States",
    "longitude": -87.4722168,
    "latitude": 46.54578,
    "phone": "9062732559",
    "website_url": "http://www.barrelandbeam.com",
    "state": "Michigan",
    "street": "260 Northwoods RD"
  },
  {
    "id": "d605f25e-f132-4c42-94cb-0ec7fc4fe50c",
    "name": "Barrel Assembly",
    "brewery_type": "planning",
    "address_1": null,
    "address_2": null,
    "address_3": null,
    "city": "Austin",
    "state_province": "Texas",
    "postal_code": "78751-3019",
    "country": "United States",
    "longitude": null,
    "latitude": null,
    "phone": "15124236579",
    "website_url": "http://www.barrelassembly.com",
    "state": "Texas",
    "street": null
  },
  {
    "id": "75a66bb0-838f-4e86-adca-03c784fbda72",
    "name": "Barrel Brothers Brewing Company, LLC",
    "brewery_type": "micro",
    "address_1": "399 Business Park Ct. #506",
    "address_2": null,
    "address_3": null,
    "city": "Windsor",
    "state_province": "California",
    "postal_code": "95492",
    "country": "United States",
    "longitude": -122.784706,
    "latitude": 38.52824916,
    "phone": "7076969487",
    "website_url": "http://www.barrelbrothersbrewing.com",
    "state": "California",
    "street": "399 Business Park Ct. #506"
  },
  {
    "id": "0a857a91-0b76-4850-9594-08938b756d99",
    "name": "Barrel Culture Brewing And Blending",
    "brewery_type": "proprietor",
    "address_1": "4913 S Alston Ave",
    "address_2": null,
    "address_3": null,
    "city": "Durham",
    "state_province": "North Carolina",
    "postal_code": "27713-4424",
    "country": "United States",
    "longitude": -78.88891655,
    "latitude": 35.89445737,
    "phone": null,
    "website_url": null,
    "state": "North Carolina",
    "street": "4913 S Alston Ave"
  },
  {
    "id": "2907b143-57b4-49ec-aa41-07df64d1e14b",
    "name": "Barrel Dog Brewing",
    "brewery_type": "micro",
    "address_1": null,
    "address_2": null,
    "address_3": null,
    "city": "Evergreen",
    "state_province": "Colorado",
    "postal_code": "80439",
    "country": "United States",
    "longitude": -105.321458,
    "latitude": 39.6361637,
    "phone": "5599176846",
    "website_url": null,
    "state": "Colorado",
    "street": null
  },
  {
    "id": "c13feda5-f313-4dfb-be56-07cb89d5f090",
    "name": "Barrel Harbor Brewing Co.",
    "brewery_type": "micro",
    "address_1": "2575 Pioneer Ave Ste 104",
    "address_2": null,
    "address_3": null,
    "city": "Vista",
    "state_province": "California",
    "postal_code": "92081-8450",
    "country": "United States",
    "longitude": -117.221385,
    "latitude": 33.14879,
    "phone": "7607343949",
    "website_url": "http://www.barrelharborbrewing.com",
    "state": "California",
    "street": "2575 Pioneer Ave Ste 104"
  },
  {
    "id": "26615b1f-85a5-425c-bfc9-3ed0422329db",
    "name": "Barrel Head Brewhouse",
    "brewery_type": "brewpub",
    "address_1": "1785 Fulton St",
    "address_2": null,
    "address_3": null,
    "city": "San Francisco",
    "state_province": "California",
    "postal_code": "94117-1202",
    "country": "United States",
    "longitude": -122.4461033,
    "latitude": 37.77576514,
    "phone": "4154166989",
    "website_url": "http://www.barrelheadsf.com",
    "state": "California",
    "street": "1785 Fulton St"
  },
  {
    "id": "2949226a-b599-4e47-9c00-5e19012dd22b",
    "name": "Barrel House Z",
    "brewery_type": "micro",
    "address_1": "95 Woodrock Rd",
    "address_2": null,
    "address_3": null,
    "city": "Weymouth",
    "state_province": "Massachusetts",
    "postal_code": "02189-2335",
    "country": "United States",
    "longitude": null,
    "latitude": null,
    "phone": "3392017888",
    "website_url": "http://www.barrelhousez.net",
    "state": "Massachusetts",
    "street": "95 Woodrock Rd"
  },
  {
    "id": "c7d72e4c-452f-4218-a12d-f14abd400565",
    "name": "Barrel Mountain Brewing",
    "brewery_type": "micro",
    "address_1": "607 E Main St",
    "address_2": null,
    "address_3": null,
    "city": "Battle Ground",
    "state_province": "Washington",
    "postal_code": "98604-4887",
    "country": "United States",
    "longitude": -122.5309307,
    "latitude": 45.7808639,
    "phone": "3603428111",
    "website_url": "http://www.barrelmountainbrewing.com",
    "state": "Washington",
    "street": "607 E Main St"
  },
  {
    "id": "60a0a684-e559-4865-ac34-561f9a0affeb",
    "name": "Barrel Oak Farm Taphouse",
    "brewery_type": "micro",
    "address_1": "3623 Grove Ln",
    "address_2": null,
    "address_3": null,
    "city": "Delaplane",
    "state_province": "Virginia",
    "postal_code": "20144-2226",
    "country": "United States",
    "longitude": null,
    "latitude": null,
    "phone": "5403646402",
    "website_url": "http://www.barreloak.com",
    "state": "Virginia",
    "street": "3623 Grove Ln"
  },
  {
    "id": "4eb9962b-708d-4221-9eee-f68e2abead7a",
    "name": "Barrel of Monks Brewing",
    "brewery_type": "micro",
    "address_1": "1141 S Rogers Cir Ste 5",
    "address_2": null,
    "address_3": null,
    "city": "Boca Raton",
    "state_province": "Florida",
    "postal_code": "33487-2789",
    "country": "United States",
    "longitude": null,
    "latitude": null,
    "phone": "5615101253",
    "website_url": "http://www.barrelofmonks.com",
    "state": "Florida",
    "street": "1141 S Rogers Cir Ste 5"
  },
  {
    "id": "e11f74dd-00c9-4b81-b284-879dc08f3132",
    "name": "Barrel Theory Beer Company",
    "brewery_type": "micro",
    "address_1": "248 7th St E",
    "address_2": null,
    "address_3": null,
    "city": "Saint Paul",
    "state_province": "Minnesota",
    "postal_code": "55101-2349",
    "country": "United States",
    "longitude": -93.08803482,
    "latitude": 44.95106551,
    "phone": "6516003422",
    "website_url": "http://www.barreltheory.com",
    "state": "Minnesota",
    "street": "248 7th St E"
  },
  {
    "id": "6ea2ecc3-d933-4c8d-852c-f20db3b19976",
    "name": "Barreled Souls Brewing Company LLC",
    "brewery_type": "micro",
    "address_1": "743 Portland Rd",
    "address_2": null,
    "address_3": null,
    "city": "Saco",
    "state_province": "Maine",
    "postal_code": "04072-9005",
    "country": "United States",
    "longitude": -70.405728,
    "latitude": 43.553358,
    "phone": "2076026439",
    "website_url": "http://www.barreledsouls.com",
    "state": "Maine",
    "street": "743 Portland Rd"
  },
  {
    "id": "9bf73e25-63d1-48df-a3b8-f916d9f9edeb",
    "name": "Barrelhead Brewery",
    "brewery_type": "micro",
    "address_1": "2 Fairview Strand",
    "address_2": "Ballybough",
    "address_3": "Dublin 3",
    "city": "Dublin",
    "state_province": "Dublin",
    "postal_code": "D03 R8P3",
    "country": "Ireland",
    "longitude": -6.2400171,
    "latitude": 53.3625745,
    "phone": "353879900914",
    "website_url": "https://barrelheadbrewery.com/",
    "state": "Dublin",
    "street": "2 Fairview Strand"
  },
  {
    "id": "fcac3d27-e6e5-4249-821b-15a0306895bb",
    "name": "Barrelhouse Brewing",
    "brewery_type": "micro",
    "address_1": "3055 Limestone Way",
    "address_2": null,
    "address_3": null,
    "city": "Paso Robles",
    "state_province": "California",
    "postal_code": "93446-5988",
    "country": "United States",
    "longitude": -120.6911529,
    "latitude": 35.5762216,
    "phone": "8052961128",
    "website_url": "http://www.barrelhousebrewing.com",
    "state": "California",
    "street": "3055 Limestone Way"
  },
  {
    "id": "ace9df76-b786-4d17-9be9-33a009f48ba2",
    "name": "Barrels & Bottles Brewery",
    "brewery_type": "brewpub",
    "address_1": "600 12th St Ste 160",
    "address_2": null,
    "address_3": null,
    "city": "Golden",
    "state_province": "Colorado",
    "postal_code": "80401-6145",
    "country": "United States",
    "longitude": -105.2202098,
    "latitude": 39.7562107,
    "phone": "7203283643",
    "website_url": "http://www.barrelsbottles.com",
    "state": "Colorado",
    "street": "600 12th St Ste 160"
  },
  {
    "id": "bd4c1883-0fa4-4ebf-84a5-750eeccb7546",
    "name": "Barrie Brewing Company",
    "brewery_type": "planning",
    "address_1": null,
    "address_2": null,
    "address_3": null,
    "city": "Gainesville",
    "state_province": "Florida",
    "postal_code": "32607-4807",
    "country": "United States",
    "longitude": null,
    "latitude": null,
    "phone": null,
    "website_url": null,
    "state": "Florida",
    "street": null
  },
  {
    "id": "a6704545-a3ff-4e4d-a458-90979968fe1c",
    "name": "Barrier Brewing Co",
    "brewery_type": "micro",
    "address_1": "3001 New St Ste A2",
    "address_2": null,
    "address_3": null,
    "city": "Oceanside",
    "state_province": "New York",
    "postal_code": "11572-2747",
    "country": "United States",
    "longitude": null,
    "latitude": null,
    "phone": "5165941028",
    "website_url": "http://www.barrierbrewing.com",
    "state": "New York",
    "street": "3001 New St Ste A2"
  },
  {
    "id": "d92bd59c-e6ad-4311-90a0-ff2c7fa721ee",
    "name": "Barrington Brewery and Restaurant",
    "brewery_type": "brewpub",
    "address_1": "420 Stockbridge Rd Ste 4",
    "address_2": null,
    "address_3": null,
    "city": "Great Barrington",
    "state_province": "Massachusetts",
    "postal_code": "01230-9512",
    "country": "United States",
    "longitude": null,
    "latitude": null,
    "phone": "4135288282",
    "website_url": "http://www.barringtonbrewery.net",
    "state": "Massachusetts",
    "street": "420 Stockbridge Rd Ste 4"
  },
  {
    "id": "01f591c5-3a87-4685-af4f-c4e9fccb3a47",
    "name": "Barrio Brewing Co",
    "brewery_type": "micro",
    "address_1": "800 E 16th St",
    "address_2": null,
    "address_3": null,
    "city": "Tucson",
    "state_province": "Arizona",
    "postal_code": "85719-6603",
    "country": "United States",
    "longitude": -110.959665,
    "latitude": 32.214613,
    "phone": "5207912739",
    "website_url": "http://www.barriobrewing.co",
    "state": "Arizona",
    "street": "800 E 16th St"
  },
  {
    "id": "8000063a-f3ac-41e0-8c1d-ad58ba3ad562",
    "name": "Barrow Brewing Company",
    "brewery_type": "micro",
    "address_1": "108 Royal St",
    "address_2": null,
    "address_3": null,
    "city": "Salado",
    "state_province": "Texas",
    "postal_code": "76571",
    "country": "United States",
    "longitude": -97.53703133,
    "latitude": 30.94295989,
    "phone": "2549473544",
    "website_url": "http://www.barrowbrewing.com",
    "state": "Texas",
    "street": "108 Royal St"
  },
  {
    "id": "ed597116-57e6-472c-8cd1-41d2915d6544",
    "name": "Barsideous Brewing Co",
    "brewery_type": "brewpub",
    "address_1": "644 S Main St",
    "address_2": null,
    "address_3": null,
    "city": "Lebanon",
    "state_province": "Oregon",
    "postal_code": "97355-3337",
    "country": "United States",
    "longitude": -122.9070824,
    "latitude": 44.5247777,
    "phone": "5415701789",
    "website_url": "http://www.barsideousbrewing.com",
    "state": "Oregon",
    "street": "644 S Main St"
  },
  {
    "id": "481b46b4-5731-45cb-a1b9-f773c55b8372",
    "name": "Bartlett Hall",
    "brewery_type": "brewpub",
    "address_1": "242 Ofarrell St",
    "address_2": null,
    "address_3": null,
    "city": "San Francisco",
    "state_province": "California",
    "postal_code": "94102-2119",
    "country": "United States",
    "longitude": -122.4087293,
    "latitude": 37.78640638,
    "phone": "4154334332",
    "website_url": "http://www.bartletthall.com",
    "state": "California",
    "street": "242 Ofarrell St"
  },
  {
    "id": "d73def5b-b039-4331-98b7-d84bd8a18a64",
    "name": "Bascule Brewery And Public House",
    "brewery_type": "micro",
    "address_1": "1397 Colorado Ave",
    "address_2": null,
    "address_3": null,
    "city": "Lorain",
    "state_province": "Ohio",
    "postal_code": "44052-3377",
    "country": "United States",
    "longitude": -82.15710792,
    "latitude": 41.46560548,
    "phone": null,
    "website_url": "http://www.basculebrewingcompany.com",
    "state": "Ohio",
    "street": "1397 Colorado Ave"
  },
  {
    "id": "c4e818fa-6abc-440b-bdb5-c8172bb5fbd8",
    "name": "Base Camp Brewing Co",
    "brewery_type": "micro",
    "address_1": "930 SE Oak St",
    "address_2": null,
    "address_3": null,
    "city": "Portland",
    "state_province": "Oregon",
    "postal_code": "97214-1307",
    "country": "United States",
    "longitude": -122.6561108,
    "latitude": 45.5198818,
    "phone": "5034777479",
    "website_url": "http://www.basecampbrewingco.com",
    "state": "Oregon",
    "street": "930 SE Oak St"
  },
  {
    "id": "1d7e5d18-1159-4ff0-ae9a-eb00af7d14cb",
    "name": "Basecamp Brewing",
    "brewery_type": "brewpub",
    "address_1": "25 S Mountain Rd",
    "address_2": null,
    "address_3": null,
    "city": "Lincoln",
    "state_province": "New Hampshire",
    "postal_code": "03251-4268",
    "country": "United States",
    "longitude": null,
    "latitude": null,
    "phone": "6037457290",
    "website_url": "http://www.onelovebrewery.com",
    "state": "New Hampshire",
    "street": "25 S Mountain Rd"
  },
  {
    "id": "4a9101f6-a7eb-461c-95c9-a0ce6bffdaeb",
    "name": "Basement Brewers of Texas",
    "brewery_type": "micro",
    "address_1": "521 Clay St",
    "address_2": null,
    "address_3": null,
    "city": "Kerrville",
    "state_province": "Texas",
    "postal_code": "78028-4525",
    "country": "United States",
    "longitude": -99.1392822,
    "latitude": 30.05042839,
    "phone": "8309555073",
    "website_url": "http://www.basementbrewersoftexas.com",
    "state": "Texas",
    "street": "521 Clay St"
  },
  {
    "id": "c9df8aa5-3a45-42fb-bac7-731e8aed32cb",
    "name": "Basic City Beer Co.",
    "brewery_type": "micro",
    "address_1": "1010 E Main St",
    "address_2": null,
    "address_3": null,
    "city": "Waynesboro",
    "state_province": "Virginia",
    "postal_code": "22980-5855",
    "country": "United States",
    "longitude": -78.87398588,
    "latitude": 38.0644451,
    "phone": "8162713211",
    "website_url": "http://www.basiccitybeer.com",
    "state": "Virginia",
    "street": "1010 E Main St"
  }
]