[
  {
    "id": "77cda0f6-f4c6-499c-a231-2102c21438aa",
    "name": "Yee-Haw Brewing, LLC.",
    "brewery_type": "micro",
    "address_1": "126 Buffalo St Ste 30",
    "address_2": null,
    "address_3": null,
    "city": "Johnson City",
    "state_province": "Tennessee",
    "postal_code": "37604-5788",
    "country": "United States",
    "longitude": null,
    "latitude": null,
    "phone": "4233289192",
    "website_url": null,
    "state": "Tennessee",
    "street": "126 Buffalo St Ste 30"
  },
  {
    "id": "0480da50-7ce0-40c3-a95f-66411e083c65",
    "name": "Yellow Bridge Brewing Co.",
    "brewery_type": "micro",
    "address_1": "2266 Route 66",
    "address_2": null,
    "address_3": null,
    "city": "Delmont",
    "state_province": "Pennsylvania",
    "postal_code": "15626-1461",
    "country": "United States",
    "longitude": null,
    "latitude": null,
    "phone": "7243003922",
    "website_url": "http://www.yellowbridgebrewing.com",
    "state": "Pennsylvania",
    "street": "2266 Route 66"
  },
  {
    "id": "5be46e78-dd4c-44c7-9164-6aa1f502af37",
    "name": "Yellow Springs Brewery",
    "brewery_type": "micro",
    "address_1": "305 N Walnut St Ste B",
    "address_2": null,
    "address_3": null,
    "city": "Yellow Springs",
    "state_province": "Ohio",
    "postal_code": "45387-2059",
    "country": "United States",
    "longitude": null,
    "latitude": null,
    "phone": "9377670222",
    "website_url": "http://www.yellowspringsbrewery.com",
    "state": "Ohio",
    "street": "305 N Walnut St Ste B"
  },
  {
    "id": "2a1157b5-b257-4b23-95df-a565b26da285",
    "name": "Yellow Sun Brewing Company",
    "brewery_type": "micro",
    "address_1": "127 Trade St",
    "address_2": null,
    "address_3": null,
    "city": "Rutherfordton",
    "state_province": "North Carolina",
    "postal_code": "28139-2849",
    "country": "United States",
    "longitude": -81.9581017,
    "latitude": 35.3666796,
    "phone": "8283750089",
    "website_url": "http://www.yellowsunbrewing.com",
    "state": "North Carolina",
    "street": "127 Trade St"
  },
  {
    "id": "d80ec1ea-80e9-4060-a0d0-188bc571f06e",
    "name": "YellowBelly Beer",
    "brewery_type": "micro",
    "address_1": "Whiterock Hill",
    "address_2": "Pembrokestown",
    "address_3": null,
    "city": "Wexford",
    "state_province": "Wexford",
    "postal_code": "Y35 HW27",
    "country": "Ireland",
    "longitude": -6.5241152,
    "latitude": 52.3231087,
    "phone": "353539142555",
    "website_url": "http://www.yellowbellybeer.ie/",
    "state": "Wexford",
    "street": "Whiterock Hill"
  },
  {
    "id": "17bb95d7-d3d7-4b8c-bbdd-f18104f8a815",
    "name": "Yellowhammer Brewery",
    "brewery_type": "micro",
    "address_1": "2600 Clinton Ave W",
    "address_2": null,
    "address_3": null,
    "city": "Huntsville",
    "state_province": "Alabama",
    "postal_code": "35805-3046",
    "country": "United States",
    "longitude": -86.5932014,
    "latitude": 34.7277523,
    "phone": "2569755950",
    "website_url": "http://www.yellowhammerbrewery.com",
    "state": "Alabama",
    "street": "2600 Clinton Ave W"
  },
  {
    "id": "7b0072f2-5fe0-463b-b4db-a8876e7723cd",
    "name": "Yellowstone Valley Brewing Co.",
    "brewery_type": "micro",
    "address_1": "2123B 1st Ave N",
    "address_2": null,
    "address_3": null,
    "city": "Billings",
    "state_province": "Montana",
    "postal_code": "59101-2404",
    "country": "United States",
    "longitude": null,
    "latitude": null,
    "phone": "4062450918",
    "website_url": "http://www.yellowstonevalleybrew.com",
    "state": "Montana",
    "street": "2123B 1st Ave N"
  },
  {
    "id": "f0098c6f-401d-4be1-9bb9-5e1de4d84673",
    "name": "Yergey Brewing",
    "brewery_type": "micro",
    "address_1": "518B Bank St",
    "address_2": null,
    "address_3": null,
    "city": "Emmaus",
    "state_province": "Pennsylvania",
    "postal_code": "18049-2008",
    "country": "United States",
    "longitude": -75.49366592,
    "latitude": 40.53379322,
    "phone": "6104172804",
    "website_url": "http://yergeybrewing.com",
    "state": "Pennsylvania",
    "street": "518B Bank St"
  },
  {
    "id": "df9c7974-6add-4917-8536-6a6f6de0a79a",
    "name": "Yes Brewing",
    "brewery_type": "micro",
    "address_1": "609 Main St",
    "address_2": null,
    "address_3": null,
    "city": "Westbrook",
    "state_province": "Maine",
    "postal_code": "04092-4143",
    "country": "United States",
    "longitude": -70.35776285,
    "latitude": 43.67838435,
    "phone": "2075910633",
    "website_url": "http://www.yesbrewing.com",
    "state": "Maine",
    "street": "609 Main St"
  },
  {
    "id": "d6920448-7345-491b-a30b-7b1f42006ada",
    "name": "Yeti Restaurant",
    "brewery_type": "brewpub",
    "address_1": "190 Farmers Ln",
    "address_2": null,
    "address_3": null,
    "city": "Santa Rosa",
    "state_province": "California",
    "postal_code": "95405-4703",
    "country": "United States",
    "longitude": -122.688361,
    "latitude": 38.44971636,
    "phone": "7075219608",
    "website_url": "http://www.yetirestaurant.com",
    "state": "California",
    "street": "190 Farmers Ln"
  },
  {
    "id": "430a9947-db3e-441d-b4bd-58fca448bd20",
    "name": "Yetters Brewing Company",
    "brewery_type": "brewpub",
    "address_1": "1011 9th Ave",
    "address_2": null,
    "address_3": null,
    "city": "Greeley",
    "state_province": "Colorado",
    "postal_code": "80631",
    "country": "United States",
    "longitude": -104.6929308,
    "latitude": 40.4221023,
    "phone": "9703961606",
    "website_url": "https://yettersbrewingcompany.com/",
    "state": "Colorado",
    "street": "1011 9th Ave"
  },
  {
    "id": "bb0fca35-1169-4881-b032-27ca29deaced",
    "name": "Yolo Brewing Co",
    "brewery_type": "micro",
    "address_1": "1520 Terminal St",
    "address_2": null,
    "address_3": null,
    "city": "West Sacramento",
    "state_province": "California",
    "postal_code": "95691-3814",
    "country": "United States",
    "longitude": -121.5419585,
    "latitude": 38.56942885,
    "phone": "9163797585",
    "website_url": "http://www.yolobrew.com",
    "state": "California",
    "street": "1520 Terminal St"
  },
  {
    "id": "7470dd0b-f925-4fb2-87a7-3007fba745ad",
    "name": "Yonkers Brewing Co",
    "brewery_type": "micro",
    "address_1": "92 Main St",
    "address_2": null,
    "address_3": null,
    "city": "Yonkers",
    "state_province": "New York",
    "postal_code": "10701-7065",
    "country": "United States",
    "longitude": -73.9029331,
    "latitude": 40.9345744,
    "phone": "9143915805",
    "website_url": "http://www.yonkersbrewing.com",
    "state": "New York",
    "street": "92 Main St"
  },
  {
    "id": "aa43f7b4-5ece-4fd5-9dac-9eb81124ddf0",
    "name": "York Beach Beer Company",
    "brewery_type": "planning",
    "address_1": null,
    "address_2": null,
    "address_3": null,
    "city": "York",
    "state_province": "Maine",
    "postal_code": "03902",
    "country": "United States",
    "longitude": null,
    "latitude": null,
    "phone": null,
    "website_url": null,
    "state": "Maine",
    "street": null
  },
  {
    "id": "f39e0ae5-07cc-45b7-bece-11e390807652",
    "name": "York Chester Brewing Company",
    "brewery_type": "micro",
    "address_1": "1500 River Dr Ste 250",
    "address_2": null,
    "address_3": null,
    "city": "Belmont",
    "state_province": "North Carolina",
    "postal_code": "28012-3587",
    "country": "United States",
    "longitude": null,
    "latitude": null,
    "phone": "7047555104",
    "website_url": "http://www.yorkchesterbrew.com",
    "state": "North Carolina",
    "street": "1500 River Dr Ste 250"
  },
  {
    "id": "cfbd4b1b-f848-4f39-9525-9c2c607e7562",
    "name": "Yorkholo Brewing Co",
    "brewery_type": "brewpub",
    "address_1": "19 N Main St",
    "address_2": null,
    "address_3": null,
    "city": "Mansfield",
    "state_province": "Pennsylvania",
    "postal_code": "16933-1403",
    "country": "United States",
    "longitude": -77.07838707,
    "latitude": 41.80758509,
    "phone": "5704045805",
    "website_url": "http://www.yorkholobrewing.com",
    "state": "Pennsylvania",
    "street": "19 N Main St"
  },
  {
    "id": "76b3e4f1-7075-4881-ac9a-f5462fb44dca",
    "name": "Yorkshire Square Brewing Co.",
    "brewery_type": "micro",
    "address_1": "1109 Van Ness Ave",
    "address_2": null,
    "address_3": null,
    "city": "Torrance",
    "state_province": "California",
    "postal_code": "90501-2236",
    "country": "United States",
    "longitude": -118.3163507,
    "latitude": 33.83720085,
    "phone": "4243765115",
    "website_url": "http://www.yorkshiresquarebrewery.com",
    "state": "California",
    "street": "1109 Van Ness Ave"
  },
  {
    "id": "39070e4c-ae87-4d72-af3e-62ec19c35039",
    "name": "Young Buck Brewing",
    "brewery_type": "closed",
    "address_1": "154 S Madison St",
    "address_2": null,
    "address_3": null,
    "city": "Spokane",
    "state_province": "Washington",
    "postal_code": "99201-4542",
    "country": "United States",
    "longitude": -117.4281651,
    "latitude": 47.655248,
    "phone": "5092703306",
    "website_url": "http://www.youngbuckbrewing.com",
    "state": "Washington",
    "street": "154 S Madison St"
  },
  {
    "id": "202233a3-1731-405f-b344-8d7bb8975a1c",
    "name": "Young Lion Brewing Co",
    "brewery_type": "micro",
    "address_1": "24 Lakeshore Dr",
    "address_2": null,
    "address_3": null,
    "city": "Canandaigua",
    "state_province": "New York",
    "postal_code": "14424-2333",
    "country": "United States",
    "longitude": -77.26938995,
    "latitude": 42.87560967,
    "phone": "5852034337",
    "website_url": "http://www.younglionbrewing.com",
    "state": "New York",
    "street": "24 Lakeshore Dr"
  },
  {
    "id": "8db23191-1806-4132-b601-6699e382b565",
    "name": "Young Veterans Brewing Company",
    "brewery_type": "micro",
    "address_1": "2505 Horse Pasture Rd Ste 104",
    "address_2": null,
    "address_3": null,
    "city": "Virginia Beach",
    "state_province": "Virginia",
    "postal_code": "23453-2988",
    "country": "United States",
    "longitude": null,
    "latitude": null,
    "phone": "7576894021",
    "website_url": "http://www.yvbc.com",
    "state": "Virginia",
    "street": "2505 Horse Pasture Rd Ste 104"
  },
  {
    "id": "6b4ce9ea-b66c-455a-b284-8a629b7f8fc8",
    "name": "Young's Brewing",
    "brewery_type": "planning",
    "address_1": null,
    "address_2": null,
    "address_3": null,
    "city": "Wexford",
    "state_province": "Pennsylvania",
    "postal_code": "15090",
    "country": "United States",
    "longitude": null,
    "latitude": null,
    "phone": null,
    "website_url": null,
    "state": "Pennsylvania",
    "street": null
  },
  {
    "id": "ea88eaf9-2b9c-4073-8d37-5af9e4b8c166",
    "name": "Zaftig Brewing Co.",
    "brewery_type": "micro",
    "address_1": "7020 Huntley Rd Ste A",
    "address_2": null,
    "address_3": null,
    "city": "Columbus",
    "state_province": "Ohio",
    "postal_code": "43229-1050",
    "country": "United States",
    "longitude": -83.0003532,
    "latitude": 40.1063329,
    "phone": "6146362537",
    "website_url": "http://www.drinkzaftig.com",
    "state": "Ohio",
    "street": "7020 Huntley Rd Ste A"
  },
  {
    "id": "74576e44-ee28-43ea-870a-1f2801bb2d9c",
    "name": "Zambaldi Beer",
    "brewery_type": "contract",
    "address_1": null,
    "address_2": null,
    "address_3": null,
    "city": "Green Bay",
    "state_province": "Wisconsin",
    "postal_code": "54305-0246",
    "country": "United States",
    "longitude": null,
    "latitude": null,
    "phone": "6124707926",
    "website_url": "http://www.zambaldi.com",
    "state": "Wisconsin",
    "street": null
  },
  {
    "id": "e1278d06-ae74-4c23-9103-8ef505d24f5b",
    "name": "Zebulon Artisan Ales",
    "brewery_type": "micro",
    "address_1": "8 Merchents Alley",
    "address_2": null,
    "address_3": null,
    "city": "Weaverville",
    "state_province": "North Carolina",
    "postal_code": "28787-8860",
    "country": "United States",
    "longitude": null,
    "latitude": null,
    "phone": null,
    "website_url": "http://www.zebulonbrewing.com",
    "state": "North Carolina",
    "street": "8 Merchents Alley"
  },
  {
    "id": "800c3ec9-66e0-4bff-a3d9-13a7d1a1755e",
    "name": "Zed's Beer/Bado Brewing",
    "brewery_type": "micro",
    "address_1": "19 N Maple Ave Unit B",
    "address_2": null,
    "address_3": null,
    "city": "Marlton",
    "state_province": "New Jersey",
    "postal_code": "08053-3007",
    "country": "United States",
    "longitude": null,
    "latitude": null,
    "phone": "8568727632",
    "website_url": "http://drinkzeds.com",
    "state": "New Jersey",
    "street": "19 N Maple Ave Unit B"
  },
  {
    "id": "3b703b36-86bb-4d24-846d-80c88bf7df07",
    "name": "ZeLUS Beer Company",
    "brewery_type": "contract",
    "address_1": "120 N Meadows Rd",
    "address_2": null,
    "address_3": null,
    "city": "Medfield",
    "state_province": "Massachusetts",
    "postal_code": "02052-1594",
    "country": "United States",
    "longitude": -71.335472,
    "latitude": 42.200799,
    "phone": "6275100270",
    "website_url": "http://www.zelusbeer.com",
    "state": "Massachusetts",
    "street": "120 N Meadows Rd"
  },
  {
    "id": "1cbf4f83-1e05-4025-8517-89353a77f1ad",
    "name": "Zephyr Brewing Co",
    "brewery_type": "micro",
    "address_1": "1609 E 58th Ave Ste G",
    "address_2": null,
    "address_3": null,
    "city": "Denver",
    "state_province": "Colorado",
    "postal_code": "80216-1528",
    "country": "United States",
    "longitude": null,
    "latitude": null,
    "phone": "7202959374",
    "website_url": "http://www.zephyrbrewingco.com",
    "state": "Colorado",
    "street": "1609 E 58th Ave Ste G"
  },
  {
    "id": "698fe7e8-85e4-4482-b608-43534a67862a",
    "name": "Zephyrhills Brewing Company",
    "brewery_type": "proprietor",
    "address_1": "38530 5th Ave",
    "address_2": null,
    "address_3": null,
    "city": "Zephyrhills",
    "state_province": "Florida",
    "postal_code": "33542-4318",
    "country": "United States",
    "longitude": -82.17921783,
    "latitude": 28.23444039,
    "phone": "8137152683",
    "website_url": "http://www.zbcbeer.com",
    "state": "Florida",
    "street": "38530 5th Ave"
  },
  {
    "id": "c9de9083-60d9-46d4-9544-b20b5f5d1556",
    "name": "Zero Gravity Craft Brewery",
    "brewery_type": "micro",
    "address_1": "716 Pinte Street",
    "address_2": null,
    "address_3": null,
    "city": "Burlington",
    "state_province": "Vermont",
    "postal_code": "05401",
    "country": "United States",
    "longitude": null,
    "latitude": null,
    "phone": "8024970054",
    "website_url": null,
    "state": "Vermont",
    "street": "716 Pinte Street"
  },
  {
    "id": "f192e49e-e2c9-485a-bdee-35ce3189ef93",
    "name": "Zero Gravity Craft Brewery",
    "brewery_type": "brewpub",
    "address_1": "716 Pine St",
    "address_2": null,
    "address_3": null,
    "city": "Burlington",
    "state_province": "Vermont",
    "postal_code": "05401-4922",
    "country": "United States",
    "longitude": -73.2140363,
    "latitude": 44.4595462,
    "phone": "8024970054",
    "website_url": "http://www.zerogravitybeer.com",
    "state": "Vermont",
    "street": "716 Pine St"
  },
  {
    "id": "1d15aa31-6d4c-42c7-b5c7-e0d3fe314e1b",
    "name": "Zero One Ale House",
    "brewery_type": "brewpub",
    "address_1": "20 W Beauregard Ave",
    "address_2": null,
    "address_3": null,
    "city": "San Angelo",
    "state_province": "Texas",
    "postal_code": "76903-5833",
    "country": "United States",
    "longitude": -100.4372363,
    "latitude": 31.46245419,
    "phone": "3256535123",
    "website_url": null,
    "state": "Texas",
    "street": "20 W Beauregard Ave"
  },
  {
    "id": "1e64c937-e250-448e-962a-f2a40d6ca9db",
    "name": "Zeroday Brewing Company",
    "brewery_type": "brewpub",
    "address_1": "250 Reily St Ste 103",
    "address_2": null,
    "address_3": null,
    "city": "Harrisburg",
    "state_province": "Pennsylvania",
    "postal_code": "17102-2550",
    "country": "United States",
    "longitude": -76.8915931,
    "latitude": 40.2717061,
    "phone": "7177456218",
    "website_url": "http://www.zerodaybrewing.com",
    "state": "Pennsylvania",
    "street": "250 Reily St Ste 103"
  },
  {
    "id": "06244489-87fd-44ea-8a83-f0b3f1210314",
    "name": "Zeta Brewing Company",
    "brewery_type": "brewpub",
    "address_1": "131 1st Ave N",
    "address_2": null,
    "address_3": null,
    "city": "Jacksonville Beach",
    "state_province": "Florida",
    "postal_code": "32250-6912",
    "country": "United States",
    "longitude": -81.39029104,
    "latitude": 30.29038796,
    "phone": "9043720727",
    "website_url": "http://www.zetabrewing.com",
    "state": "Florida",
    "street": "131 1st Ave N"
  },
  {
    "id": "8a0343e4-8195-47f0-927d-c6cc751fe88e",
    "name": "Zilker Brewing Co",
    "brewery_type": "micro",
    "address_1": "1701 E 6th St",
    "address_2": null,
    "address_3": null,
    "city": "Austin",
    "state_province": "Texas",
    "postal_code": "78702-2701",
    "country": "United States",
    "longitude": -97.7245745,
    "latitude": 30.2621507,
    "phone": "5127654946",
    "website_url": "http://www.zilkerbeer.com",
    "state": "Texas",
    "street": "1701 E 6th St"
  },
  {
    "id": "169cd01b-b11c-449e-87df-9d1dd056ebf2",
    "name": "Zillicoah Beer Company",
    "brewery_type": "proprietor",
    "address_1": "870 Riverside Dr",
    "address_2": null,
    "address_3": null,
    "city": "Woodfin",
    "state_province": "North Carolina",
    "postal_code": "28804-3222",
    "country": "United States",
    "longitude": -82.57561089,
    "latitude": 35.61776547,
    "phone": "8284846502",
    "website_url": null,
    "state": "North Carolina",
    "street": "870 Riverside Dr"
  },
  {
    "id": "f4585ffb-ad5d-4fb4-a32e-ada28298796c",
    "name": "Zion Canyon Brewing Co",
    "brewery_type": "brewpub",
    "address_1": "95 Zion Park Blvd",
    "address_2": null,
    "address_3": null,
    "city": "Springdale",
    "state_province": "Utah",
    "postal_code": "84767-0420",
    "country": "United States",
    "longitude": -113.0358484,
    "latitude": 37.16063318,
    "phone": "4357720404",
    "website_url": "http://www.zioncanyonbrewingco.com",
    "state": "Utah",
    "street": "95 Zion Park Blvd"
  },
  {
    "id": "def4c1dd-dfdb-42ff-a03a-d2a00c9f3d7f",
    "name": "Zipfer Brauerei (Heineken)",
    "brewery_type": "large",
    "address_1": "Zipf 22",
    "address_2": null,
    "address_3": null,
    "city": "Zipf",
    "state_province": "Ober\u00f6sterreich",
    "postal_code": "4871",
    "country": "Austria",
    "longitude": 13.503957656337,
    "latitude": 48.036812902437,
    "phone": "+4376823600",
    "website_url": "https://www.zipfer.at",
    "state": "Ober\u00f6sterreich",
    "street": "Zipf 22"
  },
  {
    "id": "538095f5-33b7-4578-8012-429e046fee80",
    "name": "Zipline Brewing Co",
    "brewery_type": "micro",
    "address_1": "2100 Magnum Cir Ste 1",
    "address_2": null,
    "address_3": null,
    "city": "Lincoln",
    "state_province": "Nebraska",
    "postal_code": "68522-1027",
    "country": "United States",
    "longitude": -96.7512302,
    "latitude": 40.8117948,
    "phone": "4024751001",
    "website_url": "http://www.ziplinebrewing.com",
    "state": "Nebraska",
    "street": "2100 Magnum Cir Ste 1"
  },
  {
    "id": "68529922-1b8d-4629-b7d2-739f93c32d77",
    "name": "Zoiglhaus Brewing Company",
    "brewery_type": "brewpub",
    "address_1": "5716 SE 92nd Ave",
    "address_2": null,
    "address_3": null,
    "city": "Portland",
    "state_province": "Oregon",
    "postal_code": "97266-4659",
    "country": "United States",
    "longitude": -122.5679347,
    "latitude": 45.4808905,
    "phone": "9713392374",
    "website_url": "http://www.zoiglhaus.com",
    "state": "Oregon",
    "street": "5716 SE 92nd Ave"
  },
  {
    "id": "0b194fbf-8dd6-4a88-848f-4a784af05c1c",
    "name": "Zone 9 Brewing Company",
    "brewery_type": "micro",
    "address_1": "1450 Tollhouse Rd Ste 105",
    "address_2": null,
    "address_3": null,
    "city": "Clovis",
    "state_province": "California",
    "postal_code": "93611-0503",
    "country": "United States",
    "longitude": -119.6906567,
    "latitude": 36.82610331,
    "phone": "5592600539",
    "website_url": null,
    "state": "California",
    "street": "1450 Tollhouse Rd Ste 105"
  },
  {
    "id": "ec83629b-2f5d-4fae-a9fc-00ff3979c0f7",
    "name": "Zorn Brew Works",
    "brewery_type": "micro",
    "address_1": "605 E 9th St",
    "address_2": null,
    "address_3": null,
    "city": "Michigan City",
    "state_province": "Indiana",
    "postal_code": "46360-3651",
    "country": "United States",
    "longitude": -86.89216786,
    "latitude": 41.714577,
    "phone": "2193316322",
    "website_url": "http://www.zornbrewworks.com",
    "state": "Indiana",
    "street": "605 E 9th St"
  },
  {
    "id": "b636a9f8-4caa-41e2-996a-5707a9cbd220",
    "name": "Zouma\u00ef",
    "brewery_type": "micro",
    "address_1": "7 Cours Gouff\u00e9",
    "address_2": null,
    "address_3": null,
    "city": "Marseille",
    "state_province": "Bouche du Rh\u00f4ne",
    "postal_code": "13005",
    "country": "France",
    "longitude": 5.38658404,
    "latitude": 43.28642888,
    "phone": "953870379",
    "website_url": "https://www.brasseriezoumai.fr/",
    "state": "Bouche du Rh\u00f4ne",
    "street": "7 Cours Gouff\u00e9"
  },
  {
    "id": "81c373d3-cacc-4f69-a716-3dfe919a3b42",
    "name": "Zum Bier",
    "brewery_type": "micro",
    "address_1": "3232 E Monroe St",
    "address_2": null,
    "address_3": null,
    "city": "Waukegan",
    "state_province": "Illinois",
    "postal_code": "60085",
    "country": "United States",
    "longitude": null,
    "latitude": null,
    "phone": "8474207313",
    "website_url": "http://www.zumbier.com",
    "state": "Illinois",
    "street": "3232 E Monroe St"
  },
  {
    "id": "95f923e4-e98a-498c-a652-41313f838358",
    "name": "Zuni Street Brewing Company",
    "brewery_type": "micro",
    "address_1": "2355 W 29th Ave",
    "address_2": null,
    "address_3": null,
    "city": "Denver",
    "state_province": "Colorado",
    "postal_code": "80211-3753",
    "country": "United States",
    "longitude": -105.015409,
    "latitude": 39.7585929,
    "phone": "3038626525",
    "website_url": "http://www.zunistreetbrewing.com",
    "state": "Colorado",
    "street": "2355 W 29th Ave"
  },
  {
    "id": "720a84ad-c18f-4181-8d21-35eb6b80bec0",
    "name": "ZwanzigZ Brewing",
    "brewery_type": "brewpub",
    "address_1": "1038 Lafayette Ave",
    "address_2": null,
    "address_3": null,
    "city": "Columbus",
    "state_province": "Indiana",
    "postal_code": "47201-5756",
    "country": "United States",
    "longitude": -85.91883647,
    "latitude": 39.20865674,
    "phone": "8123760200",
    "website_url": "http://www.zwanzigz.com",
    "state": "Indiana",
    "street": "1038 Lafayette Ave"
  },
  {
    "id": "a602e9ea-f0b3-4a40-8aa8-02e0aace191c",
    "name": "Zwei Brewing Co",
    "brewery_type": "micro",
    "address_1": "4612 S Mason St Ste 120",
    "address_2": null,
    "address_3": null,
    "city": "Fort Collins",
    "state_province": "Colorado",
    "postal_code": "80525-3794",
    "country": "United States",
    "longitude": null,
    "latitude": null,
    "phone": "9702232482",
    "website_url": "http://www.zweibruderbrewing.com",
    "state": "Colorado",
    "street": "4612 S Mason St Ste 120"
  },
  {
    "id": "8d18da7a-1ed9-4eb4-b87c-ac444aa81e14",
    "name": "Zydeco Brew Werks",
    "brewery_type": "brewpub",
    "address_1": "1902 E 7th Ave",
    "address_2": null,
    "address_3": null,
    "city": "Tampa",
    "state_province": "Florida",
    "postal_code": "33605-3810",
    "country": "United States",
    "longitude": -82.43783229,
    "latitude": 27.9603438,
    "phone": "8132524541",
    "website_url": null,
    "state": "Florida",
    "street": "1902 E 7th Ave"
  },
  {
    "id": "aabc26d3-4870-42e9-ae09-1333f85c3246",
    "name": "Zymos Brewing",
    "brewery_type": "micro",
    "address_1": "5180 S Lowell Blvd",
    "address_2": null,
    "address_3": null,
    "city": "Littleton",
    "state_province": "Colorado",
    "postal_code": "80123",
    "country": "United States",
    "longitude": -105.0346064,
    "latitude": 39.6229711,
    "phone": "7206645280",
    "website_url": "http://zymosbrewing.com",
    "state": "Colorado",
    "street": "5180 S Lowell Blvd"
  },
  {
    "id": "82234375-c7fa-4208-8878-b661b7a1e6aa",
    "name": "Zymurcracy Beer Company",
    "brewery_type": "micro",
    "address_1": "4624 Creek Dr Ste 6",
    "address_2": null,
    "address_3": null,
    "city": "Rapid City",
    "state_province": "South Dakota",
    "postal_code": "57701-2165",
    "country": "United States",
    "longitude": -103.1795198,
    "latitude": 44.03811547,
    "phone": "6057910411",
    "website_url": "http://www.zymurcracybeer.com",
    "state": "South Dakota",
    "street": "4624 Creek Dr Ste 6"
  },
  {
    "id": "e9d9a4ad-9583-4b07-846a-d99aeb5ea706",
    "name": "Zymurgy Brew Works",
    "brewery_type": "micro",
    "address_1": "22755 Hawthorne Blvd",
    "address_2": null,
    "address_3": null,
    "city": "Torrance",
    "state_province": "California",
    "postal_code": "90505-3613",
    "country": "United States",
    "longitude": -118.3524672,
    "latitude": 33.8635371,
    "phone": "3106502474",
    "website_url": "http://www.zymurgybrewworks.com",
    "state": "California",
    "street": "22755 Hawthorne Blvd"
  }
]