[
  {
    "id": "5f945959-5237-4b15-83f7-8f8c73e4c50c",
    "name": "Harpers Restaurant and Brewpub",
    "brewery_type": "brewpub",
    "address_1": "131 Albert Ave",
    "address_2": null,
    "address_3": null,
    "city": "East Lansing",
    "state_province": "Michigan",
    "postal_code": "48823-4315",
    "country": "United States",
    "longitude": -84.48282452,
    "latitude": 42.73626665,
    "phone": "5173334040",
    "website_url": "http://www.harpersbrewpub.com",
    "state": "Michigan",
    "street": "131 Albert Ave"
  },
  {
    "id": "0b2584a1-609c-41f3-a051-f3f46158cd5b",
    "name": "Harpoon Brewery",
    "brewery_type": "brewpub",
    "address_1": "215 Canal St",
    "address_2": null,
    "address_3": null,
    "city": "Manchester",
    "state_province": "New Hampshire",
    "postal_code": "03101",
    "country": "United States",
    "longitude": null,
    "latitude": null,
    "phone": "6039453797",
    "website_url": null,
    "state": "New Hampshire",
    "street": "215 Canal St"
  },
  {
    "id": "3b88a2c7-a7be-48e9-9da9-590482876f57",
    "name": "Harpoon Brewery",
    "brewery_type": "regional",
    "address_1": "306 Northern Ave Ste 2",
    "address_2": null,
    "address_3": null,
    "city": "Boston",
    "state_province": "Massachusetts",
    "postal_code": "02210-2367",
    "country": "United States",
    "longitude": -71.0348293,
    "latitude": 42.3465637,
    "phone": "6175749551",
    "website_url": "http://www.harpoonbrewery.com",
    "state": "Massachusetts",
    "street": "306 Northern Ave Ste 2"
  },
  {
    "id": "f5157980-ddcd-4b1e-ad28-c3430ab6126f",
    "name": "Harpoon Brewery - Vermont",
    "brewery_type": "regional",
    "address_1": "336 Ruth Carney Dr",
    "address_2": null,
    "address_3": null,
    "city": "Windsor",
    "state_province": "Vermont",
    "postal_code": "05089-9419",
    "country": "United States",
    "longitude": -72.40380616,
    "latitude": 43.51478045,
    "phone": "8026745491",
    "website_url": "http://www.harpoonbrewery.com",
    "state": "Vermont",
    "street": "336 Ruth Carney Dr"
  },
  {
    "id": "8d425e76-0127-4b57-9ddf-b9be4b6ab068",
    "name": "Harsens Island Beer Co.",
    "brewery_type": "brewpub",
    "address_1": "808 Gratiot Blvd",
    "address_2": null,
    "address_3": null,
    "city": "Marysville",
    "state_province": "Michigan",
    "postal_code": "48040-1127",
    "country": "United States",
    "longitude": -82.47149301,
    "latitude": 42.92247389,
    "phone": null,
    "website_url": null,
    "state": "Michigan",
    "street": "808 Gratiot Blvd"
  },
  {
    "id": "3139597e-7646-47c6-aca5-bc867653e21c",
    "name": "Harty Brewing Company",
    "brewery_type": "brewpub",
    "address_1": "146 Walden Way",
    "address_2": null,
    "address_3": null,
    "city": "Mechanicsburg",
    "state_province": "Pennsylvania",
    "postal_code": "17050-4105",
    "country": "United States",
    "longitude": null,
    "latitude": null,
    "phone": null,
    "website_url": "http://www.hartybrewco.com",
    "state": "Pennsylvania",
    "street": "146 Walden Way"
  },
  {
    "id": "4239bcad-284c-462d-9b0c-c8dc02b30627",
    "name": "Harvest Moon Brewery/Cafe",
    "brewery_type": "brewpub",
    "address_1": "392 George St",
    "address_2": null,
    "address_3": null,
    "city": "New Brunswick",
    "state_province": "New Jersey",
    "postal_code": "08901-2018",
    "country": "United States",
    "longitude": -74.4442058,
    "latitude": 40.4962516,
    "phone": "7322496666",
    "website_url": "http://www.harvestmoonbrewery.com",
    "state": "New Jersey",
    "street": "392 George St"
  },
  {
    "id": "21a8c5a0-6c7d-4176-bf02-4faaaa54a7d1",
    "name": "Harvest Moon Brewing",
    "brewery_type": "micro",
    "address_1": "7 5th St S",
    "address_2": null,
    "address_3": null,
    "city": "Belt",
    "state_province": "Montana",
    "postal_code": "59412-0510",
    "country": "United States",
    "longitude": -110.9298527,
    "latitude": 47.38221919,
    "phone": "4062773188",
    "website_url": "http://www.harvestmoonbrew.com",
    "state": "Montana",
    "street": "7 5th St S"
  },
  {
    "id": "428cf3ce-3f8f-481c-bbd9-562eb61545df",
    "name": "Harvest Seasonal Kitchen",
    "brewery_type": "brewpub",
    "address_1": "112 E Louisiana St",
    "address_2": null,
    "address_3": null,
    "city": "McKinney",
    "state_province": "Texas",
    "postal_code": "75069-4412",
    "country": "United States",
    "longitude": -96.615387,
    "latitude": 33.197177,
    "phone": "2147260251",
    "website_url": "http://www.harvesttx.com",
    "state": "Texas",
    "street": "112 E Louisiana St"
  },
  {
    "id": "3ec0c0c6-3ecd-481f-b64a-018e6ab2a52b",
    "name": "Harveys & Son",
    "brewery_type": "large",
    "address_1": "Cliffe High Street",
    "address_2": null,
    "address_3": null,
    "city": "Lewes",
    "state_province": "East Sussex",
    "postal_code": "BN7 2AH",
    "country": "England",
    "longitude": 0.01749,
    "latitude": 50.874229,
    "phone": "1273480209",
    "website_url": "https://www.harveys.org.uk/",
    "state": "East Sussex",
    "street": "Cliffe High Street"
  },
  {
    "id": "277de331-35c8-4efa-8248-22dd81e768d9",
    "name": "Hasseman Brewing",
    "brewery_type": "micro",
    "address_1": "115 S 6th St",
    "address_2": null,
    "address_3": null,
    "city": "Coshocton",
    "state_province": "Ohio",
    "postal_code": "43812-1625",
    "country": "United States",
    "longitude": -81.86176557,
    "latitude": 40.27239943,
    "phone": "7402941364",
    "website_url": "http://www.hassemanbrewing.com",
    "state": "Ohio",
    "street": "115 S 6th St"
  },
  {
    "id": "99e8f097-0412-43ec-849e-e95add4bd3c2",
    "name": "Hatchet Brewing Company",
    "brewery_type": "planning",
    "address_1": null,
    "address_2": null,
    "address_3": null,
    "city": "Southern Pines",
    "state_province": "North Carolina",
    "postal_code": "28387-6164",
    "country": "United States",
    "longitude": null,
    "latitude": null,
    "phone": "5715334898",
    "website_url": "http://www.hatchetbrewing.com",
    "state": "North Carolina",
    "street": null
  },
  {
    "id": "6d32ae11-f633-45ad-b018-b100c588c69d",
    "name": "Haw River Farmhouse Ales",
    "brewery_type": "micro",
    "address_1": "1713 Saxapahaw-Bethlehem Church Rd",
    "address_2": null,
    "address_3": null,
    "city": "Saxapahaw",
    "state_province": "North Carolina",
    "postal_code": "27340-0390",
    "country": "United States",
    "longitude": -79.31872,
    "latitude": 35.946942,
    "phone": "3365259270",
    "website_url": "http://www.hawriverales.com",
    "state": "North Carolina",
    "street": "1713 Saxapahaw-Bethlehem Church Rd"
  },
  {
    "id": "6244855f-97dd-487a-bb90-348b8c3b26f5",
    "name": "Hawaii Nui Brewing",
    "brewery_type": "closed",
    "address_1": "275 E Kawili St",
    "address_2": null,
    "address_3": null,
    "city": "Hilo",
    "state_province": "Hawaii",
    "postal_code": "96720-5074",
    "country": "United States",
    "longitude": -155.0697885,
    "latitude": 19.70587596,
    "phone": "8089348211",
    "website_url": "http://www.hawaiinuibrewing.com",
    "state": "Hawaii",
    "street": "275 E Kawili St"
  },
  {
    "id": "ba11eb1c-3f66-4ac2-8d49-27b7abab4b49",
    "name": "Hawk Moth Brewing Co",
    "brewery_type": "planning",
    "address_1": null,
    "address_2": null,
    "address_3": null,
    "city": "rogers",
    "state_province": "Arkansas",
    "postal_code": "72756",
    "country": "United States",
    "longitude": -94.1185366,
    "latitude": 36.3320197,
    "phone": "4796164800",
    "website_url": null,
    "state": "Arkansas",
    "street": null
  },
  {
    "id": "541b415e-b1ff-4b39-8af8-6a5b7dd6f27b",
    "name": "HawkPeak Brewing Company DBA Grand Haven Brew House",
    "brewery_type": "brewpub",
    "address_1": "101 Washington Ave # 2B",
    "address_2": null,
    "address_3": null,
    "city": "Grand Haven",
    "state_province": "Michigan",
    "postal_code": "49417-1302",
    "country": "United States",
    "longitude": null,
    "latitude": null,
    "phone": "6166072060",
    "website_url": "http://www.grandhavenbrewhouse.com",
    "state": "Michigan",
    "street": "101 Washington Ave # 2B"
  },
  {
    "id": "60540b03-2716-4e2f-b208-fe3b2d2be38c",
    "name": "Hawksbill Brewing Company",
    "brewery_type": "micro",
    "address_1": "22 Zerkel St",
    "address_2": null,
    "address_3": null,
    "city": "Luray",
    "state_province": "Virginia",
    "postal_code": "22835-1913",
    "country": "United States",
    "longitude": -78.45970045,
    "latitude": 38.66335774,
    "phone": "5408605608",
    "website_url": "http://www.hawksbillbrewing.com",
    "state": "Virginia",
    "street": "22 Zerkel St"
  },
  {
    "id": "3404588d-3a65-4f24-ab30-8d738ac3d108",
    "name": "Hay Camp Brewing Company",
    "brewery_type": "micro",
    "address_1": "601 Kansas City St",
    "address_2": null,
    "address_3": null,
    "city": "Rapid City",
    "state_province": "South Dakota",
    "postal_code": "57701-3622",
    "country": "United States",
    "longitude": -103.227816,
    "latitude": 44.07889,
    "phone": "6057181167",
    "website_url": "http://www.haycampbrewing.com",
    "state": "South Dakota",
    "street": "601 Kansas City St"
  },
  {
    "id": "fd05cf2c-9058-491f-a77f-b17b767ec0da",
    "name": "Hayes Public House",
    "brewery_type": "micro",
    "address_1": "112 1st St S",
    "address_2": null,
    "address_3": null,
    "city": "Buffalo",
    "state_province": "Minnesota",
    "postal_code": "55313-1402",
    "country": "United States",
    "longitude": -93.87452922,
    "latitude": 45.17084806,
    "phone": "7637466389",
    "website_url": "http://www.hayespublichouse.com",
    "state": "Minnesota",
    "street": "112 1st St S"
  },
  {
    "id": "f6d2a5d3-96af-47ff-b3d3-a38a3d6c1e0d",
    "name": "Hayesville Brewing Co",
    "brewery_type": "brewpub",
    "address_1": "1568 Highway 64 W",
    "address_2": null,
    "address_3": null,
    "city": "Hayesville",
    "state_province": "North Carolina",
    "postal_code": "28904-4651",
    "country": "United States",
    "longitude": null,
    "latitude": null,
    "phone": "8288356010",
    "website_url": "http://www.facebook.com/leisa5678/",
    "state": "North Carolina",
    "street": "1568 Highway 64 W"
  },
  {
    "id": "3b737ad4-2770-48e6-8897-644fa1886e7a",
    "name": "Haymarket Brewery and Taproom",
    "brewery_type": "micro",
    "address_1": "9301 Red Arrow Hwy",
    "address_2": null,
    "address_3": null,
    "city": "Bridgman",
    "state_province": "Michigan",
    "postal_code": "49106-9558",
    "country": "United States",
    "longitude": -86.55947806,
    "latitude": 41.94715363,
    "phone": "3126380707",
    "website_url": null,
    "state": "Michigan",
    "street": "9301 Red Arrow Hwy"
  },
  {
    "id": "51c00792-038b-4a5a-af2c-efade94f169f",
    "name": "Haymarket Pub and Brewery",
    "brewery_type": "brewpub",
    "address_1": "737 W Randolph St",
    "address_2": null,
    "address_3": null,
    "city": "Chicago",
    "state_province": "Illinois",
    "postal_code": "60661-2103",
    "country": "United States",
    "longitude": -87.6472956,
    "latitude": 41.8841895,
    "phone": "3126380707",
    "website_url": "http://www.haymarketbrewing.com",
    "state": "Illinois",
    "street": "737 W Randolph St"
  },
  {
    "id": "017c8df5-27bd-4812-b42a-6d5e3e555ecf",
    "name": "Haywire Brewing Company",
    "brewery_type": "micro",
    "address_1": "12125 Treosti Rd",
    "address_2": null,
    "address_3": null,
    "city": "Snohomish",
    "state_province": "Washington",
    "postal_code": "98290-6918",
    "country": "United States",
    "longitude": -122.0812498,
    "latitude": 47.8860915,
    "phone": "3605682739",
    "website_url": "http://www.haywirebrewery.com",
    "state": "Washington",
    "street": "12125 Treosti Rd"
  },
  {
    "id": "52bfedca-f266-4c5f-9272-9cba60de9587",
    "name": "Hazelwood Brewing Company",
    "brewery_type": "planning",
    "address_1": null,
    "address_2": null,
    "address_3": null,
    "city": "Lexington",
    "state_province": "South Carolina",
    "postal_code": "29072",
    "country": "United States",
    "longitude": null,
    "latitude": null,
    "phone": "8034765845",
    "website_url": "http://Hazelwoodbeer.com",
    "state": "South Carolina",
    "street": null
  },
  {
    "id": "165d44f6-04a6-4034-8e86-cb99929f46d2",
    "name": "HeadFlyer Brewing",
    "brewery_type": "micro",
    "address_1": "861 E Hennepin Ave",
    "address_2": null,
    "address_3": null,
    "city": "Minneapolis",
    "state_province": "Minnesota",
    "postal_code": "55414-1201",
    "country": "United States",
    "longitude": -93.2437012,
    "latitude": 44.9917415,
    "phone": "6125676345",
    "website_url": "http://www.headflyerbrewing.com",
    "state": "Minnesota",
    "street": "861 E Hennepin Ave"
  },
  {
    "id": "712e3674-5d9b-4f12-9c63-0f64311a6024",
    "name": "Headlands Brewing Company",
    "brewery_type": "proprietor",
    "address_1": null,
    "address_2": null,
    "address_3": null,
    "city": "Mill Valley",
    "state_province": "California",
    "postal_code": "94941-2003",
    "country": "United States",
    "longitude": -122.5449763,
    "latitude": 37.9060368,
    "phone": "4158604226",
    "website_url": "http://www.headlandsbrewing.com",
    "state": "California",
    "street": null
  },
  {
    "id": "81292878-bdc3-40ab-8237-c84d384c2b6d",
    "name": "Headless Mumby Brewing",
    "brewery_type": "micro",
    "address_1": "232 Division St NW",
    "address_2": null,
    "address_3": null,
    "city": "Olympia",
    "state_province": "Washington",
    "postal_code": "98502",
    "country": "United States",
    "longitude": -122.92562,
    "latitude": 47.04735502,
    "phone": "3607423880",
    "website_url": "https://www.headlessmumbybrewing.com",
    "state": "Washington",
    "street": "232 Division St NW"
  },
  {
    "id": "023d4223-5217-4834-a4c6-8469b395a900",
    "name": "HeadStrong Brewery",
    "brewery_type": "closed",
    "address_1": "126 N 3rd St",
    "address_2": null,
    "address_3": null,
    "city": "Douglas",
    "state_province": "Wyoming",
    "postal_code": "82633-2163",
    "country": "United States",
    "longitude": -105.3842083,
    "latitude": 42.76025521,
    "phone": "3073514061",
    "website_url": "http://www.headstrongbrewery.com",
    "state": "Wyoming",
    "street": "126 N 3rd St"
  },
  {
    "id": "856d9ba1-2d2b-4f4c-a4f5-596b273ce762",
    "name": "Headtrip Brewery",
    "brewery_type": "micro",
    "address_1": "1634 Norton Rd",
    "address_2": null,
    "address_3": null,
    "city": "Stow",
    "state_province": "Ohio",
    "postal_code": "44224-1412",
    "country": "United States",
    "longitude": -81.442913,
    "latitude": 41.202942,
    "phone": null,
    "website_url": "http://www.headtripbrewery.com",
    "state": "Ohio",
    "street": "1634 Norton Rd"
  },
  {
    "id": "48982837-dca0-4eae-824b-5b6194d9d1b3",
    "name": "Headworks Brewing",
    "brewery_type": "micro",
    "address_1": "1110 Marshall Ave",
    "address_2": null,
    "address_3": null,
    "city": "Enumclaw",
    "state_province": "Washington",
    "postal_code": "98022-3525",
    "country": "United States",
    "longitude": -121.987758,
    "latitude": 47.205096,
    "phone": "2532635318",
    "website_url": "http://www.headworksbrewing.com",
    "state": "Washington",
    "street": "1110 Marshall Ave"
  },
  {
    "id": "107e6673-b345-431f-83c5-98f04b61ad44",
    "name": "Heart & Solar Brewing",
    "brewery_type": "planning",
    "address_1": null,
    "address_2": null,
    "address_3": null,
    "city": "Parkton",
    "state_province": "Maryland",
    "postal_code": "21120-9253",
    "country": "United States",
    "longitude": null,
    "latitude": null,
    "phone": "4104938030",
    "website_url": "http://www.heartandsolarbrewing.com",
    "state": "Maryland",
    "street": null
  },
  {
    "id": "59b15388-72c7-4a2d-895a-7382c5b2d125",
    "name": "Heartland Brewery",
    "brewery_type": "contract",
    "address_1": "35 Union Sq W Frnt 1",
    "address_2": null,
    "address_3": null,
    "city": "New York",
    "state_province": "New York",
    "postal_code": "10003-3200",
    "country": "United States",
    "longitude": null,
    "latitude": null,
    "phone": "2126453400",
    "website_url": "http://www.heartlandbrewery.com",
    "state": "New York",
    "street": "35 Union Sq W Frnt 1"
  },
  {
    "id": "2036b68f-d586-4a89-9847-7053011df006",
    "name": "Heater Allen Brewery",
    "brewery_type": "micro",
    "address_1": "907 NE 10th Ave",
    "address_2": null,
    "address_3": null,
    "city": "McMinnville",
    "state_province": "Oregon",
    "postal_code": "97128-4003",
    "country": "United States",
    "longitude": -123.1879728,
    "latitude": 45.21407234,
    "phone": "5034724898",
    "website_url": "http://www.heaterallen.com",
    "state": "Oregon",
    "street": "907 NE 10th Ave"
  },
  {
    "id": "0e33f372-58f3-4a7e-9126-18898e957351",
    "name": "Heathen Brewers Partnership",
    "brewery_type": "micro",
    "address_1": "The Broadway",
    "address_2": null,
    "address_3": null,
    "city": "Haywards Heath",
    "state_province": "West Sussex",
    "postal_code": "RH16 3AS",
    "country": "England",
    "longitude": -0.105976,
    "latitude": 51.000799,
    "phone": "1444456217",
    "website_url": "http://www.heathenbrewers.co.uk/",
    "state": "West Sussex",
    "street": "The Broadway"
  },
  {
    "id": "b5295ee6-9e4c-406b-a84e-6aaf544ad1c8",
    "name": "Heathen Brewing",
    "brewery_type": "micro",
    "address_1": "2225 NE 119th St Ste 109",
    "address_2": null,
    "address_3": null,
    "city": "Vancouver",
    "state_province": "Washington",
    "postal_code": "98686",
    "country": "United States",
    "longitude": -122.6482176,
    "latitude": 45.70807949,
    "phone": "3607265239",
    "website_url": "https://heathenbrewing.com",
    "state": "Washington",
    "street": "2225 NE 119th St Ste 109"
  },
  {
    "id": "927ffb27-e24f-48d9-b1f4-20a4eb1b9e75",
    "name": "Heaven & Ale Brewing Co",
    "brewery_type": "brewpub",
    "address_1": "300 Cherokee Blvd Ste 101",
    "address_2": null,
    "address_3": null,
    "city": "Chattanooga",
    "state_province": "Tennessee",
    "postal_code": "37405-3811",
    "country": "United States",
    "longitude": -85.311847,
    "latitude": 35.064349,
    "phone": "4044416434",
    "website_url": "http://www.heavenandalebrewing.com",
    "state": "Tennessee",
    "street": "300 Cherokee Blvd Ste 101"
  },
  {
    "id": "04f047c3-12d2-414e-a2f0-bcc7d600126a",
    "name": "Heaven's Gate Brewery",
    "brewery_type": "micro",
    "address_1": "106 S Main St",
    "address_2": null,
    "address_3": null,
    "city": "Riggins",
    "state_province": "Idaho",
    "postal_code": "83549",
    "country": "United States",
    "longitude": -116.314621,
    "latitude": 45.422235,
    "phone": "2086282745",
    "website_url": null,
    "state": "Idaho",
    "street": "106 S Main St"
  },
  {
    "id": "2fe35f7a-aa03-42c4-a6e2-a418ea36b23a",
    "name": "Heavenly Goat Brewing Company",
    "brewery_type": "brewpub",
    "address_1": "7321 Heritage Square Dr Ste 190",
    "address_2": null,
    "address_3": null,
    "city": "Granger",
    "state_province": "Indiana",
    "postal_code": "46530-5660",
    "country": "United States",
    "longitude": null,
    "latitude": null,
    "phone": "5742178428",
    "website_url": "http://www.heavenlygoatbrew.com",
    "state": "Indiana",
    "street": "7321 Heritage Square Dr Ste 190"
  },
  {
    "id": "c8d6c8d2-8e70-4e37-9e97-7311e04b396d",
    "name": "Heavenly Vineyards",
    "brewery_type": "micro",
    "address_1": "15946 Jefferson Rd",
    "address_2": null,
    "address_3": null,
    "city": "Morley",
    "state_province": "Michigan",
    "postal_code": "49336-9705",
    "country": "United States",
    "longitude": -85.463503,
    "latitude": 43.489827,
    "phone": "6167102751",
    "website_url": "http://heavenlyvineyards.weebly.com",
    "state": "Michigan",
    "street": "15946 Jefferson Rd"
  },
  {
    "id": "12b869d0-0f6e-4cff-a6c6-04532f770c00",
    "name": "Heavier Than Air Brewing Co",
    "brewery_type": "micro",
    "address_1": "497 Miamisburg Centerville Rd",
    "address_2": null,
    "address_3": null,
    "city": "Centerville",
    "state_province": "Ohio",
    "postal_code": "45459-4753",
    "country": "United States",
    "longitude": -84.1733314,
    "latitude": 39.62796812,
    "phone": "9374331500",
    "website_url": "http://www.heavierthanairbrewing.com",
    "state": "Ohio",
    "street": "497 Miamisburg Centerville Rd"
  },
  {
    "id": "c688395f-2c34-45cb-8628-4f8ae48f8461",
    "name": "Heavily Brewing Company",
    "brewery_type": "micro",
    "address_1": "2471 Hayes Rd",
    "address_2": null,
    "address_3": null,
    "city": "Montour Falls",
    "state_province": "New York",
    "postal_code": "14865",
    "country": "United States",
    "longitude": -76.82625029,
    "latitude": 42.35452911,
    "phone": "6075352739",
    "website_url": "http://www.heavilybrewingcompany.com",
    "state": "New York",
    "street": "2471 Hayes Rd"
  },
  {
    "id": "b0860796-6b61-4e66-bc0e-4c50a273d385",
    "name": "Heavy Brewing",
    "brewery_type": "micro",
    "address_1": "20333 Patton St",
    "address_2": null,
    "address_3": null,
    "city": "Gretna",
    "state_province": "Nebraska",
    "postal_code": "68028-8048",
    "country": "United States",
    "longitude": -96.238132915289,
    "latitude": 41.198831738115,
    "phone": "5316008245",
    "website_url": "https://heavybrewing.beer",
    "state": "Nebraska",
    "street": "20333 Patton St"
  },
  {
    "id": "0d94f07a-6372-4069-9c0a-0d52cc3a1616",
    "name": "Heavy Reel Brewing",
    "brewery_type": "micro",
    "address_1": "613 Boulevard",
    "address_2": null,
    "address_3": null,
    "city": "Seaside Heights",
    "state_province": "New Jersey",
    "postal_code": "08751",
    "country": "United States",
    "longitude": null,
    "latitude": null,
    "phone": "7322502879",
    "website_url": "http://www.heavyreelbrewingco.com",
    "state": "New Jersey",
    "street": "613 Boulevard"
  },
  {
    "id": "ae561941-e5ed-4f23-87cb-10aafd105bb4",
    "name": "Heavy Riff Brewing",
    "brewery_type": "brewpub",
    "address_1": "6413 Clayton Ave",
    "address_2": null,
    "address_3": null,
    "city": "Saint Louis",
    "state_province": "Missouri",
    "postal_code": "63139-3305",
    "country": "United States",
    "longitude": -90.29310035,
    "latitude": 38.62871654,
    "phone": "3148286148",
    "website_url": "http://www.heavyriffbrewing.com",
    "state": "Missouri",
    "street": "6413 Clayton Ave"
  },
  {
    "id": "856b578f-849c-463b-85e8-6e1ad852d960",
    "name": "Heavy Seas Beer",
    "brewery_type": "regional",
    "address_1": "4615 Hollins Ferry Rd Ste B",
    "address_2": null,
    "address_3": null,
    "city": "Baltimore",
    "state_province": "Maryland",
    "postal_code": "21227-4624",
    "country": "United States",
    "longitude": null,
    "latitude": null,
    "phone": "4102477822",
    "website_url": "http://www.hsbeer.com",
    "state": "Maryland",
    "street": "4615 Hollins Ferry Rd Ste B"
  },
  {
    "id": "24a4e05d-e5f7-4864-a030-a251d1803d82",
    "name": "Heirloom Rustic Ales",
    "brewery_type": "micro",
    "address_1": "2113 E Admiral Blvd",
    "address_2": null,
    "address_3": null,
    "city": "Tulsa",
    "state_province": "Oklahoma",
    "postal_code": "74110",
    "country": "United States",
    "longitude": -95.9610136,
    "latitude": 36.1601381,
    "phone": "9182928757",
    "website_url": "http://www.heirloomrusticales.com",
    "state": "Oklahoma",
    "street": "2113 E Admiral Blvd"
  },
  {
    "id": "528481d4-f3c8-479a-aad9-fce4b9cfe36a",
    "name": "Heist Brewery",
    "brewery_type": "brewpub",
    "address_1": "2909 N Davidson St",
    "address_2": null,
    "address_3": null,
    "city": "Charlotte",
    "state_province": "North Carolina",
    "postal_code": "28205-1190",
    "country": "United States",
    "longitude": -80.80904551,
    "latitude": 35.2451928,
    "phone": "7043758260",
    "website_url": "http://www.heistbrewery.com",
    "state": "North Carolina",
    "street": "2909 N Davidson St"
  },
  {
    "id": "fcffd398-7422-4848-9963-849cc9013012",
    "name": "Helderberg Brewery",
    "brewery_type": "micro",
    "address_1": "63 Huyck Rd",
    "address_2": null,
    "address_3": null,
    "city": "Rensselaerville",
    "state_province": "New York",
    "postal_code": "12147-2108",
    "country": "United States",
    "longitude": null,
    "latitude": null,
    "phone": "5187975100",
    "website_url": "http://careyinstitute.org/programs/sustainable-communities/helderberg-brewery-taproom/",
    "state": "New York",
    "street": "63 Huyck Rd"
  },
  {
    "id": "074f4fa7-4f79-44e0-9bcd-e071f5c0e987",
    "name": "Helderberg Mountain Brewing Company",
    "brewery_type": "micro",
    "address_1": "83 Main St",
    "address_2": null,
    "address_3": null,
    "city": "East Berne",
    "state_province": "New York",
    "postal_code": "12059-2020",
    "country": "United States",
    "longitude": -74.07306079,
    "latitude": 42.61509627,
    "phone": "5189373606",
    "website_url": "http://www.helderbergmountainbrewingcompany.com",
    "state": "New York",
    "street": "83 Main St"
  },
  {
    "id": "d9b61c9d-ec23-4ec7-b549-32cc5d7404a9",
    "name": "Helicon Brewing",
    "brewery_type": "micro",
    "address_1": "102 Union Ave",
    "address_2": null,
    "address_3": null,
    "city": "Oakdale",
    "state_province": "Pennsylvania",
    "postal_code": "15071-1328",
    "country": "United States",
    "longitude": -80.1847167,
    "latitude": 40.39628695,
    "phone": "7246934204",
    "website_url": "http://heliconbrewing.com",
    "state": "Pennsylvania",
    "street": "102 Union Ave"
  }
]