[
  {
    "id": "f560d7a7-7367-4aa8-a0ed-61e52bb081c9",
    "name": "Intercourse Brewing Co",
    "brewery_type": "contract",
    "address_1": "4166 Ironbridge Dr",
    "address_2": null,
    "address_3": null,
    "city": "Collegeville",
    "state_province": "Pennsylvania",
    "postal_code": "19426-1188",
    "country": "United States",
    "longitude": null,
    "latitude": null,
    "phone": "6108129426",
    "website_url": "http://www.intercoursebrewingco.com",
    "state": "Pennsylvania",
    "street": "4166 Ironbridge Dr"
  },
  {
    "id": "e3867dfa-d22e-4091-996a-725df25409d3",
    "name": "Intergalactic Brewing Co",
    "brewery_type": "micro",
    "address_1": "9715 Carroll Centre Rd #107",
    "address_2": null,
    "address_3": null,
    "city": "San Diego",
    "state_province": "California",
    "postal_code": "92126-6507",
    "country": "United States",
    "longitude": -117.1223493,
    "latitude": 32.89873279,
    "phone": "8587500601",
    "website_url": "http://www.intergalacticbrew.com",
    "state": "California",
    "street": "9715 Carroll Centre Rd #107"
  },
  {
    "id": "848d84a2-bcb7-4b85-b659-99efe94293fb",
    "name": "Intermission Beer Company",
    "brewery_type": "micro",
    "address_1": "10089 Brook Rd unit A",
    "address_2": null,
    "address_3": null,
    "city": "Glen Allen",
    "state_province": "Virginia",
    "postal_code": "23059",
    "country": "United States",
    "longitude": null,
    "latitude": null,
    "phone": "8045850405",
    "website_url": "https://www.intermissionbeer.com/",
    "state": "Virginia",
    "street": "10089 Brook Rd unit A"
  },
  {
    "id": "3b174e82-0a69-43c6-9b47-94cd039c59c3",
    "name": "Intersect Brewing",
    "brewery_type": "micro",
    "address_1": "2160 W Drake Rd Unit A1",
    "address_2": null,
    "address_3": null,
    "city": "Fort Collins",
    "state_province": "Colorado",
    "postal_code": "80526-1486",
    "country": "United States",
    "longitude": null,
    "latitude": null,
    "phone": "9706822041",
    "website_url": "http://www.intersectbrewing.com",
    "state": "Colorado",
    "street": "2160 W Drake Rd Unit A1"
  },
  {
    "id": "220200a7-c8b3-481a-8c60-ede62fe291c0",
    "name": "Intervention Brewing Company, LLC",
    "brewery_type": "planning",
    "address_1": null,
    "address_2": null,
    "address_3": null,
    "city": "Irving",
    "state_province": "Texas",
    "postal_code": "75061-8826",
    "country": "United States",
    "longitude": null,
    "latitude": null,
    "phone": "2147633070",
    "website_url": null,
    "state": "Texas",
    "street": null
  },
  {
    "id": "c5607e29-ab4c-4475-aba5-cf5538bd7df0",
    "name": "Intracoastal Brewing Co.",
    "brewery_type": "micro",
    "address_1": "652 W Eau Gallie Blvd",
    "address_2": null,
    "address_3": null,
    "city": "Melbourne",
    "state_province": "Florida",
    "postal_code": "32935-6509",
    "country": "United States",
    "longitude": -80.7039168,
    "latitude": 28.1206522,
    "phone": "3218727395",
    "website_url": "http://www.intracoastalbrewingcompany.com",
    "state": "Florida",
    "street": "652 W Eau Gallie Blvd"
  },
  {
    "id": "838a99fa-a7e0-468a-97f4-a9149f627454",
    "name": "Intrinsic Brewing",
    "brewery_type": "brewpub",
    "address_1": "509 W State Street",
    "address_2": null,
    "address_3": null,
    "city": "Garland",
    "state_province": "Texas",
    "postal_code": "75040",
    "country": "United States",
    "longitude": -96.63705236,
    "latitude": 32.91369215,
    "phone": "2144345429",
    "website_url": "http://www.intrinsicbrewing.com",
    "state": "Texas",
    "street": "509 W State Street"
  },
  {
    "id": "ce5c20ab-e826-470b-afe6-204ed343e2d8",
    "name": "Intuition Ale Works",
    "brewery_type": "micro",
    "address_1": "929 E Bay St",
    "address_2": null,
    "address_3": null,
    "city": "Jacksonville",
    "state_province": "Florida",
    "postal_code": "32202-2307",
    "country": "United States",
    "longitude": -81.64490792,
    "latitude": 30.32336192,
    "phone": "9046837720",
    "website_url": "http://www.intuitionaleworks.com",
    "state": "Florida",
    "street": "929 E Bay St"
  },
  {
    "id": "07439e86-ae1e-45ce-8078-2ede40215f1a",
    "name": "Intuition Ale Works Production Facility",
    "brewery_type": "micro",
    "address_1": "720 King St",
    "address_2": null,
    "address_3": null,
    "city": "Jacksonville",
    "state_province": "Florida",
    "postal_code": "32204-3440",
    "country": "United States",
    "longitude": -81.69702371,
    "latitude": 30.31799538,
    "phone": null,
    "website_url": null,
    "state": "Florida",
    "street": "720 King St"
  },
  {
    "id": "f042a269-ee40-4b80-8bdf-dda3af3d37b2",
    "name": "Inu Island Ales",
    "brewery_type": "micro",
    "address_1": "46-147 Kahuhipa St STE E",
    "address_2": null,
    "address_3": null,
    "city": "Kaneohe",
    "state_province": "Hawaii",
    "postal_code": "96744",
    "country": "United States",
    "longitude": -157.805414,
    "latitude": 21.416279,
    "phone": "4088888586",
    "website_url": "http://www.inuislandales.com",
    "state": "Hawaii",
    "street": "46-147 Kahuhipa St STE E"
  },
  {
    "id": "5f3f1c30-b19d-47da-a908-2b8bafa0e6fc",
    "name": "Invasive Species Brewing",
    "brewery_type": "micro",
    "address_1": "726 NE 2nd Ave",
    "address_2": null,
    "address_3": null,
    "city": "Fort Lauderdale",
    "state_province": "Florida",
    "postal_code": "33304-2616",
    "country": "United States",
    "longitude": -80.1418016,
    "latitude": 26.1298369,
    "phone": "7546662687",
    "website_url": "http://www.invasivespeciesbrewing.com",
    "state": "Florida",
    "street": "726 NE 2nd Ave"
  },
  {
    "id": "bd199c9c-e52c-4b26-80b1-4b18bf5f69a2",
    "name": "Inventors Brewpub",
    "brewery_type": "brewpub",
    "address_1": "435 N Lake St",
    "address_2": null,
    "address_3": null,
    "city": "Port Washington",
    "state_province": "Wisconsin",
    "postal_code": "53074-1608",
    "country": "United States",
    "longitude": -87.86700105,
    "latitude": 43.39195039,
    "phone": null,
    "website_url": null,
    "state": "Wisconsin",
    "street": "435 N Lake St"
  },
  {
    "id": "f2d17fb9-2f1a-4654-88fc-105fa0600df3",
    "name": "Invictus Brewing Co",
    "brewery_type": "planning",
    "address_1": null,
    "address_2": null,
    "address_3": null,
    "city": "Blaine",
    "state_province": "Minnesota",
    "postal_code": "55449",
    "country": "United States",
    "longitude": null,
    "latitude": null,
    "phone": "6127234090",
    "website_url": "http://www.InvictusBrewingCo.com",
    "state": "Minnesota",
    "street": null
  },
  {
    "id": "16d30fe7-5308-4905-8ce9-15bc61275c2a",
    "name": "Invictus Brewing Co.",
    "brewery_type": "brewpub",
    "address_1": "2025 105th Ave NE",
    "address_2": null,
    "address_3": null,
    "city": "Blaine",
    "state_province": "Minnesota",
    "postal_code": "55449-5202",
    "country": "United States",
    "longitude": -93.2189616,
    "latitude": 45.1608516,
    "phone": "6127234090",
    "website_url": "http://www.invictusbrewingco.com",
    "state": "Minnesota",
    "street": "2025 105th Ave NE"
  },
  {
    "id": "75661940-50cd-4e30-a7dc-772b0852d66f",
    "name": "Iowa Brewing Company",
    "brewery_type": "micro",
    "address_1": "708 3rd St SE",
    "address_2": null,
    "address_3": null,
    "city": "Cedar Rapids",
    "state_province": "Iowa",
    "postal_code": "52401-2012",
    "country": "United States",
    "longitude": -91.66212463,
    "latitude": 41.97421739,
    "phone": "3193662337",
    "website_url": "http://www.iowabrewing.beer",
    "state": "Iowa",
    "street": "708 3rd St SE"
  },
  {
    "id": "ac2278d6-ed4a-4c1a-a94d-e114717389ce",
    "name": "Iowa River Brewing Company",
    "brewery_type": "micro",
    "address_1": "107 N 1st St",
    "address_2": null,
    "address_3": null,
    "city": "Marshalltown",
    "state_province": "Iowa",
    "postal_code": "50158-5803",
    "country": "United States",
    "longitude": -92.91450419,
    "latitude": 42.05061076,
    "phone": "6417512848",
    "website_url": "http://www.iowariverbrewing.com",
    "state": "Iowa",
    "street": "107 N 1st St"
  },
  {
    "id": "783cf348-6a53-404f-99f6-eac225d1334d",
    "name": "Ipswich Ale Brewery",
    "brewery_type": "regional",
    "address_1": "2 Brewery Pl",
    "address_2": null,
    "address_3": null,
    "city": "Ipswich",
    "state_province": "Massachusetts",
    "postal_code": "01938-1196",
    "country": "United States",
    "longitude": null,
    "latitude": null,
    "phone": "9783563329",
    "website_url": "http://www.ipswichalebrewery.com",
    "state": "Massachusetts",
    "street": "2 Brewery Pl"
  },
  {
    "id": "b2b80cf5-adc4-4e7c-9a53-d3f55ed24d7f",
    "name": "Irish Mafia Brewing Co",
    "brewery_type": "brewpub",
    "address_1": "2971 Whalen Rd",
    "address_2": null,
    "address_3": null,
    "city": "Bloomfield",
    "state_province": "New York",
    "postal_code": "14469-9786",
    "country": "United States",
    "longitude": -77.38938696,
    "latitude": 42.89268134,
    "phone": "5852715172",
    "website_url": "http://www.irishmafiabrewing.com",
    "state": "New York",
    "street": "2971 Whalen Rd"
  },
  {
    "id": "6b3c07c8-8505-440f-b7f8-bcfc389525ad",
    "name": "Iron Beard Brewing",
    "brewery_type": "planning",
    "address_1": null,
    "address_2": null,
    "address_3": null,
    "city": "Jersey City",
    "state_province": "New Jersey",
    "postal_code": "07302-7433",
    "country": "United States",
    "longitude": null,
    "latitude": null,
    "phone": null,
    "website_url": null,
    "state": "New Jersey",
    "street": null
  },
  {
    "id": "795d96bb-633e-4d4d-8959-1ba609f409f2",
    "name": "Iron Bird Brewing Co.",
    "brewery_type": "brewpub",
    "address_1": "402 S Nevada Ave",
    "address_2": null,
    "address_3": null,
    "city": "Colorado Springs",
    "state_province": "Colorado",
    "postal_code": "80903-2110",
    "country": "United States",
    "longitude": -104.8223799,
    "latitude": 38.8280292,
    "phone": "7194247002",
    "website_url": "http://www.ironbirdbrewing.com",
    "state": "Colorado",
    "street": "402 S Nevada Ave"
  },
  {
    "id": "fa970827-906e-4ebd-b68c-19c192778661",
    "name": "Iron Brewing Company",
    "brewery_type": "brewpub",
    "address_1": "136 Washington St",
    "address_2": null,
    "address_3": null,
    "city": "Norwalk",
    "state_province": "Connecticut",
    "postal_code": "06854",
    "country": "United States",
    "longitude": -73.41734954,
    "latitude": 41.09888787,
    "phone": "2033544010",
    "website_url": "http://www.ironbrewing.com",
    "state": "Connecticut",
    "street": "136 Washington St"
  },
  {
    "id": "df561fc1-54b8-4a17-94fb-c344202bafed",
    "name": "Iron Duke Brewing Co",
    "brewery_type": "micro",
    "address_1": "100 State St Ste 122",
    "address_2": null,
    "address_3": null,
    "city": "Ludlow",
    "state_province": "Massachusetts",
    "postal_code": "01056-3435",
    "country": "United States",
    "longitude": null,
    "latitude": null,
    "phone": "4136246258",
    "website_url": "http://www.irondukebrewing.com",
    "state": "Massachusetts",
    "street": "100 State St Ste 122"
  },
  {
    "id": "d3bb9850-31a3-4875-8cd8-41a9486f0738",
    "name": "Iron Fist Brewing Co",
    "brewery_type": "closed",
    "address_1": "1305 Hot Springs Way Ste 101",
    "address_2": null,
    "address_3": null,
    "city": "Vista",
    "state_province": "California",
    "postal_code": "92081-7876",
    "country": "United States",
    "longitude": -117.2388018,
    "latitude": 33.14569866,
    "phone": "7602166500",
    "website_url": "http://www.ironfistbrewing.com",
    "state": "California",
    "street": "1305 Hot Springs Way Ste 101"
  },
  {
    "id": "bfd07141-cfd5-461d-bbac-17dfc9b8dec1",
    "name": "Iron Flamingo Brewery",
    "brewery_type": "micro",
    "address_1": "196 Baker St",
    "address_2": null,
    "address_3": null,
    "city": "Corning",
    "state_province": "New York",
    "postal_code": "14830-2074",
    "country": "United States",
    "longitude": -77.0564722,
    "latitude": 42.1551591,
    "phone": "6079364766",
    "website_url": "http://www.ironflamingobrewery.com",
    "state": "New York",
    "street": "196 Baker St"
  },
  {
    "id": "4a58cbd0-a8da-4ea7-8eea-d9be42ec6375",
    "name": "Iron Furnace Brewing",
    "brewery_type": "micro",
    "address_1": "115 Main St",
    "address_2": null,
    "address_3": null,
    "city": "Franconia",
    "state_province": "New Hampshire",
    "postal_code": "03580",
    "country": "United States",
    "longitude": null,
    "latitude": null,
    "phone": "6038232119",
    "website_url": "https://www.ironfurnacebrewing.com/",
    "state": "New Hampshire",
    "street": "115 Main St"
  },
  {
    "id": "62593648-b9ed-47aa-811b-544d112df7ae",
    "name": "Iron Goat Brewing",
    "brewery_type": "brewpub",
    "address_1": "1302 W 2nd Ave",
    "address_2": null,
    "address_3": null,
    "city": "Spokane",
    "state_province": "Washington",
    "postal_code": "99201-4616",
    "country": "United States",
    "longitude": -117.4312826,
    "latitude": 47.65452878,
    "phone": "5094740722",
    "website_url": "http://www.irongoatbrewing.com",
    "state": "Washington",
    "street": "1302 W 2nd Ave"
  },
  {
    "id": "742eda93-f91a-4b97-b6f6-b5192b2445de",
    "name": "Iron Hart",
    "brewery_type": "brewpub",
    "address_1": "49 N Church St",
    "address_2": null,
    "address_3": null,
    "city": "Carbondale",
    "state_province": "Pennsylvania",
    "postal_code": "18407-1904",
    "country": "United States",
    "longitude": -75.50001,
    "latitude": 41.573825,
    "phone": "5702802739",
    "website_url": "http://www.3guysandabeerd.com",
    "state": "Pennsylvania",
    "street": "49 N Church St"
  },
  {
    "id": "12ed139d-06c2-4f93-9491-b798f22b1d9f",
    "name": "Iron Hill Brewery & Restaurant - Chestnut Hill",
    "brewery_type": "brewpub",
    "address_1": "8400 Germantown Ave",
    "address_2": null,
    "address_3": null,
    "city": "Philadelphia",
    "state_province": "Pennsylvania",
    "postal_code": "19118-3328",
    "country": "United States",
    "longitude": -75.205095,
    "latitude": 40.075132,
    "phone": "2159485600",
    "website_url": "http://www.ironhillbrewery.com",
    "state": "Pennsylvania",
    "street": "8400 Germantown Ave"
  },
  {
    "id": "16bf5f1e-014c-4afc-b350-e9bda8966adc",
    "name": "Iron Hill Brewery & Restaurant - Greenville",
    "brewery_type": "brewpub",
    "address_1": "741 Haywood Rd",
    "address_2": null,
    "address_3": null,
    "city": "Greenville",
    "state_province": "South Carolina",
    "postal_code": "29607",
    "country": "United States",
    "longitude": null,
    "latitude": null,
    "phone": "8645687009",
    "website_url": "http://www.ironhillbrewery.com",
    "state": "South Carolina",
    "street": "741 Haywood Rd"
  },
  {
    "id": "77032466-4be5-4202-8609-43c95ebe6a47",
    "name": "Iron Hill Brewery & Restaurant - Huntingdon Valley",
    "brewery_type": "brewpub",
    "address_1": "785 Huntingdon Pike",
    "address_2": null,
    "address_3": null,
    "city": "Huntingdon Valley",
    "state_province": "Pennsylvania",
    "postal_code": "19006-8362",
    "country": "United States",
    "longitude": -75.0674691,
    "latitude": 40.1192109,
    "phone": null,
    "website_url": "http://www.ironhillbrewery.com",
    "state": "Pennsylvania",
    "street": "785 Huntingdon Pike"
  },
  {
    "id": "bff3cd82-4867-4d0b-8bea-120e70de2ab0",
    "name": "Iron Hill Brewery & Restaurant - Lancaster",
    "brewery_type": "brewpub",
    "address_1": "781 Harrisburg Pike",
    "address_2": null,
    "address_3": null,
    "city": "Lancaster",
    "state_province": "Pennsylvania",
    "postal_code": "17603-2655",
    "country": "United States",
    "longitude": -76.3188136,
    "latitude": 40.0506816,
    "phone": "7172919800",
    "website_url": "http://www.ironhillbrewery.com",
    "state": "Pennsylvania",
    "street": "781 Harrisburg Pike"
  },
  {
    "id": "e0e11103-11ff-4ec8-865f-9f0b02a42f23",
    "name": "Iron Hill Brewery & Restaurant - Maple Shade",
    "brewery_type": "brewpub",
    "address_1": "124 East King's Hwy",
    "address_2": null,
    "address_3": null,
    "city": "Maple Shade",
    "state_province": "New Jersey",
    "postal_code": "08052-5405",
    "country": "United States",
    "longitude": null,
    "latitude": null,
    "phone": "8562730300",
    "website_url": "http://www.ironhillbrewery.com",
    "state": "New Jersey",
    "street": "124 East King's Hwy"
  },
  {
    "id": "08af2081-845a-474e-9f80-efbb605e209c",
    "name": "Iron Hill Brewery & Restaurant - Media",
    "brewery_type": "brewpub",
    "address_1": "30 E State Street",
    "address_2": null,
    "address_3": null,
    "city": "Media",
    "state_province": "Pennsylvania",
    "postal_code": "19063-2904",
    "country": "United States",
    "longitude": -75.38831847,
    "latitude": 39.9174642,
    "phone": "6106279000",
    "website_url": "http://www.ironhillbrewery.com",
    "state": "Pennsylvania",
    "street": "30 E State Street"
  },
  {
    "id": "22f14965-0761-424c-8824-ed47e3b04dd5",
    "name": "Iron Hill Brewery & Restaurant - Newark",
    "brewery_type": "brewpub",
    "address_1": "147 East Main St",
    "address_2": null,
    "address_3": null,
    "city": "Newark",
    "state_province": "Delaware",
    "postal_code": "19711-7313",
    "country": "United States",
    "longitude": -75.7468068,
    "latitude": 39.6834128,
    "phone": "3022669000",
    "website_url": "http://www.ironhillbrewery.com",
    "state": "Delaware",
    "street": "147 East Main St"
  },
  {
    "id": "aeb41458-0b55-4613-9b03-99fc0306f3a5",
    "name": "Iron Hill Brewery & Restaurant - North Wales",
    "brewery_type": "brewpub",
    "address_1": "1460 Bethlehem Pike",
    "address_2": null,
    "address_3": null,
    "city": "North Wales",
    "state_province": "Pennsylvania",
    "postal_code": "19454-2159",
    "country": "United States",
    "longitude": null,
    "latitude": null,
    "phone": "2677082000",
    "website_url": "http://www.ironhillbrewery.com",
    "state": "Pennsylvania",
    "street": "1460 Bethlehem Pike"
  },
  {
    "id": "672b0dd0-5267-4c96-802a-1285bfaa186c",
    "name": "Iron Hill Brewery & Restaurant - Phoenixville",
    "brewery_type": "brewpub",
    "address_1": "130 Bridge St",
    "address_2": null,
    "address_3": null,
    "city": "Phoenixville",
    "state_province": "Pennsylvania",
    "postal_code": "19460-3448",
    "country": "United States",
    "longitude": -75.51335,
    "latitude": 40.13418,
    "phone": "6109839333",
    "website_url": "http://www.ironhillbrewery.com",
    "state": "Pennsylvania",
    "street": "130 Bridge St"
  },
  {
    "id": "6deaab2b-0b81-478f-b4dc-0f30fdfe1f9c",
    "name": "Iron Hill Brewery & Restaurant - Rehoboth Beach",
    "brewery_type": "brewpub",
    "address_1": "19815 Coastal Hwy",
    "address_2": null,
    "address_3": null,
    "city": "Rehoboth Beach",
    "state_province": "Delaware",
    "postal_code": "19971",
    "country": "United States",
    "longitude": -75.090191,
    "latitude": 38.7074994,
    "phone": "3022608000",
    "website_url": "http://www.ironhillbrewery.com",
    "state": "Delaware",
    "street": "19815 Coastal Hwy"
  },
  {
    "id": "b6d5a122-8bb1-4597-903a-c8025c9de6c8",
    "name": "Iron Hill Brewery & Restaurant - Voorhees",
    "brewery_type": "brewpub",
    "address_1": "13107 Town Center Blvd",
    "address_2": null,
    "address_3": null,
    "city": "Voorhees",
    "state_province": "New Jersey",
    "postal_code": "08043-2668",
    "country": "United States",
    "longitude": -74.9979656,
    "latitude": 39.8524026,
    "phone": "3028882739",
    "website_url": "http://www.ironhillbrewery.com",
    "state": "New Jersey",
    "street": "13107 Town Center Blvd"
  },
  {
    "id": "cc272e55-527c-4099-9b39-0f9f849612d8",
    "name": "Iron Hill Brewery & Restaurant - West Chester",
    "brewery_type": "brewpub",
    "address_1": "3 West Gay St",
    "address_2": null,
    "address_3": null,
    "city": "West Chester",
    "state_province": "Pennsylvania",
    "postal_code": "19380-3010",
    "country": "United States",
    "longitude": -75.60564101,
    "latitude": 39.96059635,
    "phone": "6107389600",
    "website_url": "http://www.ironhillbrewery.com",
    "state": "Pennsylvania",
    "street": "3 West Gay St"
  },
  {
    "id": "6829ce25-15a6-4383-a81f-1f58fc8884dd",
    "name": "Iron Hill Brewery & Restaurant - Wilmington",
    "brewery_type": "brewpub",
    "address_1": "620 Justison St",
    "address_2": null,
    "address_3": null,
    "city": "Wilmington",
    "state_province": "Delaware",
    "postal_code": "19801-5141",
    "country": "United States",
    "longitude": null,
    "latitude": null,
    "phone": "3026588200",
    "website_url": "http://www.ironhillbrewery.com",
    "state": "Delaware",
    "street": "620 Justison St"
  },
  {
    "id": "9b34bbbe-c448-442e-87ab-03d22245426a",
    "name": "Iron Hill Brewery & Restaurant (Ardmore)",
    "brewery_type": "brewpub",
    "address_1": "60 Greenfield Ave",
    "address_2": null,
    "address_3": null,
    "city": "Ardmore",
    "state_province": "Pennsylvania",
    "postal_code": "19003-1204",
    "country": "United States",
    "longitude": -75.29755364,
    "latitude": 40.00854097,
    "phone": "3028882739",
    "website_url": "http://www.ironhillbrewery.com",
    "state": "Pennsylvania",
    "street": "60 Greenfield Ave"
  },
  {
    "id": "56289e78-9880-4933-ad9e-e59365be2837",
    "name": "Iron Horse Brewery",
    "brewery_type": "regional",
    "address_1": "1621 Vantage Hwy",
    "address_2": null,
    "address_3": null,
    "city": "Ellensburg",
    "state_province": "Washington",
    "postal_code": "98926-9001",
    "country": "United States",
    "longitude": -120.5200004,
    "latitude": 47.00287945,
    "phone": "5099333134",
    "website_url": "http://www.ironhorsebrewery.com",
    "state": "Washington",
    "street": "1621 Vantage Hwy"
  },
  {
    "id": "2764f826-fa1f-4b3a-9240-9e620c06f220",
    "name": "Iron John's Brewing Company",
    "brewery_type": "micro",
    "address_1": "245 S Plumer Ave Ste 27",
    "address_2": null,
    "address_3": null,
    "city": "Tucson",
    "state_province": "Arizona",
    "postal_code": "85719-6348",
    "country": "United States",
    "longitude": null,
    "latitude": null,
    "phone": "5202373448",
    "website_url": "http://www.ironjohnsbrewing.com",
    "state": "Arizona",
    "street": "245 S Plumer Ave Ste 27"
  },
  {
    "id": "8950820d-02c8-460d-b6ce-66c0c5c4ac6b",
    "name": "Iron Monk Brewing Company",
    "brewery_type": "micro",
    "address_1": "519 S Husband St",
    "address_2": null,
    "address_3": null,
    "city": "Stillwater",
    "state_province": "Oklahoma",
    "postal_code": "74074-4031",
    "country": "United States",
    "longitude": -97.0595399,
    "latitude": 36.1163409,
    "phone": "4057142585",
    "website_url": "http://www.ironmonkbeer.com",
    "state": "Oklahoma",
    "street": "519 S Husband St"
  },
  {
    "id": "bfdd1ddf-7cde-4ad6-92ea-932dc9477801",
    "name": "Iron Mule Brewery",
    "brewery_type": "micro",
    "address_1": "514 Perry St Ste C106",
    "address_2": null,
    "address_3": null,
    "city": "Castle Rock",
    "state_province": "Colorado",
    "postal_code": "80104-1711",
    "country": "United States",
    "longitude": -104.8584438,
    "latitude": 39.3751988,
    "phone": "7203289008",
    "website_url": "https://www.ironmulebrewery.com/",
    "state": "Colorado",
    "street": "514 Perry St Ste C106"
  },
  {
    "id": "8c0bc28a-fb48-4e7c-941a-1d5131fb1787",
    "name": "Iron Spike Brewing Company",
    "brewery_type": "brewpub",
    "address_1": "150 E Simmons St Ste 1",
    "address_2": null,
    "address_3": null,
    "city": "Galesburg",
    "state_province": "Illinois",
    "postal_code": "61401-4641",
    "country": "United States",
    "longitude": null,
    "latitude": null,
    "phone": "3092974718",
    "website_url": "http://www.ironspikebrewpub.com",
    "state": "Illinois",
    "street": "150 E Simmons St Ste 1"
  },
  {
    "id": "25e5c66e-d4ed-4557-b748-da3de58c1076",
    "name": "Iron Springs Pub & Brewery",
    "brewery_type": "brewpub",
    "address_1": "765 Center Blvd",
    "address_2": null,
    "address_3": null,
    "city": "Fairfax",
    "state_province": "California",
    "postal_code": "94930-1764",
    "country": "United States",
    "longitude": -122.5862525,
    "latitude": 37.98670111,
    "phone": "4154851005",
    "website_url": "http://www.ironspringspub.com",
    "state": "California",
    "street": "765 Center Blvd"
  },
  {
    "id": "4a6b7b4f-5857-4635-a67e-9132a6d0e6c8",
    "name": "Iron Tree Table & Taps",
    "brewery_type": "brewpub",
    "address_1": "37 Costello Ave",
    "address_2": null,
    "address_3": null,
    "city": "Florissant",
    "state_province": "Colorado",
    "postal_code": "80816",
    "country": "United States",
    "longitude": null,
    "latitude": null,
    "phone": "7197480124",
    "website_url": "http://www.irontreerestaurant.com",
    "state": "Colorado",
    "street": "37 Costello Ave"
  },
  {
    "id": "cc4ccff2-93f4-4134-b2a6-53d06a3e2c89",
    "name": "Iron Triangle Brewing Company",
    "brewery_type": "micro",
    "address_1": "1581 Industrial St",
    "address_2": null,
    "address_3": null,
    "city": "Los Angeles",
    "state_province": "California",
    "postal_code": "90021-1217",
    "country": "United States",
    "longitude": -118.2373618,
    "latitude": 34.03612189,
    "phone": "3109905702",
    "website_url": "http://www.irontrianglebrewing.com",
    "state": "California",
    "street": "1581 Industrial St"
  },
  {
    "id": "85006537-0e74-4e0f-823b-592904e96c5b",
    "name": "Iron Tug Brewing",
    "brewery_type": "micro",
    "address_1": "371 Park Ave",
    "address_2": null,
    "address_3": null,
    "city": "Rochester",
    "state_province": "New York",
    "postal_code": "14607",
    "country": "United States",
    "longitude": -77.58587345,
    "latitude": 43.15024613,
    "phone": "5857385606",
    "website_url": "http://www.irontugbrewing.com",
    "state": "New York",
    "street": "371 Park Ave"
  }
]