[
  {
    "id": "4b15db52-05ef-4a27-8d0f-12572da07b9b",
    "name": "Railhouse Restaurant and Brewery",
    "brewery_type": "brewpub",
    "address_1": "2029 Old Peshtigo Ct",
    "address_2": null,
    "address_3": null,
    "city": "Marinette",
    "state_province": "Wisconsin",
    "postal_code": "54143-1066",
    "country": "United States",
    "longitude": -87.6543602,
    "latitude": 45.085149,
    "phone": "7157324646",
    "website_url": "http://www.railhousebrewpub.com",
    "state": "Wisconsin",
    "street": "2029 Old Peshtigo Ct"
  },
  {
    "id": "330a7167-f217-4419-b66a-d12cb04f647d",
    "name": "Railport Brewing Company",
    "brewery_type": "micro",
    "address_1": "405 W Madison St",
    "address_2": null,
    "address_3": null,
    "city": "Waxahachie",
    "state_province": "Texas",
    "postal_code": "75165-3666",
    "country": "United States",
    "longitude": -96.85141051,
    "latitude": 32.38463715,
    "phone": "4693605383",
    "website_url": "http://www.railportbrewing.com",
    "state": "Texas",
    "street": "405 W Madison St"
  },
  {
    "id": "52dc49dc-14c6-426f-821c-a52f9d5552b3",
    "name": "Railroad Brewing Company",
    "brewery_type": "micro",
    "address_1": "1010 Center Rd",
    "address_2": null,
    "address_3": null,
    "city": "Avon",
    "state_province": "Ohio",
    "postal_code": "44011-1206",
    "country": "United States",
    "longitude": -82.01953725,
    "latitude": 41.4754617,
    "phone": "4407238234",
    "website_url": "http://www.railroadbrewingcompany.com",
    "state": "Ohio",
    "street": "1010 Center Rd"
  },
  {
    "id": "aefe68ce-6f3c-45f7-9d3f-c7af686cd8c8",
    "name": "Railroad City Brewing Company",
    "brewery_type": "brewpub",
    "address_1": "1415 11th Ave Ste 1",
    "address_2": null,
    "address_3": null,
    "city": "Altoona",
    "state_province": "Pennsylvania",
    "postal_code": "16601-3303",
    "country": "United States",
    "longitude": null,
    "latitude": null,
    "phone": "8142012827",
    "website_url": "http://www.railroadcitybrewing.com",
    "state": "Pennsylvania",
    "street": "1415 11th Ave Ste 1"
  },
  {
    "id": "d90fdac6-8658-44a1-8e97-f6f22b74ef3a",
    "name": "Railroad Seafood Station & Brewing Co.",
    "brewery_type": "brewpub",
    "address_1": "1214 N Chaparral St",
    "address_2": null,
    "address_3": null,
    "city": "Corpus Christi",
    "state_province": "Texas",
    "postal_code": "78401-1503",
    "country": "United States",
    "longitude": -97.39433962,
    "latitude": 27.8027685,
    "phone": "3618836200",
    "website_url": "http://www.railroadseafood.com",
    "state": "Texas",
    "street": "1214 N Chaparral St"
  },
  {
    "id": "6789f741-4866-4838-bff5-6dceef7d5341",
    "name": "Rails End Beer Company",
    "brewery_type": "micro",
    "address_1": "11625 Reed Ct",
    "address_2": null,
    "address_3": null,
    "city": "Broomfield",
    "state_province": "Colorado",
    "postal_code": "80020-2834",
    "country": "United States",
    "longitude": -105.0750302,
    "latitude": 39.9084879,
    "phone": "3033538121",
    "website_url": "http://www.railsendbeerco.com",
    "state": "Colorado",
    "street": "11625 Reed Ct"
  },
  {
    "id": "d370a13b-1914-4da8-a6c9-253d6406e0bb",
    "name": "Railside Brewing",
    "brewery_type": "micro",
    "address_1": "309 NE 76th St",
    "address_2": null,
    "address_3": null,
    "city": "Vancouver",
    "state_province": "Washington",
    "postal_code": "98665-8210",
    "country": "United States",
    "longitude": -122.66809623083,
    "latitude": 45.677013281557,
    "phone": "3609078582",
    "website_url": "http://www.railsidebrewing.com",
    "state": "Washington",
    "street": "309 NE 76th St"
  },
  {
    "id": "3af17697-4c50-47bb-9b31-dfb2b5518ea5",
    "name": "Railtown Brewing Co",
    "brewery_type": "micro",
    "address_1": "3595 68th St SE",
    "address_2": null,
    "address_3": null,
    "city": "Dutton",
    "state_province": "Michigan",
    "postal_code": "49316-8503",
    "country": "United States",
    "longitude": -85.57833065,
    "latitude": 42.84118888,
    "phone": "6168812364",
    "website_url": "http://www.railtownbrewing.com",
    "state": "Michigan",
    "street": "3595 68th St SE"
  },
  {
    "id": "3d2a2d0f-e13a-48d3-a1f3-8158d1538ab9",
    "name": "Raintree Brewing Company",
    "brewery_type": "micro",
    "address_1": "500 Church Street",
    "address_2": null,
    "address_3": null,
    "city": "New Harmony",
    "state_province": "Indiana",
    "postal_code": "47631",
    "country": "United States",
    "longitude": -87.9348109,
    "latitude": 38.1299262,
    "phone": null,
    "website_url": "http://www.raintreebrewing.com",
    "state": "Indiana",
    "street": "500 Church Street"
  },
  {
    "id": "9e119744-6668-4d12-9105-2e9236bb614e",
    "name": "Rainy Daze Brewing",
    "brewery_type": "micro",
    "address_1": "650 NW BOVELA LN SUITE 3",
    "address_2": null,
    "address_3": null,
    "city": "Poulsbo",
    "state_province": "Washington",
    "postal_code": "98370",
    "country": "United States",
    "longitude": -122.65739500193,
    "latitude": 47.73993326175,
    "phone": "3606921858",
    "website_url": "http://www.rainydazebrewing.com",
    "state": "Washington",
    "street": "650 NW BOVELA LN SUITE 3"
  },
  {
    "id": "d8572428-9a8a-4087-8b6a-d815d63698f4",
    "name": "Raised Grain Brewing Company",
    "brewery_type": "brewpub",
    "address_1": "2244 W Bluemound Rd Ste E",
    "address_2": null,
    "address_3": null,
    "city": "Waukesha",
    "state_province": "Wisconsin",
    "postal_code": "53186-2921",
    "country": "United States",
    "longitude": null,
    "latitude": null,
    "phone": null,
    "website_url": null,
    "state": "Wisconsin",
    "street": "2244 W Bluemound Rd Ste E"
  },
  {
    "id": "cd1f1a39-af96-4e8a-a863-93e5ae52624b",
    "name": "Raleigh Brewing Company",
    "brewery_type": "micro",
    "address_1": "3709 Neil St",
    "address_2": null,
    "address_3": null,
    "city": "Raleigh",
    "state_province": "North Carolina",
    "postal_code": "27607-5415",
    "country": "United States",
    "longitude": -78.6875149,
    "latitude": 35.7931167,
    "phone": "9194009086",
    "website_url": "http://www.raleighbrewingcompany.com",
    "state": "North Carolina",
    "street": "3709 Neil St"
  },
  {
    "id": "5806ef06-a300-4a88-820e-f14e0c290794",
    "name": "Rally King Brewing",
    "brewery_type": "micro",
    "address_1": "1624 S Lemay Ave Unit 4",
    "address_2": null,
    "address_3": null,
    "city": "Fort Collins",
    "state_province": "Colorado",
    "postal_code": "80525-1188",
    "country": "United States",
    "longitude": null,
    "latitude": null,
    "phone": "9705688936",
    "website_url": "http://www.rallykingbrewing.com",
    "state": "Colorado",
    "street": "1624 S Lemay Ave Unit 4"
  },
  {
    "id": "7a59af26-0bfc-451f-8606-40e2653944bd",
    "name": "RAM Restaurant and Brewery - Boise",
    "brewery_type": "brewpub",
    "address_1": "709 E Park Blvd",
    "address_2": null,
    "address_3": null,
    "city": "Boise",
    "state_province": "Idaho",
    "postal_code": "83712-7715",
    "country": "United States",
    "longitude": null,
    "latitude": null,
    "phone": "2083452929",
    "website_url": "http://www.theram.com",
    "state": "Idaho",
    "street": "709 E Park Blvd"
  },
  {
    "id": "a12fde89-9b18-4f5b-8347-93709903231e",
    "name": "RAM Restaurant and Brewery - Clackamas",
    "brewery_type": "brewpub",
    "address_1": "9073 SE Sunnyside Rd",
    "address_2": null,
    "address_3": null,
    "city": "Clackamas",
    "state_province": "Oregon",
    "postal_code": "97015-9759",
    "country": "United States",
    "longitude": -122.5715994,
    "latitude": 45.43365785,
    "phone": "5036591282",
    "website_url": null,
    "state": "Oregon",
    "street": "9073 SE Sunnyside Rd"
  },
  {
    "id": "429297ab-f39b-40ee-a033-dbb560da0b3e",
    "name": "RAM Restaurant and Brewery - Indianapolis",
    "brewery_type": "brewpub",
    "address_1": "140 S Illinois St",
    "address_2": null,
    "address_3": null,
    "city": "Indianapolis",
    "state_province": "Indiana",
    "postal_code": "46204",
    "country": "United States",
    "longitude": -86.16050947,
    "latitude": 39.76475755,
    "phone": "3179559900",
    "website_url": "http://www.theram.com",
    "state": "Indiana",
    "street": "140 S Illinois St"
  },
  {
    "id": "f20913bd-86c4-4771-b1ab-4a5252573efb",
    "name": "RAM Restaurant and Brewery - Lakewood",
    "brewery_type": "brewpub",
    "address_1": "10019 59th Ave SW",
    "address_2": null,
    "address_3": null,
    "city": "Lakewood",
    "state_province": "Washington",
    "postal_code": "98499-2757",
    "country": "United States",
    "longitude": -122.5156132,
    "latitude": 47.16601043,
    "phone": "2535843191",
    "website_url": "http://www.theram.com",
    "state": "Washington",
    "street": "10019 59th Ave SW"
  },
  {
    "id": "0fbec903-d1d0-4d45-85b8-8d792c63600e",
    "name": "RAM Restaurant and Brewery - Medford",
    "brewery_type": "brewpub",
    "address_1": "165 Rossanley Dr",
    "address_2": null,
    "address_3": null,
    "city": "Medford",
    "state_province": "Oregon",
    "postal_code": "97501-1777",
    "country": "United States",
    "longitude": -122.8832971,
    "latitude": 42.343116,
    "phone": "4582259816",
    "website_url": null,
    "state": "Oregon",
    "street": "165 Rossanley Dr"
  },
  {
    "id": "38f79ca2-6c0d-4e65-948c-53829daa2f6a",
    "name": "RAM Restaurant and Brewery - Production",
    "brewery_type": "micro",
    "address_1": "5001 S Washington St",
    "address_2": null,
    "address_3": null,
    "city": "Tacoma",
    "state_province": "Washington",
    "postal_code": "98409-2828",
    "country": "United States",
    "longitude": -122.48489,
    "latitude": 47.211482,
    "phone": "2534747465",
    "website_url": "http://www.theram.com",
    "state": "Washington",
    "street": "5001 S Washington St"
  },
  {
    "id": "f4db78ff-2256-477c-bce3-fe41d215a66e",
    "name": "RAM Restaurant and Brewery - Puyallup South Hill",
    "brewery_type": "brewpub",
    "address_1": "103 35th Ave SE",
    "address_2": null,
    "address_3": null,
    "city": "Puyallup",
    "state_province": "Washington",
    "postal_code": "98374-1231",
    "country": "United States",
    "longitude": -122.292785,
    "latitude": 47.15857071,
    "phone": "2538413317",
    "website_url": "http://www.theram.com",
    "state": "Washington",
    "street": "103 35th Ave SE"
  },
  {
    "id": "f37404d3-d3b1-4ace-b273-8c25620e8276",
    "name": "RAM Restaurant and Brewery - Salem",
    "brewery_type": "brewpub",
    "address_1": "515 12th St SE",
    "address_2": null,
    "address_3": null,
    "city": "Salem",
    "state_province": "Oregon",
    "postal_code": "97301-4034",
    "country": "United States",
    "longitude": -123.0292121,
    "latitude": 44.932777,
    "phone": "5033631904",
    "website_url": "http://www.theram.com",
    "state": "Oregon",
    "street": "515 12th St SE"
  },
  {
    "id": "3d1df8eb-6d29-4228-9d0c-75e1a2b8b6de",
    "name": "RAM Restaurant and Brewery - Schaumburg",
    "brewery_type": "brewpub",
    "address_1": "1901 McConnor Pkwy",
    "address_2": null,
    "address_3": null,
    "city": "Schaumburg",
    "state_province": "Illinois",
    "postal_code": "60173-4389",
    "country": "United States",
    "longitude": null,
    "latitude": null,
    "phone": "8475178791",
    "website_url": "http://www.theram.com",
    "state": "Illinois",
    "street": "1901 McConnor Pkwy"
  },
  {
    "id": "2ad22e5f-66ea-4213-a8a5-cceaaae97f04",
    "name": "RAM Restaurant and Brewery - Seattle",
    "brewery_type": "brewpub",
    "address_1": "2650 NE University Village St",
    "address_2": null,
    "address_3": null,
    "city": "Seattle",
    "state_province": "Washington",
    "postal_code": "98105-5023",
    "country": "United States",
    "longitude": -122.2980609,
    "latitude": 47.6641459,
    "phone": "2065253565",
    "website_url": "http://www.theram.com",
    "state": "Washington",
    "street": "2650 NE University Village St"
  },
  {
    "id": "34f9330a-5f6e-487b-8328-4642ab980625",
    "name": "RAM Restaurant and Brewery - Tacoma",
    "brewery_type": "brewpub",
    "address_1": "3001 Ruston Way",
    "address_2": null,
    "address_3": null,
    "city": "Tacoma",
    "state_province": "Washington",
    "postal_code": "98402-5306",
    "country": "United States",
    "longitude": -122.474793,
    "latitude": 47.2797382,
    "phone": "2537567886",
    "website_url": "http://www.theram.com",
    "state": "Washington",
    "street": "3001 Ruston Way"
  },
  {
    "id": "e8b9b8b7-b7b7-4cce-a440-e774f4a5c90f",
    "name": "RAM Restaurant and Brewery - Wheeling",
    "brewery_type": "brewpub",
    "address_1": "700 N Milwaukee Ave",
    "address_2": null,
    "address_3": null,
    "city": "Wheeling",
    "state_province": "Illinois",
    "postal_code": "60090-3026",
    "country": "United States",
    "longitude": -87.9155543,
    "latitude": 42.1541156,
    "phone": "8475201222",
    "website_url": "http://www.theram.com",
    "state": "Illinois",
    "street": "700 N Milwaukee Ave"
  },
  {
    "id": "8d25dc57-b983-42f7-9829-9db8481ac10e",
    "name": "RAM Restaurant and Brewery- Northgate",
    "brewery_type": "closed",
    "address_1": "401 NE Northgate Way Spc 1102",
    "address_2": null,
    "address_3": null,
    "city": "Seattle",
    "state_province": "Washington",
    "postal_code": "98125-8538",
    "country": "United States",
    "longitude": -122.32671368844,
    "latitude": 47.707607904203,
    "phone": "2063648000",
    "website_url": "http://www.theram.com",
    "state": "Washington",
    "street": "401 NE Northgate Way Spc 1102"
  },
  {
    "id": "5517b5d0-3406-4ce2-9a6e-af552695dfc0",
    "name": "Ramblin Reds Brewing Company",
    "brewery_type": "brewpub",
    "address_1": "1493 N Shoop Ave Unit A",
    "address_2": null,
    "address_3": null,
    "city": "Wauseon",
    "state_province": "Ohio",
    "postal_code": "43567-2801",
    "country": "United States",
    "longitude": null,
    "latitude": null,
    "phone": "4193352000",
    "website_url": "http://www.northriverbrewingco.com",
    "state": "Ohio",
    "street": "1493 N Shoop Ave Unit A"
  },
  {
    "id": "a2479685-7402-413d-8398-357db4a5aed8",
    "name": "Ramskeller",
    "brewery_type": "planning",
    "address_1": null,
    "address_2": null,
    "address_3": null,
    "city": "Fort Collins",
    "state_province": "Colorado",
    "postal_code": "80523-0001",
    "country": "United States",
    "longitude": null,
    "latitude": null,
    "phone": "9704911055",
    "website_url": null,
    "state": "Colorado",
    "street": null
  },
  {
    "id": "9e9b2679-fc12-4095-b401-198f4a444525",
    "name": "Rancho De Lomi Brewing",
    "brewery_type": "planning",
    "address_1": null,
    "address_2": null,
    "address_3": null,
    "city": "Laporte",
    "state_province": "Colorado",
    "postal_code": "80535-3021",
    "country": "United States",
    "longitude": null,
    "latitude": null,
    "phone": "4156067246",
    "website_url": null,
    "state": "Colorado",
    "street": null
  },
  {
    "id": "644312ac-6c8f-4cbb-b712-03f54f1223c3",
    "name": "Randolph Beer Dumbo",
    "brewery_type": "brewpub",
    "address_1": "77 Sands St",
    "address_2": null,
    "address_3": null,
    "city": "Brooklyn",
    "state_province": "New York",
    "postal_code": "11201-1431",
    "country": "United States",
    "longitude": -73.987503,
    "latitude": 40.70005509,
    "phone": "7182983331",
    "website_url": "http://www.randolphbeer.com",
    "state": "New York",
    "street": "77 Sands St"
  },
  {
    "id": "7a0e79f9-4cb5-4225-8742-46689b054269",
    "name": "Random Precision Brewing Company",
    "brewery_type": "micro",
    "address_1": "2365 W Dublin Granville Rd",
    "address_2": null,
    "address_3": null,
    "city": "Columbus",
    "state_province": "Ohio",
    "postal_code": "43235-2700",
    "country": "United States",
    "longitude": -83.05232,
    "latitude": 40.090144,
    "phone": "6143893864",
    "website_url": "http://www.randomprecisionbrewing.com",
    "state": "Ohio",
    "street": "2365 W Dublin Granville Rd"
  },
  {
    "id": "e62e68b4-43bb-473c-a79e-cc0e68e51b50",
    "name": "Random Row Brewing Co.",
    "brewery_type": "micro",
    "address_1": "608 Preston Ave",
    "address_2": null,
    "address_3": null,
    "city": "Charlottesville",
    "state_province": "Virginia",
    "postal_code": "22903-4566",
    "country": "United States",
    "longitude": -78.48712033,
    "latitude": 38.03470505,
    "phone": "4342848466",
    "website_url": "http://www.randomrow.com",
    "state": "Virginia",
    "street": "608 Preston Ave"
  },
  {
    "id": "b3ffcb37-d39e-4294-a09e-0dcd8130725c",
    "name": "Raney Cellars",
    "brewery_type": "brewpub",
    "address_1": "11 Manor Ave",
    "address_2": null,
    "address_3": null,
    "city": "Millersville",
    "state_province": "Pennsylvania",
    "postal_code": "17551",
    "country": "United States",
    "longitude": null,
    "latitude": null,
    "phone": "7175845085",
    "website_url": "http://raneycellarsbrewing.com",
    "state": "Pennsylvania",
    "street": "11 Manor Ave"
  },
  {
    "id": "9e8c2604-e9ac-4348-9f3b-3c83f7fa3599",
    "name": "Ranger Creek Brewery",
    "brewery_type": "micro",
    "address_1": "4834 Whirlwind Dr Ste 2",
    "address_2": null,
    "address_3": null,
    "city": "San Antonio",
    "state_province": "Texas",
    "postal_code": "78217-3740",
    "country": "United States",
    "longitude": null,
    "latitude": null,
    "phone": "8329693800",
    "website_url": "http://www.drinkrangercreek.com",
    "state": "Texas",
    "street": "4834 Whirlwind Dr Ste 2"
  },
  {
    "id": "fa812afd-8652-4cd9-b5d5-af26b115dfdd",
    "name": "R\u00e2\u0080\u0099Noggin Brewing",
    "brewery_type": "micro",
    "address_1": "6521 120th Ave",
    "address_2": null,
    "address_3": null,
    "city": "Kenosha",
    "state_province": "Wisconsin",
    "postal_code": "53142",
    "country": "United States",
    "longitude": -87.9532178,
    "latitude": 42.57624125,
    "phone": "2629601298",
    "website_url": "http://www.rnogginbrewing.com",
    "state": "Wisconsin",
    "street": "6521 120th Ave"
  },
  {
    "id": "d8a3c95b-24ae-4c7b-bb11-511ef1814c38",
    "name": "Rants And Raves Brewery",
    "brewery_type": "brewpub",
    "address_1": "308 N Jackson St",
    "address_2": null,
    "address_3": null,
    "city": "Moscow",
    "state_province": "Idaho",
    "postal_code": "83843-2065",
    "country": "United States",
    "longitude": -117.0027808,
    "latitude": 46.7344955,
    "phone": "2085964061",
    "website_url": "https://www.rantsravesbrewery.com",
    "state": "Idaho",
    "street": "308 N Jackson St"
  },
  {
    "id": "df8f790d-c35b-4564-8aa0-d03f1c7594f7",
    "name": "Rapp Brewing Company",
    "brewery_type": "micro",
    "address_1": "10930 Endeavour Way Ste C",
    "address_2": null,
    "address_3": null,
    "city": "Seminole",
    "state_province": "Florida",
    "postal_code": "33777-1632",
    "country": "United States",
    "longitude": null,
    "latitude": null,
    "phone": "7276927912",
    "website_url": "http://www.rapp.beer",
    "state": "Florida",
    "street": "10930 Endeavour Way Ste C"
  },
  {
    "id": "85466615-ba76-4f5b-830d-d1ee300bf38a",
    "name": "Rapp's Barren Brewing Company",
    "brewery_type": "micro",
    "address_1": "1343 E 9th St",
    "address_2": null,
    "address_3": null,
    "city": "Mountain Home",
    "state_province": "Arkansas",
    "postal_code": "72653-5050",
    "country": "United States",
    "longitude": -92.3599724,
    "latitude": 36.3326432,
    "phone": "8704247288",
    "website_url": "http://www.rappsbarrenbrewing.com",
    "state": "Arkansas",
    "street": "1343 E 9th St"
  },
  {
    "id": "1084cdaa-c536-42c0-a2c6-20c9f0253aed",
    "name": "Rapscallion Ales",
    "brewery_type": "micro",
    "address_1": "5 Strawberry Hill Rd",
    "address_2": null,
    "address_3": null,
    "city": "Acton",
    "state_province": "Massachusetts",
    "postal_code": "01720-5706",
    "country": "United States",
    "longitude": -71.41585461,
    "latitude": 42.4919605,
    "phone": "5083477500",
    "website_url": "http://www.drinkrapscallion.com",
    "state": "Massachusetts",
    "street": "5 Strawberry Hill Rd"
  },
  {
    "id": "7ceade71-eaf6-412e-9dcb-11ef623dc26d",
    "name": "Raquette River Brewing",
    "brewery_type": "micro",
    "address_1": "11 Balsam St # 2",
    "address_2": null,
    "address_3": null,
    "city": "Tupper Lake",
    "state_province": "New York",
    "postal_code": "12986-1033",
    "country": "United States",
    "longitude": -74.48652145,
    "latitude": 44.24347376,
    "phone": "5183595219",
    "website_url": "http://www.raquetteriverbrewing.com",
    "state": "New York",
    "street": "11 Balsam St # 2"
  },
  {
    "id": "9d404fb4-ccce-4f36-80f1-abcb08db1c7a",
    "name": "RAR Brewing",
    "brewery_type": "proprietor",
    "address_1": "504 Poplar St",
    "address_2": null,
    "address_3": null,
    "city": "Cambridge",
    "state_province": "Maryland",
    "postal_code": "21613-1834",
    "country": "United States",
    "longitude": -76.0774552,
    "latitude": 38.5702289,
    "phone": "4107257922",
    "website_url": "http://www.rarbrewing.com",
    "state": "Maryland",
    "street": "504 Poplar St"
  },
  {
    "id": "305b584c-df57-4c6f-98d2-491736bbe7e9",
    "name": "Rare Bird Brewpub",
    "brewery_type": "brewpub",
    "address_1": "229 Lake Ave",
    "address_2": null,
    "address_3": null,
    "city": "Traverse City",
    "state_province": "Michigan",
    "postal_code": "49684-2532",
    "country": "United States",
    "longitude": -85.61932337,
    "latitude": 44.75978039,
    "phone": "2319432053",
    "website_url": "http://rarebirdbrewpub.com",
    "state": "Michigan",
    "street": "229 Lake Ave"
  },
  {
    "id": "42e70445-725e-464b-9ab5-68ae743cc256",
    "name": "RARE by Grist Brewing",
    "brewery_type": "closed",
    "address_1": "9535 Park Meadows Dr Ste F",
    "address_2": null,
    "address_3": null,
    "city": "Lone Tree",
    "state_province": "Colorado",
    "postal_code": "80124",
    "country": "United States",
    "longitude": null,
    "latitude": null,
    "phone": "3037289394",
    "website_url": null,
    "state": "Colorado",
    "street": "9535 Park Meadows Dr Ste F"
  },
  {
    "id": "a9b86c63-e7f6-42c6-b2a4-5e508b93da49",
    "name": "Rare Form Brewing",
    "brewery_type": "micro",
    "address_1": "90 Congress St",
    "address_2": null,
    "address_3": null,
    "city": "Troy",
    "state_province": "New York",
    "postal_code": "12180-4123",
    "country": "United States",
    "longitude": -73.6899808,
    "latitude": 42.7286018,
    "phone": "5183264303",
    "website_url": "http://www.rareformbrewing.com",
    "state": "New York",
    "street": "90 Congress St"
  },
  {
    "id": "a54bd706-4656-404b-91a2-b95d0f939741",
    "name": "Raritan Bay Brewing, LLC",
    "brewery_type": "micro",
    "address_1": "32 Church Street",
    "address_2": null,
    "address_3": null,
    "city": "Keansburg",
    "state_province": "New Jersey",
    "postal_code": "07734",
    "country": "United States",
    "longitude": -74.131668,
    "latitude": 40.441664,
    "phone": null,
    "website_url": "http://raritanbaybrewing.com",
    "state": "New Jersey",
    "street": "32 Church Street"
  },
  {
    "id": "59be3ba3-38aa-4ec0-9d2f-97256dca012e",
    "name": "Rascals Brewing Company",
    "brewery_type": "brewpub",
    "address_1": "Goldenbridge Estate",
    "address_2": "Tyrconnell Rd",
    "address_3": null,
    "city": "Inchicore",
    "state_province": "Dublin",
    "postal_code": "D08 HF68",
    "country": "Ireland",
    "longitude": -6.3262538,
    "latitude": 53.3361014,
    "phone": "35315382051",
    "website_url": "https://rascalsbrewing.com/",
    "state": "Dublin",
    "street": "Goldenbridge Estate"
  },
  {
    "id": "948ff9bf-8703-448e-897e-51ca8dc71d5a",
    "name": "Ratchet Brewery Salem",
    "brewery_type": "brewpub",
    "address_1": "2701 22nd St SE",
    "address_2": null,
    "address_3": null,
    "city": "Salem",
    "state_province": "Oregon",
    "postal_code": "97302-1553",
    "country": "United States",
    "longitude": -123.0173762,
    "latitude": 44.91418158,
    "phone": "5035809864",
    "website_url": "https://ratchetbrewery.com",
    "state": "Oregon",
    "street": "2701 22nd St SE"
  },
  {
    "id": "5316786e-711d-485c-a179-40106341c9d5",
    "name": "Ratchet Brewery Silverton",
    "brewery_type": "brewpub",
    "address_1": "990 North First Street",
    "address_2": null,
    "address_3": null,
    "city": "Silverton",
    "state_province": "Oregon",
    "postal_code": "97381",
    "country": "United States",
    "longitude": -122.7845824,
    "latitude": 45.01410457,
    "phone": "5038744677",
    "website_url": "https://ratchetbrewery.com",
    "state": "Oregon",
    "street": "990 North First Street"
  },
  {
    "id": "90ea24ab-7f6b-4961-95ee-496ba24e62f3",
    "name": "Ratio Beerworks",
    "brewery_type": "micro",
    "address_1": "2920 Larimer St",
    "address_2": null,
    "address_3": null,
    "city": "Denver",
    "state_province": "Colorado",
    "postal_code": "80205-2309",
    "country": "United States",
    "longitude": -104.9812181,
    "latitude": 39.7615104,
    "phone": "3102669264",
    "website_url": "http://ratiobeerworks.com",
    "state": "Colorado",
    "street": "2920 Larimer St"
  },
  {
    "id": "d58fc03d-9801-45da-8df3-1e884402c2a8",
    "name": "Rattlesnake Mountain Brewery / Kimo's Restaurant",
    "brewery_type": "brewpub",
    "address_1": "1250 Columbia Center Blvd",
    "address_2": null,
    "address_3": null,
    "city": "Richland",
    "state_province": "Washington",
    "postal_code": "99352-4839",
    "country": "United States",
    "longitude": -119.2234822,
    "latitude": 46.22504543,
    "phone": "5097835747",
    "website_url": "http://www.rattlesnakemountainbrewery.com",
    "state": "Washington",
    "street": "1250 Columbia Center Blvd"
  }
]