[
  {
    "id": "5b39343d-ac51-48b3-b7fe-db6cd1989291",
    "name": "Humpy's Great Alaskan Alehouse",
    "brewery_type": "contract",
    "address_1": "610 W 6th Ave",
    "address_2": null,
    "address_3": null,
    "city": "Anchorage",
    "state_province": "Alaska",
    "postal_code": "99501-2225",
    "country": "United States",
    "longitude": -149.8938928,
    "latitude": 61.216502,
    "phone": "9072762337",
    "website_url": "http://www.humpysalaska.com",
    "state": "Alaska",
    "street": "610 W 6th Ave"
  },
  {
    "id": "a9913878-49ec-44c4-83cd-13fdaf56c17b",
    "name": "Hunga Dunga Brewing",
    "brewery_type": "brewpub",
    "address_1": "333 N Jackson St",
    "address_2": null,
    "address_3": null,
    "city": "Moscow",
    "state_province": "Idaho",
    "postal_code": "83843-2065",
    "country": "United States",
    "longitude": -117.0027808,
    "latitude": 46.7344955,
    "phone": "2085964855",
    "website_url": "http://www.hungadungabrewing.com",
    "state": "Idaho",
    "street": "333 N Jackson St"
  },
  {
    "id": "2caa7307-e994-482a-a10f-f82087ff582f",
    "name": "Hungry Hollow Brewing Company",
    "brewery_type": "micro",
    "address_1": "14396 FR 2140",
    "address_2": null,
    "address_3": null,
    "city": "Cassville",
    "state_province": "Missouri",
    "postal_code": "65625",
    "country": "United States",
    "longitude": -93.831482,
    "latitude": 36.757718,
    "phone": "4173422072",
    "website_url": "http://www.hungryhollowbrewing.com",
    "state": "Missouri",
    "street": "14396 FR 2140"
  },
  {
    "id": "4b8ade34-41a6-4afa-a757-b37dbea62e57",
    "name": "Hunter Gatherer Brewery and Alehouse",
    "brewery_type": "brewpub",
    "address_1": "900 Main St",
    "address_2": null,
    "address_3": null,
    "city": "Columbia",
    "state_province": "South Carolina",
    "postal_code": "29201-3964",
    "country": "United States",
    "longitude": -81.0315874,
    "latitude": 33.997366,
    "phone": "8037480540",
    "website_url": "http://www.huntergathererbrewery.com",
    "state": "South Carolina",
    "street": "900 Main St"
  },
  {
    "id": "a488e5b0-f8ac-43b0-9851-e9c21b10568d",
    "name": "Hunter's Ale House",
    "brewery_type": "brewpub",
    "address_1": "4855 E Blue Grass Rd",
    "address_2": null,
    "address_3": null,
    "city": "Mount Pleasant",
    "state_province": "Michigan",
    "postal_code": "48858-7527",
    "country": "United States",
    "longitude": null,
    "latitude": null,
    "phone": "9897792626",
    "website_url": null,
    "state": "Michigan",
    "street": "4855 E Blue Grass Rd"
  },
  {
    "id": "1ae079e7-be69-48e8-b4c8-efb3a4cfcc91",
    "name": "Hunter's Brewing",
    "brewery_type": "brewpub",
    "address_1": "1535 S Calumet Rd",
    "address_2": null,
    "address_3": null,
    "city": "Chesterton",
    "state_province": "Indiana",
    "postal_code": "46304-3301",
    "country": "United States",
    "longitude": -87.0475184,
    "latitude": 41.5971593,
    "phone": "2197286729",
    "website_url": null,
    "state": "Indiana",
    "street": "1535 S Calumet Rd"
  },
  {
    "id": "54f06f0e-9f92-40c1-9920-6a87db8626bb",
    "name": "Huntington Beach Beer Co",
    "brewery_type": "brewpub",
    "address_1": "201 Main St Ste E",
    "address_2": null,
    "address_3": null,
    "city": "Huntington Beach",
    "state_province": "California",
    "postal_code": "92648-8110",
    "country": "United States",
    "longitude": -118.0012223,
    "latitude": 33.65845972,
    "phone": "7149605343",
    "website_url": "http://www.hbbeerco.com",
    "state": "California",
    "street": "201 Main St Ste E"
  },
  {
    "id": "2db716e2-28fb-4db3-95de-11a5d86a29d6",
    "name": "Hunyuck Brew Co.",
    "brewery_type": "planning",
    "address_1": null,
    "address_2": null,
    "address_3": null,
    "city": "Oakdale",
    "state_province": "Minnesota",
    "postal_code": "55128-2276",
    "country": "United States",
    "longitude": null,
    "latitude": null,
    "phone": "6514915066",
    "website_url": "http://www.hunyuckbrewco.com",
    "state": "Minnesota",
    "street": null
  },
  {
    "id": "48c4fc12-7c05-4a6a-8771-135bd810f38a",
    "name": "Hurst Brewery",
    "brewery_type": "brewpub",
    "address_1": "College Lane",
    "address_2": null,
    "address_3": null,
    "city": "Hassocks",
    "state_province": "West Sussex",
    "postal_code": "BN6 9JT",
    "country": "England",
    "longitude": -0.161461,
    "latitude": 50.941632,
    "phone": "7866438953",
    "website_url": "http://www.hurstbrewery.com/",
    "state": "West Sussex",
    "street": "College Lane"
  },
  {
    "id": "390f8036-dad5-49da-845e-2f93db0cc19d",
    "name": "Huske Hardware House Brewing Co",
    "brewery_type": "brewpub",
    "address_1": "405 Hay St",
    "address_2": null,
    "address_3": null,
    "city": "Fayetteville",
    "state_province": "North Carolina",
    "postal_code": "28301-5537",
    "country": "United States",
    "longitude": -78.88249131,
    "latitude": 35.05393051,
    "phone": "9104265650",
    "website_url": "http://www.huskehardware.com",
    "state": "North Carolina",
    "street": "405 Hay St"
  },
  {
    "id": "8c10201d-d42a-4573-9384-dd75d08255bd",
    "name": "Huss Brewing",
    "brewery_type": "micro",
    "address_1": "1520 W Mineral Rd Ste 102",
    "address_2": null,
    "address_3": null,
    "city": "Tempe",
    "state_province": "Arizona",
    "postal_code": "85283-4343",
    "country": "United States",
    "longitude": null,
    "latitude": null,
    "phone": "4802647611",
    "website_url": null,
    "state": "Arizona",
    "street": "1520 W Mineral Rd Ste 102"
  },
  {
    "id": "601b1ef6-a25a-4a22-998b-44eb110d0ca1",
    "name": "Hutton & Smith Brewing Company",
    "brewery_type": "micro",
    "address_1": "431 E Martin Luther King Blvd # 120",
    "address_2": null,
    "address_3": null,
    "city": "Chattanooga",
    "state_province": "Tennessee",
    "postal_code": "37403",
    "country": "United States",
    "longitude": null,
    "latitude": null,
    "phone": "4237603600",
    "website_url": "http://www.huttonandsmithbrewing.com",
    "state": "Tennessee",
    "street": "431 E Martin Luther King Blvd # 120"
  },
  {
    "id": "8dd50f12-b4db-4fc1-865a-345be886c67f",
    "name": "HWY 50 Brewery",
    "brewery_type": "planning",
    "address_1": null,
    "address_2": null,
    "address_3": null,
    "city": "Camino",
    "state_province": "California",
    "postal_code": "95709",
    "country": "United States",
    "longitude": -120.6749302,
    "latitude": 38.7382366,
    "phone": null,
    "website_url": "http://www.hwy50brewery.com",
    "state": "California",
    "street": null
  },
  {
    "id": "7b6d1417-b858-4ec3-9b7a-c54b738e8750",
    "name": "Hyde Brewing",
    "brewery_type": "brewpub",
    "address_1": "2911 Griffith St",
    "address_2": null,
    "address_3": null,
    "city": "Charlotte",
    "state_province": "North Carolina",
    "postal_code": "28203-5429",
    "country": "United States",
    "longitude": -80.86910602,
    "latitude": 35.20083417,
    "phone": "7046095363",
    "website_url": "http://hydebrewing.com/",
    "state": "North Carolina",
    "street": "2911 Griffith St"
  },
  {
    "id": "d7f413d6-f2ac-46d2-a2da-6ec77476459b",
    "name": "Hyde Park Brewing Co",
    "brewery_type": "micro",
    "address_1": "4076 Albany Post Rd",
    "address_2": null,
    "address_3": null,
    "city": "Hyde Park",
    "state_province": "New York",
    "postal_code": "12538-1934",
    "country": "United States",
    "longitude": -73.93007747,
    "latitude": 41.76674824,
    "phone": "8452298277",
    "website_url": "http://www.hydeparkbrewing.com",
    "state": "New York",
    "street": "4076 Albany Post Rd"
  },
  {
    "id": "6e978e0d-a64e-42de-9c9d-d04b5da5b021",
    "name": "Hyperion Brewing",
    "brewery_type": "micro",
    "address_1": "1740 N Main St",
    "address_2": null,
    "address_3": null,
    "city": "Jacksonville",
    "state_province": "Florida",
    "postal_code": "32206-4404",
    "country": "United States",
    "longitude": null,
    "latitude": null,
    "phone": "9045185131",
    "website_url": "http://www.hyperionbrewing.com",
    "state": "Florida",
    "street": "1740 N Main St"
  },
  {
    "id": "973edf5b-0239-43fa-9c3d-640bb92a5225",
    "name": "Hysteria Brewing Company",
    "brewery_type": "micro",
    "address_1": "9570 Berger Rd Ste J",
    "address_2": null,
    "address_3": null,
    "city": "Columbia",
    "state_province": "Maryland",
    "postal_code": "21046-1559",
    "country": "United States",
    "longitude": null,
    "latitude": null,
    "phone": "4103608319",
    "website_url": "http://www.hysteriabrewing.com",
    "state": "Maryland",
    "street": "9570 Berger Rd Ste J"
  },
  {
    "id": "a1c9761d-6656-4e21-919e-8da7c2767842",
    "name": "I & I Brewing",
    "brewery_type": "micro",
    "address_1": "5135 Edison Ave Ste 1",
    "address_2": null,
    "address_3": null,
    "city": "Chino",
    "state_province": "California",
    "postal_code": "91710-5773",
    "country": "United States",
    "longitude": -117.6926224,
    "latitude": 33.99719342,
    "phone": "9095913915",
    "website_url": "http://www.iandibrewing.com",
    "state": "California",
    "street": "5135 Edison Ave Ste 1"
  },
  {
    "id": "ad71e208-40a4-4f53-b3a5-a92df88d83f7",
    "name": "IBC Brewery & Tasting Room",
    "brewery_type": "micro",
    "address_1": "3200 St Lucie Blvd",
    "address_2": null,
    "address_3": null,
    "city": "Fort Pierce",
    "state_province": "Florida",
    "postal_code": "34946-6761",
    "country": "United States",
    "longitude": null,
    "latitude": null,
    "phone": "3055089093",
    "website_url": null,
    "state": "Florida",
    "street": "3200 St Lucie Blvd"
  },
  {
    "id": "8cae70ac-4b7d-4e78-9252-aa57d973dac9",
    "name": "Icarus Brewing Company",
    "brewery_type": "micro",
    "address_1": "1790 Swarthmore Ave Unit 3 Lot 2",
    "address_2": null,
    "address_3": null,
    "city": "Lakewood",
    "state_province": "New Jersey",
    "postal_code": "08701-4528",
    "country": "United States",
    "longitude": null,
    "latitude": null,
    "phone": null,
    "website_url": "http://www.icarusbrewing.com",
    "state": "New Jersey",
    "street": "1790 Swarthmore Ave Unit 3 Lot 2"
  },
  {
    "id": "01ecbbdb-475c-40d0-a336-9951ac60e52e",
    "name": "Ice Harbor Brewing Company",
    "brewery_type": "brewpub",
    "address_1": "206 N Benton St Ste C",
    "address_2": null,
    "address_3": null,
    "city": "Kennewick",
    "state_province": "Washington",
    "postal_code": "99336-3608",
    "country": "United States",
    "longitude": -119.119238,
    "latitude": 46.2111,
    "phone": "5095825340",
    "website_url": "http://www.iceharbor.com",
    "state": "Washington",
    "street": "206 N Benton St Ste C"
  },
  {
    "id": "feb525c5-293c-4e08-88b7-0005da6e8bea",
    "name": "Ice Harbor Brewing Company at the Marina",
    "brewery_type": "brewpub",
    "address_1": "350 Clover Island Dr",
    "address_2": null,
    "address_3": null,
    "city": "Kennewick",
    "state_province": "Washington",
    "postal_code": "99336-3678",
    "country": "United States",
    "longitude": -119.111368,
    "latitude": 46.217631,
    "phone": "5095863181",
    "website_url": "http://www.iceharbor.com",
    "state": "Washington",
    "street": "350 Clover Island Dr"
  },
  {
    "id": "0f79930c-9395-4d3d-9611-a9b9f16c759a",
    "name": "Icebox Brewing LLC",
    "brewery_type": "planning",
    "address_1": null,
    "address_2": null,
    "address_3": null,
    "city": "Las Cruces",
    "state_province": "New Mexico",
    "postal_code": "88007-4722",
    "country": "United States",
    "longitude": null,
    "latitude": null,
    "phone": "5755267129",
    "website_url": null,
    "state": "New Mexico",
    "street": null
  },
  {
    "id": "c2ad7c70-841a-47a0-b863-271f292ab056",
    "name": "Icewind Brewing",
    "brewery_type": "micro",
    "address_1": "349 Knutson St Unit B",
    "address_2": null,
    "address_3": null,
    "city": "Mapleton",
    "state_province": "North Dakota",
    "postal_code": "58059-4065",
    "country": "United States",
    "longitude": -97.04609108,
    "latitude": 46.88200095,
    "phone": "7012033579",
    "website_url": "http://www.icewindbrewing.com",
    "state": "North Dakota",
    "street": "349 Knutson St Unit B"
  },
  {
    "id": "3581f90d-ae3d-4608-8f26-1d695d811946",
    "name": "Icicle Brewing Co",
    "brewery_type": "brewpub",
    "address_1": "935 Front St",
    "address_2": null,
    "address_3": null,
    "city": "Leavenworth",
    "state_province": "Washington",
    "postal_code": "98826-1427",
    "country": "United States",
    "longitude": -120.6597193,
    "latitude": 47.5962501,
    "phone": "5095482739",
    "website_url": "http://www.iciclebrewing.com",
    "state": "Washington",
    "street": "935 Front St"
  },
  {
    "id": "5a0c4ee1-3be0-43fa-8bbd-45616b6554d2",
    "name": "Iconyc Brewing Company",
    "brewery_type": "micro",
    "address_1": "45-13 34th Ave",
    "address_2": null,
    "address_3": null,
    "city": "Long Island City",
    "state_province": "New York",
    "postal_code": "11101-1041",
    "country": "United States",
    "longitude": null,
    "latitude": null,
    "phone": "3473421360",
    "website_url": "http://www.iconycbrewing.com",
    "state": "New York",
    "street": "45-13 34th Ave"
  },
  {
    "id": "4614e14e-68ec-42b1-b972-598da619bf51",
    "name": "Icy Strait Brewery",
    "brewery_type": "micro",
    "address_1": "286 Front St",
    "address_2": null,
    "address_3": null,
    "city": "Hoonah",
    "state_province": "Alaska",
    "postal_code": "99829",
    "country": "United States",
    "longitude": -135.4464887,
    "latitude": 58.11031874,
    "phone": "9077235482",
    "website_url": "http://icystraitbrewing.company",
    "state": "Alaska",
    "street": "286 Front St"
  },
  {
    "id": "27d4f742-12fa-46d0-b27f-a42af72e1180",
    "name": "Idaho Brewing Co",
    "brewery_type": "micro",
    "address_1": "775 S Capital Ave",
    "address_2": null,
    "address_3": null,
    "city": "Idaho Falls",
    "state_province": "Idaho",
    "postal_code": "83402-3965",
    "country": "United States",
    "longitude": -112.0459845,
    "latitude": 43.48724009,
    "phone": "2085897233",
    "website_url": "http://www.idahobrewing.com",
    "state": "Idaho",
    "street": "775 S Capital Ave"
  },
  {
    "id": "6edb4abe-eb25-493c-a514-519cce61a91b",
    "name": "IDK Beer Co",
    "brewery_type": "planning",
    "address_1": null,
    "address_2": null,
    "address_3": null,
    "city": "Lakewood",
    "state_province": "Colorado",
    "postal_code": "80228-4251",
    "country": "United States",
    "longitude": null,
    "latitude": null,
    "phone": null,
    "website_url": null,
    "state": "Colorado",
    "street": null
  },
  {
    "id": "ac61b0f1-cb04-4362-9446-ad4ade13ec74",
    "name": "Idle Hands Craft Ales",
    "brewery_type": "micro",
    "address_1": "89 Commercial St",
    "address_2": null,
    "address_3": null,
    "city": "Malden",
    "state_province": "Massachusetts",
    "postal_code": "02148-5509",
    "country": "United States",
    "longitude": -71.07473084,
    "latitude": 42.4243819,
    "phone": "7813336070",
    "website_url": "http://www.idlehandscraftales.com",
    "state": "Massachusetts",
    "street": "89 Commercial St"
  },
  {
    "id": "78f847f7-1c22-4110-82e8-399244097e38",
    "name": "Idle Vine Brewing Company",
    "brewery_type": "micro",
    "address_1": "16920 Joe Barbee Dr",
    "address_2": null,
    "address_3": null,
    "city": "Round Rock",
    "state_province": "Texas",
    "postal_code": "78664-2373",
    "country": "United States",
    "longitude": null,
    "latitude": null,
    "phone": "5125273235",
    "website_url": "http://www.IdleVineBrewery.com",
    "state": "Texas",
    "street": "16920 Joe Barbee Dr"
  },
  {
    "id": "16d20128-a551-4eb6-bb79-71b9c2943e35",
    "name": "Idletyme Brewing Company",
    "brewery_type": "brewpub",
    "address_1": "1859 Mountain Rd",
    "address_2": null,
    "address_3": null,
    "city": "Stowe",
    "state_province": "Vermont",
    "postal_code": "05672-4890",
    "country": "United States",
    "longitude": -72.698401,
    "latitude": 44.473833,
    "phone": "8022534765",
    "website_url": "http://www.idletymebrewing.com",
    "state": "Vermont",
    "street": "1859 Mountain Rd"
  },
  {
    "id": "3a08cc13-e168-491d-8ae9-8de349b438eb",
    "name": "Idol Beer Works",
    "brewery_type": "micro",
    "address_1": "100 S Sacramento St",
    "address_2": null,
    "address_3": null,
    "city": "Lodi",
    "state_province": "California",
    "postal_code": "95240-3526",
    "country": "United States",
    "longitude": -121.2722,
    "latitude": 38.1328,
    "phone": null,
    "website_url": "http://www.idolbeerworks.com",
    "state": "California",
    "street": "100 S Sacramento St"
  },
  {
    "id": "203fa65b-62d0-4e3c-bd62-48e06b9fb22f",
    "name": "Idyll Hounds Brewing Company",
    "brewery_type": "micro",
    "address_1": "845 Serenoa Rd",
    "address_2": null,
    "address_3": null,
    "city": "Santa Rosa Beach",
    "state_province": "Florida",
    "postal_code": "32459-5019",
    "country": "United States",
    "longitude": null,
    "latitude": null,
    "phone": null,
    "website_url": null,
    "state": "Florida",
    "street": "845 Serenoa Rd"
  },
  {
    "id": "4b96eb3a-b551-4204-9752-ffbf4c3592d7",
    "name": "Idyllwild Brewpub",
    "brewery_type": "brewpub",
    "address_1": "54423 Village Center Dr",
    "address_2": null,
    "address_3": null,
    "city": "Idyllwild",
    "state_province": "California",
    "postal_code": "92549",
    "country": "United States",
    "longitude": -116.711296,
    "latitude": 33.7436195,
    "phone": "9516590163",
    "website_url": "http://www.idyllwildbrewpub.com",
    "state": "California",
    "street": "54423 Village Center Dr"
  },
  {
    "id": "28e57039-a0ad-4091-aa1f-d7ddb0297002",
    "name": "Idylwilde Brewing",
    "brewery_type": "micro",
    "address_1": "116 Fawn Dr",
    "address_2": null,
    "address_3": null,
    "city": "Carbondale",
    "state_province": "Colorado",
    "postal_code": "81623-9703",
    "country": "United States",
    "longitude": null,
    "latitude": null,
    "phone": "9702746332",
    "website_url": "http://idylwildebrewing.com",
    "state": "Colorado",
    "street": "116 Fawn Dr"
  },
  {
    "id": "f8866c52-c47d-4243-96db-9347944077fb",
    "name": "Iechyd Da Brewing",
    "brewery_type": "brewpub",
    "address_1": "317 N Main St",
    "address_2": null,
    "address_3": null,
    "city": "Elkhart",
    "state_province": "Indiana",
    "postal_code": "46516-3034",
    "country": "United States",
    "longitude": -85.97531332,
    "latitude": 41.69004065,
    "phone": "5742930506",
    "website_url": "http://www.iechyddabrewingcompany.com",
    "state": "Indiana",
    "street": "317 N Main St"
  },
  {
    "id": "ab91cb99-55d9-48e4-96c9-77593a53a78c",
    "name": "Ignite Brewing Company, Ltd.",
    "brewery_type": "micro",
    "address_1": "600 W Tuscarawas Ave",
    "address_2": null,
    "address_3": null,
    "city": "Barberton",
    "state_province": "Ohio",
    "postal_code": "44203-2460",
    "country": "United States",
    "longitude": -81.61268,
    "latitude": 41.012866,
    "phone": "3306966881",
    "website_url": "http://www.facebook.com/Ignitebrewingcompany",
    "state": "Ohio",
    "street": "600 W Tuscarawas Ave"
  },
  {
    "id": "0a187cd6-eafd-4c4e-869a-78d4bd9f59fc",
    "name": "Ill Mannered Brewing Company",
    "brewery_type": "micro",
    "address_1": "38 Grace Dr",
    "address_2": null,
    "address_3": null,
    "city": "Powell",
    "state_province": "Ohio",
    "postal_code": "43065-8466",
    "country": "United States",
    "longitude": -83.0740121,
    "latitude": 40.1635259,
    "phone": "614-859-6819",
    "website_url": "http://www.illmanneredbeer.com/",
    "state": "Ohio",
    "street": "38 Grace Dr"
  },
  {
    "id": "c6e87f2a-227c-4549-ab73-aafcb5fd1fef",
    "name": "ILL STYLEZ BREWING",
    "brewery_type": "planning",
    "address_1": null,
    "address_2": null,
    "address_3": null,
    "city": "Freeport",
    "state_province": "Illinois",
    "postal_code": "61032-4761",
    "country": "United States",
    "longitude": null,
    "latitude": null,
    "phone": null,
    "website_url": null,
    "state": "Illinois",
    "street": null
  },
  {
    "id": "22e59bb4-690e-41f4-9d63-b65ad57452b1",
    "name": "Illuminated Brew Works",
    "brewery_type": "micro",
    "address_1": "415 N Sangamon St",
    "address_2": null,
    "address_3": null,
    "city": "Chicago",
    "state_province": "Illinois",
    "postal_code": "60642-6546",
    "country": "United States",
    "longitude": -87.65074933,
    "latitude": 41.88958325,
    "phone": "7737262874",
    "website_url": "http://www.ibw-chicago.com",
    "state": "Illinois",
    "street": "415 N Sangamon St"
  },
  {
    "id": "61d70479-54b0-4c2a-ba13-b8d175ba6493",
    "name": "Illuminati Brewing Company",
    "brewery_type": "closed",
    "address_1": "3950 Hammer Dr Ste 101",
    "address_2": null,
    "address_3": null,
    "city": "Bellingham",
    "state_province": "Washington",
    "postal_code": "98226-7776",
    "country": "United States",
    "longitude": -122.4560056,
    "latitude": 48.7838573,
    "phone": "3602207072",
    "website_url": "http://www.illuminatibrewing.com",
    "state": "Washington",
    "street": "3950 Hammer Dr Ste 101"
  },
  {
    "id": "302e8ee4-1060-490c-8d68-f8dcc277d5d6",
    "name": "Imagine Nation Brewing",
    "brewery_type": "micro",
    "address_1": "1151 W Broadway St",
    "address_2": null,
    "address_3": null,
    "city": "Missoula",
    "state_province": "Montana",
    "postal_code": "59802-3916",
    "country": "United States",
    "longitude": -114.0099097,
    "latitude": 46.8766353,
    "phone": "4069261251",
    "website_url": "http://www.imaginenationbrewing.com",
    "state": "Montana",
    "street": "1151 W Broadway St"
  },
  {
    "id": "81291016-df53-43a5-9e00-21269ac6b282",
    "name": "IMBIB Custom Brews",
    "brewery_type": "micro",
    "address_1": "785 E 2nd St",
    "address_2": null,
    "address_3": null,
    "city": "Reno",
    "state_province": "Nevada",
    "postal_code": "89502-1018",
    "country": "United States",
    "longitude": -119.8010403,
    "latitude": 39.52744792,
    "phone": "7753033385",
    "website_url": "http://www.imbib.beer",
    "state": "Nevada",
    "street": "785 E 2nd St"
  },
  {
    "id": "ea885340-1209-4300-a66e-d272b929c6c5",
    "name": "Immersion Brewing",
    "brewery_type": "brewpub",
    "address_1": "550 SW Industrial Way",
    "address_2": null,
    "address_3": null,
    "city": "Bend",
    "state_province": "Oregon",
    "postal_code": "97702-1084",
    "country": "United States",
    "longitude": -121.3155231,
    "latitude": 44.05100445,
    "phone": "5416337821",
    "website_url": "http://www.imbrewing.com",
    "state": "Oregon",
    "street": "550 SW Industrial Way"
  },
  {
    "id": "62baf078-a996-4fd5-8705-256badd33c0f",
    "name": "Imminent Brewing",
    "brewery_type": "micro",
    "address_1": "519 Division St S Unit 2",
    "address_2": null,
    "address_3": null,
    "city": "Northfield",
    "state_province": "Minnesota",
    "postal_code": "55057-2021",
    "country": "United States",
    "longitude": null,
    "latitude": null,
    "phone": "5076462327",
    "website_url": "http://www.imminentbrewing.com",
    "state": "Minnesota",
    "street": "519 Division St S Unit 2"
  },
  {
    "id": "507ef015-aa10-4ec9-9f8a-0889e1bb3c9e",
    "name": "Immortal Brewing Company",
    "brewery_type": "planning",
    "address_1": null,
    "address_2": null,
    "address_3": null,
    "city": "Las Vegas",
    "state_province": "Nevada",
    "postal_code": "89183-5893",
    "country": "United States",
    "longitude": null,
    "latitude": null,
    "phone": null,
    "website_url": "http://www.immortalbrewco.com",
    "state": "Nevada",
    "street": null
  },
  {
    "id": "e21d9ff5-33e3-4e15-af90-2d8171ff6e7f",
    "name": "Imperial Brygghus",
    "brewery_type": "micro",
    "address_1": "Ronnebygatan 38",
    "address_2": null,
    "address_3": null,
    "city": "Karlskrona",
    "state_province": "Blekinge",
    "postal_code": "371 33",
    "country": "Sweden",
    "longitude": 15.5876751,
    "latitude": 56.1621939,
    "phone": "+46 708-30 02 18",
    "website_url": "https://imperialbrygghus.se/",
    "state": "Blekinge",
    "street": "Ronnebygatan 38"
  },
  {
    "id": "b93a7663-6121-4458-ba91-d8e1c045d0b4",
    "name": "Imperial Oak Brewing Co",
    "brewery_type": "micro",
    "address_1": "501 Willow Blvd Ste 108",
    "address_2": null,
    "address_3": null,
    "city": "Willow Springs",
    "state_province": "Illinois",
    "postal_code": "60480-1710",
    "country": "United States",
    "longitude": -87.879257,
    "latitude": 41.73187,
    "phone": "7083305096",
    "website_url": "http://www.imperialoakbrewing.com",
    "state": "Illinois",
    "street": "501 Willow Blvd Ste 108"
  },
  {
    "id": "1cf4be70-96b7-4c19-962a-917e758a2343",
    "name": "Imperium Brewing",
    "brewery_type": "planning",
    "address_1": null,
    "address_2": null,
    "address_3": null,
    "city": "Hickory",
    "state_province": "Pennsylvania",
    "postal_code": "15340-1135",
    "country": "United States",
    "longitude": null,
    "latitude": null,
    "phone": "4129991077",
    "website_url": "http://imperiumbrewing.com",
    "state": "Pennsylvania",
    "street": null
  }
]