[
  {
    "id": "7d5db948-1fc5-45b6-a277-8d69a6352055",
    "name": "Bike Rack Brewing Co",
    "brewery_type": "micro",
    "address_1": "410 SW A St Ste 6",
    "address_2": null,
    "address_3": null,
    "city": "Bentonville",
    "state_province": "Arkansas",
    "postal_code": "72712-5839",
    "country": "United States",
    "longitude": null,
    "latitude": null,
    "phone": "4792686648",
    "website_url": "http://www.bikerackbrewing.com",
    "state": "Arkansas",
    "street": "410 SW A St Ste 6"
  },
  {
    "id": "8d77bca9-de55-47a3-93e1-a72290a39c08",
    "name": "Bike Rack Brewing Co - 8th Street Market",
    "brewery_type": "micro",
    "address_1": "801 SE 8th St",
    "address_2": null,
    "address_3": null,
    "city": "Bentonville",
    "state_province": "Arkansas",
    "postal_code": "72712-6409",
    "country": "United States",
    "longitude": -94.200584,
    "latitude": 36.364069,
    "phone": "4793196593",
    "website_url": "http://www.bikerackbrewing.com",
    "state": "Arkansas",
    "street": "801 SE 8th St"
  },
  {
    "id": "40dbdacc-6531-4c83-8622-49758b82a052",
    "name": "Bike TrAle Brewing",
    "brewery_type": "micro",
    "address_1": "101 Loudoun St SE",
    "address_2": null,
    "address_3": null,
    "city": "Leesburg",
    "state_province": "Virginia",
    "postal_code": "20175-3106",
    "country": "United States",
    "longitude": -77.562422,
    "latitude": 39.113418,
    "phone": "5712930050",
    "website_url": "http://www.BikeTrAleBrewing.com",
    "state": "Virginia",
    "street": "101 Loudoun St SE"
  },
  {
    "id": "ddad9761-9bd4-4dbd-a744-890c38eb61ac",
    "name": "Biker Brew House",
    "brewery_type": "micro",
    "address_1": "5700 Interstate Blvd",
    "address_2": null,
    "address_3": null,
    "city": "Austintown",
    "state_province": "Ohio",
    "postal_code": "44515-1170",
    "country": "United States",
    "longitude": null,
    "latitude": null,
    "phone": null,
    "website_url": "http://www.bikerbrewhouse.com",
    "state": "Ohio",
    "street": "5700 Interstate Blvd"
  },
  {
    "id": "5e549a83-df46-462c-aa98-3bd6dd0e65fd",
    "name": "Bilbo's Pizza and Brewery",
    "brewery_type": "brewpub",
    "address_1": "3307 Stadium Dr",
    "address_2": null,
    "address_3": null,
    "city": "Kalamazoo",
    "state_province": "Michigan",
    "postal_code": "49008-1528",
    "country": "United States",
    "longitude": -85.63122494,
    "latitude": 42.27160225,
    "phone": "2693825544",
    "website_url": "http://www.bilbospizza.com",
    "state": "Michigan",
    "street": "3307 Stadium Dr"
  },
  {
    "id": "2e6d6446-a752-4ed5-85dc-164d7bb799ba",
    "name": "Bill's Brewing Co.",
    "brewery_type": "brewpub",
    "address_1": "4238 Market St.",
    "address_2": null,
    "address_3": null,
    "city": "Wilmington",
    "state_province": "North Carolina",
    "postal_code": "28403",
    "country": "United States",
    "longitude": -77.892361,
    "latitude": 34.242224,
    "phone": "9107626333",
    "website_url": "http://www.billsfrontporch.com",
    "state": "North Carolina",
    "street": "4238 Market St."
  },
  {
    "id": "76f46964-b68a-4156-8a61-dbd2e6acaacf",
    "name": "Bill's Front Porch Pub and Brewery",
    "brewery_type": "brewpub",
    "address_1": "4238 Market St",
    "address_2": null,
    "address_3": null,
    "city": "Wilmington",
    "state_province": "North Carolina",
    "postal_code": "28403-1409",
    "country": "United States",
    "longitude": -77.892361,
    "latitude": 34.242224,
    "phone": "9107626333",
    "website_url": "http://www.billsfrontporch.com",
    "state": "North Carolina",
    "street": "4238 Market St"
  },
  {
    "id": "47a98559-734f-4475-ad82-f8bad6a69bf1",
    "name": "Bill's Tavern and Brewhouse",
    "brewery_type": "brewpub",
    "address_1": "188 N Hemlock St",
    "address_2": null,
    "address_3": null,
    "city": "Cannon Beach",
    "state_province": "Oregon",
    "postal_code": "97110-3037",
    "country": "United States",
    "longitude": -123.9610943,
    "latitude": 45.89803615,
    "phone": "5034362202",
    "website_url": "http://www.billstavernandbrewhouse.com",
    "state": "Oregon",
    "street": "188 N Hemlock St"
  },
  {
    "id": "26e2db12-3e83-438b-9ed7-c43eb0fed1f9",
    "name": "Billsburg Brewery",
    "brewery_type": "micro",
    "address_1": "2054 Jamestown Rd",
    "address_2": null,
    "address_3": null,
    "city": "Williamsburg",
    "state_province": "Virginia",
    "postal_code": "23185-7911",
    "country": "United States",
    "longitude": -76.7129558,
    "latitude": 37.2682365,
    "phone": null,
    "website_url": "http://www.billsburg.com",
    "state": "Virginia",
    "street": "2054 Jamestown Rd"
  },
  {
    "id": "d238261c-e421-4ee9-a530-2e661d417d62",
    "name": "Biloba Brewing",
    "brewery_type": "micro",
    "address_1": "18720 Pleasant St Stop 4",
    "address_2": null,
    "address_3": null,
    "city": "Brookfield",
    "state_province": "Wisconsin",
    "postal_code": "53045-3447",
    "country": "United States",
    "longitude": null,
    "latitude": null,
    "phone": "2623095820",
    "website_url": "http://www.bilobabrewing.com",
    "state": "Wisconsin",
    "street": "18720 Pleasant St Stop 4"
  },
  {
    "id": "c66e7af2-41c2-4e8b-b66d-32ea62e28d4f",
    "name": "Biloxi Brewing Co",
    "brewery_type": "micro",
    "address_1": "186 Bohn St",
    "address_2": null,
    "address_3": null,
    "city": "Biloxi",
    "state_province": "Mississippi",
    "postal_code": "39530-3812",
    "country": "United States",
    "longitude": -88.89361913,
    "latitude": 30.3982915,
    "phone": "2282731638",
    "website_url": "http://www.biloxibrewing.com",
    "state": "Mississippi",
    "street": "186 Bohn St"
  },
  {
    "id": "6ccd6e8a-5d6c-4a5e-a285-57067d8b3a41",
    "name": "Biltmore Brewing Company",
    "brewery_type": "proprietor",
    "address_1": "1 N Pack Sq C/O Biltmore Winery Estates",
    "address_2": null,
    "address_3": null,
    "city": "Asheville",
    "state_province": "North Carolina",
    "postal_code": "28801-3462",
    "country": "United States",
    "longitude": null,
    "latitude": null,
    "phone": "8004113812",
    "website_url": "http://www.biltmore.com",
    "state": "North Carolina",
    "street": "1 N Pack Sq C/O Biltmore Winery Estates"
  },
  {
    "id": "aa7a58a8-b2af-4c19-a73b-7b803262bfad",
    "name": "Bine Valley Brewing",
    "brewery_type": "micro",
    "address_1": "2027 25th St SE",
    "address_2": null,
    "address_3": null,
    "city": "Salem",
    "state_province": "Oregon",
    "postal_code": "97302-1130",
    "country": "United States",
    "longitude": -123.0104248,
    "latitude": 44.92083964,
    "phone": "7602249889",
    "website_url": "http://www.binebrews.com",
    "state": "Oregon",
    "street": "2027 25th St SE"
  },
  {
    "id": "5b64e8ae-f38a-4cf0-8d60-e3f0cf3c9572",
    "name": "Binghamton Brewing Co",
    "brewery_type": "micro",
    "address_1": "15 Avenue B",
    "address_2": null,
    "address_3": null,
    "city": "Johnson City",
    "state_province": "New York",
    "postal_code": "13790-2234",
    "country": "United States",
    "longitude": -75.95337584,
    "latitude": 42.11473563,
    "phone": "6072383448",
    "website_url": "http://www.bingbrew.com",
    "state": "New York",
    "street": "15 Avenue B"
  },
  {
    "id": "106a32d5-54fd-4431-8406-0803aef87605",
    "name": "Bingo Beer Company",
    "brewery_type": "planning",
    "address_1": "2900 W Broad St",
    "address_2": null,
    "address_3": null,
    "city": "Richmond",
    "state_province": "Virginia",
    "postal_code": "23230",
    "country": "United States",
    "longitude": null,
    "latitude": null,
    "phone": "8043975226",
    "website_url": "http://www.bingorva.com/",
    "state": "Virginia",
    "street": "2900 W Broad St"
  },
  {
    "id": "ffd991bf-fb26-470c-9167-77d54c1fd57b",
    "name": "Birch's On the Lake",
    "brewery_type": "brewpub",
    "address_1": "1310 Wayzata Blvd",
    "address_2": null,
    "address_3": null,
    "city": "Long Lake",
    "state_province": "Minnesota",
    "postal_code": "55356-8314",
    "country": "United States",
    "longitude": -93.55601814,
    "latitude": 44.98493915,
    "phone": "9524737373",
    "website_url": "http://www.birchsrestaurantandbar.com",
    "state": "Minnesota",
    "street": "1310 Wayzata Blvd"
  },
  {
    "id": "16be946c-4c1b-415b-ac5d-05a5efe1429c",
    "name": "Bircus Brewing",
    "brewery_type": "micro",
    "address_1": "322 Elm St",
    "address_2": null,
    "address_3": null,
    "city": "Ludlow",
    "state_province": "Kentucky",
    "postal_code": "41016-1451",
    "country": "United States",
    "longitude": -84.54923129,
    "latitude": 39.0935089,
    "phone": "8593607757",
    "website_url": "http://www.bircus.com",
    "state": "Kentucky",
    "street": "322 Elm St"
  },
  {
    "id": "0b8ab2be-1d15-4a60-8bd2-e526a6615567",
    "name": "Bird Brain Brewing Company",
    "brewery_type": "contract",
    "address_1": "435 Nikki Ter SE",
    "address_2": null,
    "address_3": null,
    "city": "Leesburg",
    "state_province": "Virginia",
    "postal_code": "20175-8962",
    "country": "United States",
    "longitude": -77.54348368,
    "latitude": 39.09389489,
    "phone": null,
    "website_url": null,
    "state": "Virginia",
    "street": "435 Nikki Ter SE"
  },
  {
    "id": "88559f42-b68b-4ba9-963c-c15d13986a72",
    "name": "Bird Nickel Brewing Company",
    "brewery_type": "planning",
    "address_1": null,
    "address_2": null,
    "address_3": null,
    "city": "Easton",
    "state_province": "Maryland",
    "postal_code": "21601-3904",
    "country": "United States",
    "longitude": null,
    "latitude": null,
    "phone": "4103106042",
    "website_url": null,
    "state": "Maryland",
    "street": null
  },
  {
    "id": "817d37b5-07f0-4722-9b9d-d37e238a6fbe",
    "name": "Bird Street Brewing",
    "brewery_type": "micro",
    "address_1": "242 Heinlen St",
    "address_2": null,
    "address_3": null,
    "city": "Lemoore",
    "state_province": "California",
    "postal_code": "93245-2947",
    "country": "United States",
    "longitude": -119.784711,
    "latitude": 36.30146756,
    "phone": "5593094649",
    "website_url": "http://www.birdstreetbrewing.com",
    "state": "California",
    "street": "242 Heinlen St"
  },
  {
    "id": "78cc5335-72ed-4756-8c08-b18c65ea3675",
    "name": "Birdboy Brewing Co",
    "brewery_type": "micro",
    "address_1": "210 E Collins Rd",
    "address_2": null,
    "address_3": null,
    "city": "Fort Wayne",
    "state_province": "Indiana",
    "postal_code": "46825-5304",
    "country": "United States",
    "longitude": -85.13900142,
    "latitude": 41.12187792,
    "phone": "2605795508",
    "website_url": "http://www.birdboybrewing.com",
    "state": "Indiana",
    "street": "210 E Collins Rd"
  },
  {
    "id": "55cf083b-d2b1-4839-878f-730d1a00fc27",
    "name": "BirdFish Brewing Co",
    "brewery_type": "micro",
    "address_1": "16 S Main St",
    "address_2": null,
    "address_3": null,
    "city": "Columbiana",
    "state_province": "Ohio",
    "postal_code": "44408-1348",
    "country": "United States",
    "longitude": -80.69353036,
    "latitude": 40.888487,
    "phone": "3303339385",
    "website_url": "http://www.birdfishbrew.com",
    "state": "Ohio",
    "street": "16 S Main St"
  },
  {
    "id": "b47dbcd6-1beb-434c-a9fb-3f8d88772800",
    "name": "Birds Fly South Ale Project",
    "brewery_type": "micro",
    "address_1": "1320 Hampton Avenue Ext",
    "address_2": null,
    "address_3": null,
    "city": "Greenville",
    "state_province": "South Carolina",
    "postal_code": "29601-1012",
    "country": "United States",
    "longitude": null,
    "latitude": null,
    "phone": "8644128825",
    "website_url": null,
    "state": "South Carolina",
    "street": "1320 Hampton Avenue Ext"
  },
  {
    "id": "2f8dee5a-fc6e-49f3-84de-20ca5580acd4",
    "name": "Birdsong Brewing Co.",
    "brewery_type": "micro",
    "address_1": "1016 N Davidson St",
    "address_2": null,
    "address_3": null,
    "city": "Charlotte",
    "state_province": "North Carolina",
    "postal_code": "28206-3371",
    "country": "United States",
    "longitude": -80.82704272,
    "latitude": 35.23060753,
    "phone": "7043321810",
    "website_url": "http://www.birdsongbrewing.com",
    "state": "North Carolina",
    "street": "1016 N Davidson St"
  },
  {
    "id": "10617c0b-c29a-4e60-bd3d-5e4d56649398",
    "name": "BirdsView Brewing Co",
    "brewery_type": "micro",
    "address_1": "38302 State Route 20",
    "address_2": null,
    "address_3": null,
    "city": "Concrete",
    "state_province": "Washington",
    "postal_code": "98237-9460",
    "country": "United States",
    "longitude": -121.7378167,
    "latitude": 48.5357818,
    "phone": "3608263406",
    "website_url": "http://www.birdsviewbrewingcompany.com",
    "state": "Washington",
    "street": "38302 State Route 20"
  },
  {
    "id": "69bdb3dd-708a-430b-ac8c-5346f382f0d3",
    "name": "Birgit",
    "brewery_type": "beergarden",
    "address_1": "Schleusenufer 3",
    "address_2": null,
    "address_3": null,
    "city": "Berlin",
    "state_province": "Berlin",
    "postal_code": "10997",
    "country": "Germany",
    "longitude": 52.5093176,
    "latitude": 13.4123414,
    "phone": "491725746904",
    "website_url": "https://www.birgit.club/",
    "state": "Berlin",
    "street": "Schleusenufer 3"
  },
  {
    "id": "c1b16bee-8dc2-4b8f-ae1a-3f9134183d29",
    "name": "Birmingham District Brewing",
    "brewery_type": "planning",
    "address_1": null,
    "address_2": null,
    "address_3": null,
    "city": "Birmingham",
    "state_province": "Alabama",
    "postal_code": "35242-5651",
    "country": "United States",
    "longitude": -86.8024326,
    "latitude": 33.5206824,
    "phone": "6019380486",
    "website_url": null,
    "state": "Alabama",
    "street": null
  },
  {
    "id": "ceabe2ed-e384-453c-a972-245ff8abc850",
    "name": "Birravino",
    "brewery_type": "brewpub",
    "address_1": "183 Riverside Ave",
    "address_2": null,
    "address_3": null,
    "city": "Red Bank",
    "state_province": "New Jersey",
    "postal_code": "07701-1015",
    "country": "United States",
    "longitude": -74.07536238,
    "latitude": 40.35352565,
    "phone": "7328425990",
    "website_url": "http://www.birravino.com",
    "state": "New Jersey",
    "street": "183 Riverside Ave"
  },
  {
    "id": "aec527a2-0534-4252-86e0-56c621fc835d",
    "name": "Birreria @ Eataly",
    "brewery_type": "brewpub",
    "address_1": "200 5th Ave Fl 14",
    "address_2": null,
    "address_3": null,
    "city": "New York",
    "state_province": "New York",
    "postal_code": "10010-3302",
    "country": "United States",
    "longitude": null,
    "latitude": null,
    "phone": "2125390204",
    "website_url": "http://www.eatalyny.com",
    "state": "New York",
    "street": "200 5th Ave Fl 14"
  },
  {
    "id": "66cb7863-0a8f-49e0-96e5-d29ed5b69e86",
    "name": "Birreria @ Eataly",
    "brewery_type": "brewpub",
    "address_1": "43 E Ohio St",
    "address_2": null,
    "address_3": null,
    "city": "Chicago",
    "state_province": "Illinois",
    "postal_code": "60611-2701",
    "country": "United States",
    "longitude": -87.6262332,
    "latitude": 41.89209845,
    "phone": null,
    "website_url": "http://www.eataly.com",
    "state": "Illinois",
    "street": "43 E Ohio St"
  },
  {
    "id": "27c38f61-cc1b-4e9c-baea-a55193ba486b",
    "name": "Birthright Brewing Co.",
    "brewery_type": "brewpub",
    "address_1": "57 S Main St",
    "address_2": null,
    "address_3": null,
    "city": "Nazareth",
    "state_province": "Pennsylvania",
    "postal_code": "18064-2037",
    "country": "United States",
    "longitude": -75.31224579,
    "latitude": 40.74211365,
    "phone": "6103652225",
    "website_url": "http://www.birthrightbrewingco.com",
    "state": "Pennsylvania",
    "street": "57 S Main St"
  },
  {
    "id": "9baed18a-8f26-4e9a-a56f-280ced6d1d7a",
    "name": "Biscayne Bay Brewing Co",
    "brewery_type": "micro",
    "address_1": "8000 NW 25th St Ste 500",
    "address_2": null,
    "address_3": null,
    "city": "Miami",
    "state_province": "Florida",
    "postal_code": "33122-1631",
    "country": "United States",
    "longitude": null,
    "latitude": null,
    "phone": null,
    "website_url": null,
    "state": "Florida",
    "street": "8000 NW 25th St Ste 500"
  },
  {
    "id": "105076f0-ca29-4fb5-8c91-73e1d7dbfb9d",
    "name": "Bismarck Brewing",
    "brewery_type": "brewpub",
    "address_1": "1100 Canada Ave Suite 1",
    "address_2": null,
    "address_3": null,
    "city": "Bismarck",
    "state_province": "North Dakota",
    "postal_code": "58503-1814",
    "country": "United States",
    "longitude": -100.7737552,
    "latitude": 46.86270313,
    "phone": null,
    "website_url": "http://www.bismarckbrew.com",
    "state": "North Dakota",
    "street": "1100 Canada Ave Suite 1"
  },
  {
    "id": "7e37544f-5e87-4652-95db-e946e58ae9ed",
    "name": "Bison Brewing Co",
    "brewery_type": "contract",
    "address_1": "1627 S 7th St",
    "address_2": null,
    "address_3": null,
    "city": "San Jose",
    "state_province": "California",
    "postal_code": "95112-5932",
    "country": "United States",
    "longitude": -121.8665257,
    "latitude": 37.31531409,
    "phone": "5108125996",
    "website_url": "http://bisonbrew.com",
    "state": "California",
    "street": "1627 S 7th St"
  },
  {
    "id": "9ca594a0-97b0-4bd5-a4fe-5b8ee789289f",
    "name": "Bissell Brothers Brewing",
    "brewery_type": "micro",
    "address_1": "4 Thompsons Pt Ste 108",
    "address_2": null,
    "address_3": null,
    "city": "Portland",
    "state_province": "Maine",
    "postal_code": "04102-2639",
    "country": "United States",
    "longitude": -70.2904097,
    "latitude": 43.6514062,
    "phone": "2074233622",
    "website_url": "http://www.bissellbrothers.com",
    "state": "Maine",
    "street": "4 Thompsons Pt Ste 108"
  },
  {
    "id": "77c019ef-bc30-40e4-aa2b-5c51ffa38453",
    "name": "Bistronomy B2B Craft Brewery",
    "brewery_type": "brewpub",
    "address_1": "3118 Central Ave SE",
    "address_2": null,
    "address_3": null,
    "city": "Albuquerque",
    "state_province": "New Mexico",
    "postal_code": "87106-2216",
    "country": "United States",
    "longitude": -106.6102147,
    "latitude": 35.080354,
    "phone": "5052622222",
    "website_url": "http://www.bistronomyb2b.com",
    "state": "New Mexico",
    "street": "3118 Central Ave SE"
  },
  {
    "id": "3169d94b-9531-4639-8eea-54f94d72eace",
    "name": "Bitter Brothers Brewing Co.",
    "brewery_type": "micro",
    "address_1": "4170 Morena Blvd Ste F",
    "address_2": null,
    "address_3": null,
    "city": "San Diego",
    "state_province": "California",
    "postal_code": "92117-5252",
    "country": "United States",
    "longitude": -117.2202906,
    "latitude": 32.81614831,
    "phone": "6199616690",
    "website_url": "http://www.bitterbrothers.com",
    "state": "California",
    "street": "4170 Morena Blvd Ste F"
  },
  {
    "id": "bfdbcc50-5bfa-443b-a2fa-586f433a28e0",
    "name": "Bitter Creek Brewing Co",
    "brewery_type": "closed",
    "address_1": "604 Broadway St",
    "address_2": null,
    "address_3": null,
    "city": "Rock Springs",
    "state_province": "Wyoming",
    "postal_code": "82901-6348",
    "country": "United States",
    "longitude": -109.2181243,
    "latitude": 41.58683904,
    "phone": "3073624782",
    "website_url": "http://www.bittercreekbrewing.com",
    "state": "Wyoming",
    "street": "604 Broadway St"
  },
  {
    "id": "80dd3663-71f9-46db-811e-7b1610731542",
    "name": "Bitter Old Fecker Rustic Ales",
    "brewery_type": "micro",
    "address_1": "12855 E Old US Hwy 12",
    "address_2": null,
    "address_3": null,
    "city": "Chelsea",
    "state_province": "Michigan",
    "postal_code": "48118-9229",
    "country": "United States",
    "longitude": -83.98452281,
    "latitude": 42.2995379,
    "phone": "7344445201",
    "website_url": null,
    "state": "Michigan",
    "street": "12855 E Old US Hwy 12"
  },
  {
    "id": "2f3d22a3-113e-424a-aed6-b8a2f2f785c2",
    "name": "Bitter Root Brewing Co",
    "brewery_type": "micro",
    "address_1": "101 Marcus St",
    "address_2": null,
    "address_3": null,
    "city": "Hamilton",
    "state_province": "Montana",
    "postal_code": "59840-2541",
    "country": "United States",
    "longitude": -114.1551946,
    "latitude": 46.24733778,
    "phone": "4063637468",
    "website_url": "http://www.bitterrootbrewing.com",
    "state": "Montana",
    "street": "101 Marcus St"
  },
  {
    "id": "27812208-7d7b-4c77-b62a-bc405d6af897",
    "name": "Bitter Sisters Brewing Company",
    "brewery_type": "micro",
    "address_1": "15103 Surveyor Blvd",
    "address_2": null,
    "address_3": null,
    "city": "Addison",
    "state_province": "Texas",
    "postal_code": "75001-4316",
    "country": "United States",
    "longitude": -96.845846,
    "latitude": 32.951222,
    "phone": "9724790949",
    "website_url": "http://www.bittersistersbrewery.com",
    "state": "Texas",
    "street": "15103 Surveyor Blvd"
  },
  {
    "id": "1946d91f-cffd-4794-9f88-4264b923f398",
    "name": "Bittersweet Brewing Company, LLC",
    "brewery_type": "micro",
    "address_1": "191 S Oak Park Blvd Ste 3",
    "address_2": null,
    "address_3": null,
    "city": "Grover Beach",
    "state_province": "California",
    "postal_code": "93433-2265",
    "country": "United States",
    "longitude": -120.6088596,
    "latitude": 35.12009944,
    "phone": null,
    "website_url": "http://www.bittersweetbrewing.com",
    "state": "California",
    "street": "191 S Oak Park Blvd Ste 3"
  },
  {
    "id": "3a53f072-1296-4003-ac65-cf269eb0ad9d",
    "name": "Bizarre Brewing",
    "brewery_type": "micro",
    "address_1": "4441 26th Ave SW Ste A",
    "address_2": null,
    "address_3": null,
    "city": "Seattle",
    "state_province": "Washington",
    "postal_code": "98199-1218",
    "country": "United States",
    "longitude": -122.390297,
    "latitude": 47.660564,
    "phone": null,
    "website_url": "https://bizarrebrewing.com",
    "state": "Washington",
    "street": "4441 26th Ave SW Ste A"
  },
  {
    "id": "8f291173-eb33-4277-96a6-81a3a1b32709",
    "name": "BJ's Brewhouse",
    "brewery_type": "regional",
    "address_1": "602 E Central Ave",
    "address_2": null,
    "address_3": null,
    "city": "Temple",
    "state_province": "Texas",
    "postal_code": "76501-4319",
    "country": "United States",
    "longitude": -97.33525536,
    "latitude": 31.09509964,
    "phone": "7145002400",
    "website_url": null,
    "state": "Texas",
    "street": "602 E Central Ave"
  },
  {
    "id": "57b4c49f-7c62-4f88-8027-deeb7aa29a99",
    "name": "BJs Restaurant & Brewery - Boulder",
    "brewery_type": "brewpub",
    "address_1": "1690 28th St",
    "address_2": null,
    "address_3": null,
    "city": "Boulder",
    "state_province": "Colorado",
    "postal_code": "80301-",
    "country": "United States",
    "longitude": -105.258512,
    "latitude": 40.0291592,
    "phone": "3034405200",
    "website_url": "http://www.bjsrestaurants.com",
    "state": "Colorado",
    "street": "1690 28th St"
  },
  {
    "id": "b550667b-11ec-49f0-8609-071ca0395269",
    "name": "BJs Restaurant & Brewery - Brea",
    "brewery_type": "brewpub",
    "address_1": "600 Brea Mall Dr",
    "address_2": null,
    "address_3": null,
    "city": "Brea",
    "state_province": "California",
    "postal_code": "92821-5764",
    "country": "United States",
    "longitude": -117.8863245,
    "latitude": 33.9152037,
    "phone": "7149902095",
    "website_url": "http://www.bjsrestaurants.com",
    "state": "California",
    "street": "600 Brea Mall Dr"
  },
  {
    "id": "a9888981-3b31-4cb8-80ec-83b4e089dc04",
    "name": "BJs Restaurant & Brewery - Chandler",
    "brewery_type": "brewpub",
    "address_1": "3155 W Chandler Blvd",
    "address_2": null,
    "address_3": null,
    "city": "Chandler",
    "state_province": "Arizona",
    "postal_code": "85226-5175",
    "country": "United States",
    "longitude": -111.911126,
    "latitude": 33.3053455,
    "phone": "4809170631",
    "website_url": "http://www.bjsrestaurants.com",
    "state": "Arizona",
    "street": "3155 W Chandler Blvd"
  },
  {
    "id": "8fe53360-1c28-4c1a-8e98-49ff1966fc25",
    "name": "BJs Restaurant & Brewery - Reno",
    "brewery_type": "brewpub",
    "address_1": "13999 S Virginia St",
    "address_2": null,
    "address_3": null,
    "city": "Reno",
    "state_province": "Nevada",
    "postal_code": "89511-8917",
    "country": "United States",
    "longitude": -119.8122668,
    "latitude": 39.5244083,
    "phone": "7758537575",
    "website_url": "http://www.bjsbrewhouse.com",
    "state": "Nevada",
    "street": "13999 S Virginia St"
  },
  {
    "id": "d4b77aea-a845-46b2-8f6e-b81378525c89",
    "name": "BJs Restaurant & Brewery - West Covina",
    "brewery_type": "brewpub",
    "address_1": "2917 E Eastland Ctr Dr",
    "address_2": null,
    "address_3": null,
    "city": "West Covina",
    "state_province": "California",
    "postal_code": "91791-1603",
    "country": "United States",
    "longitude": -117.8867988,
    "latitude": 34.07298952,
    "phone": "6268580054",
    "website_url": "http://www.bjsrestaurants.com",
    "state": "California",
    "street": "2917 E Eastland Ctr Dr"
  },
  {
    "id": "283ac187-d4fb-4859-b536-3a4566d9631a",
    "name": "BJs Restauraunt & Brewhouse",
    "brewery_type": "brewpub",
    "address_1": "4502 S. Steele St. Suite 1500",
    "address_2": null,
    "address_3": null,
    "city": "Tacoma",
    "state_province": "Washington",
    "postal_code": "98409-7277",
    "country": "United States",
    "longitude": -122.467515,
    "latitude": 47.214875,
    "phone": "2534721220",
    "website_url": "https://www.bjsrestaurants.com/locations/wa/tacoma",
    "state": "Washington",
    "street": "4502 S. Steele St. Suite 1500"
  }
]