[
  {
    "id": "134c9a7a-fee3-4a1c-8914-785a9d7c04ea",
    "name": "Round Guys Brewing Co",
    "brewery_type": "brewpub",
    "address_1": "324 W Main St",
    "address_2": null,
    "address_3": null,
    "city": "Lansdale",
    "state_province": "Pennsylvania",
    "postal_code": "19446-2006",
    "country": "United States",
    "longitude": -75.28630882,
    "latitude": 40.24337843,
    "phone": "6107151512",
    "website_url": "http://www.roundguysbrewery.com",
    "state": "Pennsylvania",
    "street": "324 W Main St"
  },
  {
    "id": "24fa73f1-2413-485e-8230-e8572837784a",
    "name": "Round Town Brewery",
    "brewery_type": "micro",
    "address_1": "950 S White River Pky West Dr Ste 100",
    "address_2": null,
    "address_3": null,
    "city": "Indianapolis",
    "state_province": "Indiana",
    "postal_code": "46221-1373",
    "country": "United States",
    "longitude": null,
    "latitude": null,
    "phone": "3174931375",
    "website_url": "http://www.roundtownbrewery.com",
    "state": "Indiana",
    "street": "950 S White River Pky West Dr Ste 100"
  },
  {
    "id": "24c0c343-7f4d-43d4-8a2c-e554e5c0d6fc",
    "name": "Roundabout Brewery",
    "brewery_type": "micro",
    "address_1": "4901 Butler St",
    "address_2": null,
    "address_3": null,
    "city": "Pittsburgh",
    "state_province": "Pennsylvania",
    "postal_code": "15201-2718",
    "country": "United States",
    "longitude": -79.956943,
    "latitude": 40.477161,
    "phone": "4126210540",
    "website_url": "http://roundaboutbeer.com",
    "state": "Pennsylvania",
    "street": "4901 Butler St"
  },
  {
    "id": "c0217206-0b34-4205-8164-a587a1c6653a",
    "name": "Roundback Brewery LLC",
    "brewery_type": "planning",
    "address_1": null,
    "address_2": null,
    "address_3": null,
    "city": "Danville",
    "state_province": "Pennsylvania",
    "postal_code": "17821-7746",
    "country": "United States",
    "longitude": null,
    "latitude": null,
    "phone": "5708548067",
    "website_url": "http://roundbackbrewery.com",
    "state": "Pennsylvania",
    "street": null
  },
  {
    "id": "43731cc4-87d3-47e7-9ca1-ff0be7b481f2",
    "name": "Roundhouse Brewery",
    "brewery_type": "micro",
    "address_1": "1551 Northern Pacific Rd",
    "address_2": null,
    "address_3": null,
    "city": "Brainerd",
    "state_province": "Minnesota",
    "postal_code": "56401-2687",
    "country": "United States",
    "longitude": -94.1870055,
    "latitude": 46.3572831,
    "phone": "2184542739",
    "website_url": "http://roundhousebrew.com",
    "state": "Minnesota",
    "street": "1551 Northern Pacific Rd"
  },
  {
    "id": "f765f05b-b755-45a8-844d-bc48962c6a52",
    "name": "Roundhouse Depot Brewing",
    "brewery_type": "micro",
    "address_1": "217 W Chillicothe Ave",
    "address_2": null,
    "address_3": null,
    "city": "Bellefontaine",
    "state_province": "Ohio",
    "postal_code": "43311",
    "country": "United States",
    "longitude": -83.76289625,
    "latitude": 40.35981532,
    "phone": "5403231295",
    "website_url": null,
    "state": "Ohio",
    "street": "217 W Chillicothe Ave"
  },
  {
    "id": "1857e7ae-9362-4b5a-96a8-385641bae67d",
    "name": "Route 30 Brewing Company",
    "brewery_type": "micro",
    "address_1": "9860 Indiana Ave Ste 19",
    "address_2": null,
    "address_3": null,
    "city": "Riverside",
    "state_province": "California",
    "postal_code": "92503-5515",
    "country": "United States",
    "longitude": -117.4472297,
    "latitude": 33.90998597,
    "phone": "9517767083",
    "website_url": null,
    "state": "California",
    "street": "9860 Indiana Ave Ste 19"
  },
  {
    "id": "689f6739-8faa-4c9f-977e-52220e4404db",
    "name": "Route 6 Tap House/ Putnam Brewery",
    "brewery_type": "brewpub",
    "address_1": "728 US-6",
    "address_2": null,
    "address_3": null,
    "city": "Mahopac",
    "state_province": "New York",
    "postal_code": "10541",
    "country": "United States",
    "longitude": -73.72642406,
    "latitude": 41.37750571,
    "phone": "8456287302",
    "website_url": "http://www.facebook.com/Putnam-Brewery-165364887155377/",
    "state": "New York",
    "street": "728 US-6"
  },
  {
    "id": "87740a12-4392-41e7-b244-8f013503d567",
    "name": "Route 66 Junkyard Brewery",
    "brewery_type": "brewpub",
    "address_1": "1634 E Hwy 66",
    "address_2": null,
    "address_3": null,
    "city": "Grants",
    "state_province": "New Mexico",
    "postal_code": "87020",
    "country": "United States",
    "longitude": null,
    "latitude": null,
    "phone": "5052855000",
    "website_url": "http://www.facebook.com/Route66JunkyardBrewery/",
    "state": "New Mexico",
    "street": "1634 E Hwy 66"
  },
  {
    "id": "375c3fae-a1f7-4121-906a-ba1ea56b51f3",
    "name": "Rowdy's Brewing Company",
    "brewery_type": "micro",
    "address_1": "10002 6th St Ste A",
    "address_2": null,
    "address_3": null,
    "city": "Rancho Cucamonga",
    "state_province": "California",
    "postal_code": "91730-5784",
    "country": "United States",
    "longitude": -117.5879009,
    "latitude": 34.08513212,
    "phone": "9099292722",
    "website_url": "http://rowdysbrewco.com",
    "state": "California",
    "street": "10002 6th St Ste A"
  },
  {
    "id": "555fcbb9-7fc4-4a03-b04f-5ac0ada488c9",
    "name": "Rowlands Calumet Brewery Co",
    "brewery_type": "micro",
    "address_1": "25 N Madison St",
    "address_2": null,
    "address_3": null,
    "city": "Chilton",
    "state_province": "Wisconsin",
    "postal_code": "53014-1451",
    "country": "United States",
    "longitude": -88.1632129,
    "latitude": 44.0293888,
    "phone": "9208492534",
    "website_url": null,
    "state": "Wisconsin",
    "street": "25 N Madison St"
  },
  {
    "id": "6e59f361-2d17-4beb-ac3b-92d2a4d437d0",
    "name": "Rowlands Calumet Brewery Co (#2)",
    "brewery_type": "micro",
    "address_1": "57 School St",
    "address_2": null,
    "address_3": null,
    "city": "Chilton",
    "state_province": "Wisconsin",
    "postal_code": "53014-",
    "country": "United States",
    "longitude": -88.16401327,
    "latitude": 44.0291831,
    "phone": "9208492534",
    "website_url": null,
    "state": "Wisconsin",
    "street": "57 School St"
  },
  {
    "id": "641c91ad-d21c-44f3-b66b-993457ee9fae",
    "name": "Rowley Farmhouse Ales",
    "brewery_type": "brewpub",
    "address_1": "1405 MacLovia St",
    "address_2": null,
    "address_3": null,
    "city": "Santa Fe",
    "state_province": "New Mexico",
    "postal_code": "87505-3244",
    "country": "United States",
    "longitude": -105.9836551,
    "latitude": 35.66076999,
    "phone": "5054280719",
    "website_url": "http://rowleyfarmhouse.com",
    "state": "New Mexico",
    "street": "1405 MacLovia St"
  },
  {
    "id": "a35206a2-4fc6-471c-8b39-a31b0bbb6c23",
    "name": "Roy Pitz Brewing Co",
    "brewery_type": "brewpub",
    "address_1": "301 Roy Pitz Ave Ste 3",
    "address_2": null,
    "address_3": null,
    "city": "Chambersburg",
    "state_province": "Pennsylvania",
    "postal_code": "17201-1668",
    "country": "United States",
    "longitude": null,
    "latitude": null,
    "phone": "7174968753",
    "website_url": "http://www.roypitz.com",
    "state": "Pennsylvania",
    "street": "301 Roy Pitz Ave Ste 3"
  },
  {
    "id": "d1bf7018-393e-4cd5-856e-8ee560e3585a",
    "name": "Royal Bavaria Brewhouse, Restaurant and Biergarten",
    "brewery_type": "brewpub",
    "address_1": "3401 S Sooner Rd",
    "address_2": null,
    "address_3": null,
    "city": "Moore",
    "state_province": "Oklahoma",
    "postal_code": "73165-7218",
    "country": "United States",
    "longitude": -97.4235998,
    "latitude": 35.3148295,
    "phone": "4057997666",
    "website_url": "http://royal-bavaria.com",
    "state": "Oklahoma",
    "street": "3401 S Sooner Rd"
  },
  {
    "id": "5d6cbdd3-2315-469c-a97f-e87ee1cbbd35",
    "name": "Royal Brewery",
    "brewery_type": "micro",
    "address_1": "7366 Townsend Pl Ste B",
    "address_2": null,
    "address_3": null,
    "city": "New Orleans",
    "state_province": "Louisiana",
    "postal_code": "70126-1138",
    "country": "United States",
    "longitude": null,
    "latitude": null,
    "phone": "5044158444",
    "website_url": "http://WWW.royalbrewerynola.com",
    "state": "Louisiana",
    "street": "7366 Townsend Pl Ste B"
  },
  {
    "id": "485f4ed6-a9ae-42c7-9d66-c39540651709",
    "name": "Royal Docks Brewhouse and Cannery",
    "brewery_type": "micro",
    "address_1": "5646 Wales Ave NW",
    "address_2": null,
    "address_3": null,
    "city": "Massillon",
    "state_province": "Ohio",
    "postal_code": "44646",
    "country": "United States",
    "longitude": -81.498326,
    "latitude": 40.844016,
    "phone": null,
    "website_url": null,
    "state": "Ohio",
    "street": "5646 Wales Ave NW"
  },
  {
    "id": "a6f89f70-e00a-43a3-9779-f70e71393ae9",
    "name": "Royal Docks Brewing Company",
    "brewery_type": "contract",
    "address_1": "7162 Fulton Dr NW",
    "address_2": null,
    "address_3": null,
    "city": "Canton",
    "state_province": "Ohio",
    "postal_code": "44718-1523",
    "country": "United States",
    "longitude": null,
    "latitude": null,
    "phone": "3303539103",
    "website_url": "http://www.docks.beer",
    "state": "Ohio",
    "street": "7162 Fulton Dr NW"
  },
  {
    "id": "f9e69ba6-fe3b-4cba-bb26-94fea1fe7592",
    "name": "Royal Gorge Brew Pub",
    "brewery_type": "brewpub",
    "address_1": "413 Main St",
    "address_2": null,
    "address_3": null,
    "city": "Canon City",
    "state_province": "Colorado",
    "postal_code": "81212-3733",
    "country": "United States",
    "longitude": -105.2418113,
    "latitude": 38.44010539,
    "phone": "7193454141",
    "website_url": "http://www.royalgorgebrewing.com",
    "state": "Colorado",
    "street": "413 Main St"
  },
  {
    "id": "6d3ba99f-057a-446b-925a-50ae1c284df5",
    "name": "Royal Oak Brewery",
    "brewery_type": "brewpub",
    "address_1": "215 E 4th St",
    "address_2": null,
    "address_3": null,
    "city": "Royal Oak",
    "state_province": "Michigan",
    "postal_code": "48067-2606",
    "country": "United States",
    "longitude": -83.14271229,
    "latitude": 42.48739557,
    "phone": "2485441141",
    "website_url": "http://www.royaloakbrewery.com",
    "state": "Michigan",
    "street": "215 E 4th St"
  },
  {
    "id": "5c9afad5-0cf3-4f3d-9918-0c4e9a002968",
    "name": "Royal Palm Brewing Company",
    "brewery_type": "brewpub",
    "address_1": "543 N State Road 7 Ste 103",
    "address_2": null,
    "address_3": null,
    "city": "Royal Palm Beach",
    "state_province": "Florida",
    "postal_code": "33411-3516",
    "country": "United States",
    "longitude": null,
    "latitude": null,
    "phone": "4079600128",
    "website_url": "http://www.facebook.com/royalpalmbrewingcompany/",
    "state": "Florida",
    "street": "543 N State Road 7 Ste 103"
  },
  {
    "id": "72e76612-589c-4844-a3c6-7189bcdad638",
    "name": "Royale Brewing Company",
    "brewery_type": "closed",
    "address_1": "55 NE Farragut St Ste 6",
    "address_2": null,
    "address_3": null,
    "city": "Portland",
    "state_province": "Oregon",
    "postal_code": "97211-2245",
    "country": "United States",
    "longitude": -122.6656145,
    "latitude": 45.57960681,
    "phone": "9712795587",
    "website_url": "http://www.royalebeer.com",
    "state": "Oregon",
    "street": "55 NE Farragut St Ste 6"
  },
  {
    "id": "a19a3824-1bde-4652-a6ed-49e584d0d7d0",
    "name": "Ruba Brewing",
    "brewery_type": "micro",
    "address_1": "3310 Buttercup St",
    "address_2": null,
    "address_3": null,
    "city": "Houston",
    "state_province": "Texas",
    "postal_code": "77063",
    "country": "United States",
    "longitude": -95.51694859,
    "latitude": 29.72879669,
    "phone": null,
    "website_url": "https://untappd.com/Ruba_Brewing",
    "state": "Texas",
    "street": "3310 Buttercup St"
  },
  {
    "id": "e58f1b87-85b0-4adb-8fb1-d6e1eaa833a6",
    "name": "Rubber Soul Brewing",
    "brewery_type": "micro",
    "address_1": "1930 Northwood Dr",
    "address_2": null,
    "address_3": null,
    "city": "Salisbury",
    "state_province": "Maryland",
    "postal_code": "21801-7824",
    "country": "United States",
    "longitude": -75.58418801,
    "latitude": 38.39109674,
    "phone": "4433047685",
    "website_url": "http://www.rubbersoulbrewing.com",
    "state": "Maryland",
    "street": "1930 Northwood Dr"
  },
  {
    "id": "7383363f-2d98-45c7-8719-8236e869aa8d",
    "name": "Ruby Mountain Brewing Co",
    "brewery_type": "micro",
    "address_1": "HC 60 Box 100",
    "address_2": null,
    "address_3": null,
    "city": "Wells",
    "state_province": "Nevada",
    "postal_code": "89835-9802",
    "country": "United States",
    "longitude": null,
    "latitude": null,
    "phone": "7757522337",
    "website_url": "http://www.rubymountainbrewing.com",
    "state": "Nevada",
    "street": "HC 60 Box 100"
  },
  {
    "id": "87f8af23-34eb-446a-9f6e-207e0bafc5a8",
    "name": "Ruby River Steak House and Brewery",
    "brewery_type": "brewpub",
    "address_1": "4286 Riverdale Rd",
    "address_2": null,
    "address_3": null,
    "city": "Ogden",
    "state_province": "Utah",
    "postal_code": "84405-3512",
    "country": "United States",
    "longitude": -111.9883755,
    "latitude": 41.18405234,
    "phone": "8016222320",
    "website_url": "http://www.sizzlingplatter.com",
    "state": "Utah",
    "street": "4286 Riverdale Rd"
  },
  {
    "id": "e5395eb7-b076-4046-ad78-98debacc0550",
    "name": "Ruby Valley Brew",
    "brewery_type": "micro",
    "address_1": "111 S Main St",
    "address_2": null,
    "address_3": null,
    "city": "Sheridan",
    "state_province": "Montana",
    "postal_code": "59749-7742",
    "country": "United States",
    "longitude": -104.559298,
    "latitude": 48.77363753,
    "phone": "4068425977",
    "website_url": "http://www.rubyvalleybrew.com",
    "state": "Montana",
    "street": "111 S Main St"
  },
  {
    "id": "4cc38bef-f05b-42ce-8323-ca7458415621",
    "name": "Ruckus Brewing Co",
    "brewery_type": "contract",
    "address_1": "261 W 35th St Ste 1002",
    "address_2": null,
    "address_3": null,
    "city": "New York",
    "state_province": "New York",
    "postal_code": "10001-1902",
    "country": "United States",
    "longitude": null,
    "latitude": null,
    "phone": "6467105098",
    "website_url": "http://www.ruckusbrewing.com",
    "state": "New York",
    "street": "261 W 35th St Ste 1002"
  },
  {
    "id": "a2479c24-2ed6-42b6-9432-2b306558b0ae",
    "name": "Rudbeckia Farm",
    "brewery_type": "micro",
    "address_1": "3379 Lake Grove Rd",
    "address_2": null,
    "address_3": null,
    "city": "Petoskey",
    "state_province": "Michigan",
    "postal_code": "49770-9751",
    "country": "United States",
    "longitude": null,
    "latitude": null,
    "phone": "2316224173",
    "website_url": "http://www.rudbeckiafarm.com",
    "state": "Michigan",
    "street": "3379 Lake Grove Rd"
  },
  {
    "id": "3f21deb3-122f-44c3-87c2-9e729a40955b",
    "name": "Ruddy Duck Brewery and Grill",
    "brewery_type": "brewpub",
    "address_1": "13200 Dowell Rd",
    "address_2": null,
    "address_3": null,
    "city": "Dowell",
    "state_province": "Maryland",
    "postal_code": "20629",
    "country": "United States",
    "longitude": -76.45795,
    "latitude": 38.350501,
    "phone": "4103943825",
    "website_url": "http://www.ruddyduckbrewery.com",
    "state": "Maryland",
    "street": "13200 Dowell Rd"
  },
  {
    "id": "2545723c-f71f-454c-847a-d4c524132e3a",
    "name": "Rugged Coast Brewing",
    "brewery_type": "closed",
    "address_1": "817 Piner Ave",
    "address_2": null,
    "address_3": null,
    "city": "Santa Rosa",
    "state_province": "California",
    "postal_code": "95403",
    "country": "United States",
    "longitude": -122.7334692,
    "latitude": 38.47262977,
    "phone": "4156027272",
    "website_url": "http://www.ruggedcoastbrewing.com",
    "state": "California",
    "street": "817 Piner Ave"
  },
  {
    "id": "4935e78e-47a1-479c-b613-88c319065314",
    "name": "Ruggedman Brewing Company",
    "brewery_type": "micro",
    "address_1": "7600 Old Bastrop Rd",
    "address_2": null,
    "address_3": null,
    "city": "New Braunfels",
    "state_province": "Texas",
    "postal_code": "78130",
    "country": "United States",
    "longitude": null,
    "latitude": null,
    "phone": "8306322104",
    "website_url": "http://www.drinkthedamnbeer.com",
    "state": "Texas",
    "street": "7600 Old Bastrop Rd"
  },
  {
    "id": "646f5ed7-b512-4652-aa67-b981d3cfc266",
    "name": "Ruhlman Brewery/Our Ales",
    "brewery_type": "micro",
    "address_1": "2300 Harvey Gummel Rd",
    "address_2": null,
    "address_3": null,
    "city": "Hampstead",
    "state_province": "Maryland",
    "postal_code": "21074-1033",
    "country": "United States",
    "longitude": null,
    "latitude": null,
    "phone": null,
    "website_url": null,
    "state": "Maryland",
    "street": "2300 Harvey Gummel Rd"
  },
  {
    "id": "4e7fcced-ba7b-4b66-b611-e2d8e10e3010",
    "name": "Ruhstaller Beer",
    "brewery_type": "micro",
    "address_1": "800 Business Park Drive, Suite G",
    "address_2": null,
    "address_3": null,
    "city": "Dixon",
    "state_province": "California",
    "postal_code": "95620",
    "country": "United States",
    "longitude": -121.8196403,
    "latitude": 38.45364691,
    "phone": "5306018240",
    "website_url": null,
    "state": "California",
    "street": "800 Business Park Drive, Suite G"
  },
  {
    "id": "e8fc3db0-8353-4962-9885-c796966ca78a",
    "name": "Ruhstaller Beer",
    "brewery_type": "micro",
    "address_1": "726 K St",
    "address_2": null,
    "address_3": null,
    "city": "Sacramento",
    "state_province": "California",
    "postal_code": "95814-3403",
    "country": "United States",
    "longitude": -121.497428,
    "latitude": 38.58004528,
    "phone": "9169195691",
    "website_url": "http://www.ruhstallerbeer.com",
    "state": "California",
    "street": "726 K St"
  },
  {
    "id": "2dfdff97-4d69-4638-b297-eb19a8d182f2",
    "name": "Rule105 Brewing",
    "brewery_type": "micro",
    "address_1": "4731 W 10th St",
    "address_2": null,
    "address_3": null,
    "city": "Greeley",
    "state_province": "Colorado",
    "postal_code": "80634",
    "country": "United States",
    "longitude": -104.7576182,
    "latitude": 40.421957,
    "phone": "9703014575",
    "website_url": "http://www.rule105brewing.com/",
    "state": "Colorado",
    "street": "4731 W 10th St"
  },
  {
    "id": "b70e163a-8e4d-4b02-93fa-8b4f45732cc9",
    "name": "Rumspringa Brewing Co",
    "brewery_type": "micro",
    "address_1": "3174 Old Philadelphia Pike",
    "address_2": null,
    "address_3": null,
    "city": "Bird In Hand",
    "state_province": "Pennsylvania",
    "postal_code": "17505-9727",
    "country": "United States",
    "longitude": -76.18731,
    "latitude": 40.038905,
    "phone": "7177687194",
    "website_url": null,
    "state": "Pennsylvania",
    "street": "3174 Old Philadelphia Pike"
  },
  {
    "id": "689e4378-f742-4443-bb82-778d19036512",
    "name": "Run of the Mill Public House & Brewery",
    "brewery_type": "brewpub",
    "address_1": "100 Main St",
    "address_2": null,
    "address_3": null,
    "city": "Saco",
    "state_province": "Maine",
    "postal_code": "04072-3500",
    "country": "United States",
    "longitude": -70.442601,
    "latitude": 43.501374,
    "phone": "2075719648",
    "website_url": "http://www.therunofthemill.net",
    "state": "Maine",
    "street": "100 Main St"
  },
  {
    "id": "0759476d-8fed-46cc-abec-1cb02cbca0d6",
    "name": "Running Dogs Brewery",
    "brewery_type": "proprietor",
    "address_1": "291 S 1st St,St.",
    "address_2": null,
    "address_3": null,
    "city": "Saint Helens",
    "state_province": "Oregon",
    "postal_code": "97051",
    "country": "United States",
    "longitude": -122.7980095,
    "latitude": 45.86251169,
    "phone": "5033971103",
    "website_url": "http://www.runningdogsbrewery.com",
    "state": "Oregon",
    "street": "291 S 1st St,St."
  },
  {
    "id": "6e516bce-6396-4f42-9dd0-e60a520eb651",
    "name": "Running Walker Brewery & Braman Winery",
    "brewery_type": "micro",
    "address_1": "3421 FM 359 Rd",
    "address_2": null,
    "address_3": null,
    "city": "Richmond",
    "state_province": "Texas",
    "postal_code": "77406-7855",
    "country": "United States",
    "longitude": null,
    "latitude": null,
    "phone": null,
    "website_url": null,
    "state": "Texas",
    "street": "3421 FM 359 Rd"
  },
  {
    "id": "969a6832-1577-487f-a325-fd5350678dbe",
    "name": "Rupert's Brew House",
    "brewery_type": "micro",
    "address_1": "773 W Michigan Ave",
    "address_2": null,
    "address_3": null,
    "city": "Kalamazoo",
    "state_province": "Michigan",
    "postal_code": "49007-4518",
    "country": "United States",
    "longitude": -85.5941774,
    "latitude": 42.29072325,
    "phone": "2693379911",
    "website_url": "http://www.rupertsbrewhouse.com",
    "state": "Michigan",
    "street": "773 W Michigan Ave"
  },
  {
    "id": "dd223433-1a97-435a-9b7d-995390ffb806",
    "name": "Rural Brewing Company",
    "brewery_type": "planning",
    "address_1": null,
    "address_2": null,
    "address_3": null,
    "city": "Sturgeon Bay",
    "state_province": "Wisconsin",
    "postal_code": "53590",
    "country": "United States",
    "longitude": null,
    "latitude": null,
    "phone": null,
    "website_url": "http://www.ruralbrewingcompany.com",
    "state": "Wisconsin",
    "street": null
  },
  {
    "id": "f2472289-d2d3-4a02-8b98-10c88b8e9da3",
    "name": "Ruse Brewing, LLC.",
    "brewery_type": "proprietor",
    "address_1": "4784 SE 17th Ave",
    "address_2": null,
    "address_3": null,
    "city": "Portland",
    "state_province": "Oregon",
    "postal_code": "97202",
    "country": "United States",
    "longitude": -122.6470059,
    "latitude": 45.4593922,
    "phone": "5036628325",
    "website_url": "http://www.rusebrewing.com",
    "state": "Oregon",
    "street": "4784 SE 17th Ave"
  },
  {
    "id": "73fdad85-48d2-4cc0-92bb-358ada1a5c59",
    "name": "Rush River Brewing Co",
    "brewery_type": "micro",
    "address_1": "990 Antler Ct",
    "address_2": null,
    "address_3": null,
    "city": "River Falls",
    "state_province": "Wisconsin",
    "postal_code": "54022-4880",
    "country": "United States",
    "longitude": -92.63861533,
    "latitude": 44.8911208,
    "phone": "7154262054",
    "website_url": "http://www.rushriverbeer.com",
    "state": "Wisconsin",
    "street": "990 Antler Ct"
  },
  {
    "id": "1fd1cefa-9157-4071-8345-bad0be6d4a5a",
    "name": "Rushing Duck Brewing Co",
    "brewery_type": "micro",
    "address_1": "1 Battiato Ln",
    "address_2": null,
    "address_3": null,
    "city": "Chester",
    "state_province": "New York",
    "postal_code": "10918-1283",
    "country": "United States",
    "longitude": -74.270801,
    "latitude": 41.362221,
    "phone": "8456105440",
    "website_url": "http://www.rushingduck.com",
    "state": "New York",
    "street": "1 Battiato Ln"
  },
  {
    "id": "33645666-10c9-4704-956e-ae006c29abb2",
    "name": "Russian River Brewing Co",
    "brewery_type": "regional",
    "address_1": "725 4th St",
    "address_2": null,
    "address_3": null,
    "city": "Santa Rosa",
    "state_province": "California",
    "postal_code": "95404-4407",
    "country": "United States",
    "longitude": -122.7116607,
    "latitude": 38.4418139,
    "phone": "7075452337",
    "website_url": "http://www.russianriverbrewing.com",
    "state": "California",
    "street": "725 4th St"
  },
  {
    "id": "51d49909-8dc5-48b9-bc92-79bf6f4b5cb3",
    "name": "Russian River Brewing Co - Production",
    "brewery_type": "micro",
    "address_1": "1812 Ferdinand Ct",
    "address_2": null,
    "address_3": null,
    "city": "Santa Rosa",
    "state_province": "California",
    "postal_code": "95404-5968",
    "country": "United States",
    "longitude": -122.7094385,
    "latitude": 38.4216577,
    "phone": null,
    "website_url": "http://www.russianriverbrewing.com",
    "state": "California",
    "street": "1812 Ferdinand Ct"
  },
  {
    "id": "cea10be6-618c-4188-9f35-3fde4a5b1080",
    "name": "Rustic Brew",
    "brewery_type": "brewpub",
    "address_1": "117 1st St NW",
    "address_2": null,
    "address_3": null,
    "city": "Hampton",
    "state_province": "Iowa",
    "postal_code": "50441-1701",
    "country": "United States",
    "longitude": -93.20855984,
    "latitude": 42.74298149,
    "phone": "6414562141",
    "website_url": "http://www.rusticbrew.com",
    "state": "Iowa",
    "street": "117 1st St NW"
  },
  {
    "id": "5bc03c91-fce7-4e14-9aeb-05303d7e6bbb",
    "name": "Rustic Leaf Brewing Company",
    "brewery_type": "micro",
    "address_1": "7200 Highland Rd",
    "address_2": null,
    "address_3": null,
    "city": "Waterford",
    "state_province": "Michigan",
    "postal_code": "48327-1506",
    "country": "United States",
    "longitude": -83.4048664,
    "latitude": 42.659901,
    "phone": "2485999933",
    "website_url": "http://www.rusticleafbrewingcompany.com",
    "state": "Michigan",
    "street": "7200 Highland Rd"
  },
  {
    "id": "c33a13bf-bb83-4374-b4cc-1a4b43623ae5",
    "name": "Rustic Road Brewing Co",
    "brewery_type": "micro",
    "address_1": "5706 6th Ave",
    "address_2": null,
    "address_3": null,
    "city": "Kenosha",
    "state_province": "Wisconsin",
    "postal_code": "53140-4104",
    "country": "United States",
    "longitude": -87.81848261,
    "latitude": 42.58399215,
    "phone": "2623207623",
    "website_url": "http://www.rusticbrewing.com",
    "state": "Wisconsin",
    "street": "5706 6th Ave"
  }
]